{"class":"VERSION","release":"3.22","rev":"3.22","proto_major":3,"proto_minor":14}
{"class":"DEVICES","devices":[{"class":"DEVICE","path":"/dev/ttyACM0","driver":"u-blox","subtype":"SW EXT CORE 1.00 (3fda8e),HW 00190000","subtype1":"ROM BASE 0x118B2060,FWVER=TIM 2.20,PROTVER=29.20,MOD=ZED-F9T,GPS;GLO;GAL;BDS,SBAS;QZSS,NAVIC","activated":"2025-05-18T17:00:01.086Z","flags":1,"native":1,"bps":9600,"parity":"N","stopbits":1,"cycle":1.00,"mincycle":0.02},{"class":"DEVICE","path":"/dev/pps0","driver":"PPS","activated":"2025-05-18T17:00:01.000Z"}]}
{"class":"WATCH","enable":true,"json":true,"nmea":false,"raw":0,"scaled":false,"timing":false,"split24":false,"pps":false}
{"class":"PPS","device":"/dev/pps0","real_sec":1747587602,"real_nsec":0,"clock_sec":1747587601,"clock_nsec":999998813,"precision":-20}
{"class":"TPV","device":"/dev/ttyACM0","mode":3,"time":"2025-05-18T17:00:02.000Z","leapseconds":18,"ept":0.005,"lat":41.880678400,"lon":-87.643818000,"altHAE":258.4870,"altMSL":292.2760,"alt":292.2760,"epx":15.502,"epy":11.765,"epv":1.250,"track":246.8936,"magtrack":20.3877,"magvar":-4.1,"speed":0.002,"climb":0.000,"eps":0.02,"epc":2.50,"ecefx":195528.53,"ecefy":-4752028.41,"ecefz":4235918.05,"ecefvx":0.00,"ecefvy":0.00,"ecefvz":0.00,"ecefpAcc":1.72,"ecefvAcc":0.02,"geoidSep":-33.900,"eph":1.186,"sep":19.974}
{"class":"SKY","device":"/dev/ttyACM0","time":"2025-05-18T17:00:02.000Z","xdop":0.75,"ydop":0.64,"vdop":1.45,"tdop":1.19,"hdop":1.40,"gdop":2.34,"pdop":2.02,"nSat":41,"uSat":19,"satellites":[{"PRN":4,"el":6.0,"az":54.0,"ss":0.0,"used":false,"gnssid":0,"svid":4,"health":1},{"PRN":5,"el":8.0,"az":198.0,"ss":45.0,"used":false,"gnssid":0,"svid":5,"health":1},{"PRN":6,"el":62.0,"az":39.0,"ss":11.0,"used":true,"gnssid":0,"svid":6,"health":1},{"PRN":9,"el":10.0,"az":86.0,"ss":0.0,"used":false,"gnssid":0,"svid":9,"health":1},{"PRN":11,"el":74.0,"az":278.0,"ss":39.0,"used":true,"gnssid":0,"svid":11,"health":1},{"PRN":12,"el":53.0,"az":291.0,"ss":41.0,"used":true,"gnssid":0,"svid":12,"health":1},{"PRN":17,"el":19.0,"az":104.0,"ss":0.0,"used":false,"gnssid":0,"svid":17,"health":1},{"PRN":19,"el":44.0,"az":94.0,"ss":0.0,"used":false,"gnssid":0,"svid":19,"health":1},{"PRN":20,"el":42.0,"az":189.0,"ss":45.0,"used":true,"gnssid":0,"svid":20,"health":1},{"PRN":22,"el":12.0,"az":158.0,"ss":37.0,"used":true,"gnssid":0,"svid":22,"health":1},{"PRN":24,"el":3.0,"az":240.0,"ss":40.0,"used":false,"gnssid":0,"svid":24,"health":1},{"PRN":25,"el":23.0,"az":314.0,"ss":25.0,"used":true,"gnssid":0,"svid":25,"health":1},{"PRN":310,"el":74.0,"az":274.0,"ss":38.0,"used":true,"gnssid":2,"svid":10,"health":1},{"PRN":311,"el":46.0,"az":249.0,"ss":35.0,"used":true,"gnssid":2,"svid":11,"health":1},{"PRN":312,"el":73.0,"az":25.0,"ss":9.0,"used":false,"gnssid":2,"svid":12,"health":1},{"PRN":316,"el":62.0,"az":279.0,"ss":39.0,"used":true,"gnssid":2,"svid":16,"health":1},{"PRN":319,"el":4.0,"az":101.0,"ss":0.0,"used":false,"gnssid":2,"svid":19,"health":1},{"PRN":324,"el":66.0,"az":209.0,"ss":42.0,"used":true,"gnssid":2,"svid":24,"health":1},{"PRN":325,"el":42.0,"az":306.0,"ss":33.0,"used":true,"gnssid":2,"svid":25,"health":1},{"PRN":329,"el":5.0,"az":59.0,"ss":0.0,"used":false,"gnssid":2,"svid":29,"health":1},{"PRN":331,"el":23.0,"az":160.0,"ss":42.0,"used":true,"gnssid":2,"svid":31,"health":1},{"PRN":333,"el":21.0,"az":53.0,"ss":0.0,"used":false,"gnssid":2,"svid":33,"health":1},{"PRN":411,"el":44.0,"az":67.0,"ss":12.0,"used":false,"gnssid":3,"svid":11,"health":1},{"PRN":414,"el":28.0,"az":135.0,"ss":0.0,"used":false,"gnssid":3,"svid":14,"health":1},{"PRN":421,"el":21.0,"az":49.0,"ss":0.0,"used":false,"gnssid":3,"svid":21,"health":1},{"PRN":423,"el":31.0,"az":223.0,"ss":41.0,"used":true,"gnssid":3,"svid":23,"health":1},{"PRN":425,"el":3.0,"az":182.0,"ss":42.0,"used":false,"gnssid":3,"svid":25,"health":1},{"PRN":428,"el":38.0,"az":283.0,"ss":45.0,"used":true,"gnssid":3,"svid":28,"health":1},{"PRN":433,"el":15.0,"az":159.0,"ss":33.0,"used":true,"gnssid":3,"svid":33,"health":1},{"PRN":434,"el":22.0,"az":81.0,"ss":0.0,"used":false,"gnssid":3,"svid":34,"health":1},{"PRN":437,"el":33.0,"az":285.0,"ss":42.0,"used":true,"gnssid":3,"svid":37,"health":1},{"PRN":65,"el":30.0,"az":100.0,"ss":0.0,"used":false,"gnssid":6,"svid":1,"health":1},{"PRN":66,"el":8.0,"az":145.0,"ss":29.0,"used":false,"gnssid":6,"svid":2,"health":1},{"PRN":72,"el":20.0,"az":39.0,"ss":0.0,"used":false,"gnssid":6,"svid":8,"health":1},{"PRN":78,"el":35.0,"az":209.0,"ss":45.0,"used":true,"gnssid":6,"svid":14,"health":1},{"PRN":79,"el":49.0,"az":284.0,"ss":43.0,"used":true,"gnssid":6,"svid":15,"health":1}]}
{"class":"PPS","device":"/dev/pps0","real_sec":1747587603,"real_nsec":0,"clock_sec":1747587602,"clock_nsec":999998287,"precision":-20}
{"class":"TPV","device":"/dev/ttyACM0","mode":3,"time":"2025-05-18T17:00:03.000Z","leapseconds":18,"ept":0.005,"lat":41.880678500,"lon":-87.643818000,"altHAE":258.4840,"altMSL":292.2730,"alt":292.2730,"epx":11.186,"epy":9.619,"epv":1.251,"track":246.8936,"magtrack":20.3877,"magvar":-4.1,"speed":0.002,"climb":0.000,"eps":0.02,"epc":2.50,"ecefx":195528.53,"ecefy":-4752028.41,"ecefz":4235918.05,"ecefvx":0.00,"ecefvy":0.00,"ecefvz":0.00,"ecefpAcc":1.72,"ecefvAcc":0.02,"geoidSep":-33.900,"eph":1.186,"sep":19.974}
{"class":"SKY","device":"/dev/ttyACM0","time":"2025-05-18T17:00:03.000Z","xdop":1.03,"ydop":0.78,"vdop":1.45,"tdop":1.13,"hdop":1.07,"gdop":2.13,"pdop":1.80,"nSat":41,"uSat":18,"satellites":[{"PRN":4,"el":6.0,"az":54.0,"ss":0.0,"used":false,"gnssid":0,"svid":4,"health":1},{"PRN":5,"el":8.0,"az":198.0,"ss":45.0,"used":false,"gnssid":0,"svid":5,"health":1},{"PRN":6,"el":62.0,"az":39.0,"ss":8.0,"used":false,"gnssid":0,"svid":6,"health":1},{"PRN":9,"el":10.0,"az":86.0,"ss":0.0,"used":false,"gnssid":0,"svid":9,"health":1},{"PRN":11,"el":74.0,"az":278.0,"ss":39.0,"used":true,"gnssid":0,"svid":11,"health":1},{"PRN":12,"el":53.0,"az":291.0,"ss":41.0,"used":true,"gnssid":0,"svid":12,"health":1},{"PRN":17,"el":19.0,"az":104.0,"ss":0.0,"used":false,"gnssid":0,"svid":17,"health":1},{"PRN":19,"el":44.0,"az":94.0,"ss":0.0,"used":false,"gnssid":0,"svid":19,"health":1},{"PRN":20,"el":42.0,"az":189.0,"ss":45.0,"used":true,"gnssid":0,"svid":20,"health":1},{"PRN":22,"el":12.0,"az":158.0,"ss":36.0,"used":true,"gnssid":0,"svid":22,"health":1},{"PRN":24,"el":3.0,"az":240.0,"ss":39.0,"used":false,"gnssid":0,"svid":24,"health":1},{"PRN":25,"el":23.0,"az":314.0,"ss":25.0,"used":true,"gnssid":0,"svid":25,"health":1},{"PRN":310,"el":74.0,"az":274.0,"ss":38.0,"used":true,"gnssid":2,"svid":10,"health":1},{"PRN":311,"el":46.0,"az":249.0,"ss":34.0,"used":true,"gnssid":2,"svid":11,"health":1},{"PRN":312,"el":73.0,"az":25.0,"ss":10.0,"used":false,"gnssid":2,"svid":12,"health":1},{"PRN":316,"el":62.0,"az":279.0,"ss":39.0,"used":true,"gnssid":2,"svid":16,"health":1},{"PRN":319,"el":4.0,"az":101.0,"ss":0.0,"used":false,"gnssid":2,"svid":19,"health":1},{"PRN":324,"el":66.0,"az":209.0,"ss":42.0,"used":true,"gnssid":2,"svid":24,"health":1},{"PRN":325,"el":42.0,"az":306.0,"ss":33.0,"used":true,"gnssid":2,"svid":25,"health":1},{"PRN":329,"el":5.0,"az":59.0,"ss":0.0,"used":false,"gnssid":2,"svid":29,"health":1},{"PRN":331,"el":23.0,"az":160.0,"ss":42.0,"used":true,"gnssid":2,"svid":31,"health":1},{"PRN":333,"el":21.0,"az":53.0,"ss":0.0,"used":false,"gnssid":2,"svid":33,"health":1},{"PRN":411,"el":44.0,"az":67.0,"ss":13.0,"used":false,"gnssid":3,"svid":11,"health":1},{"PRN":414,"el":28.0,"az":135.0,"ss":0.0,"used":false,"gnssid":3,"svid":14,"health":1},{"PRN":421,"el":21.0,"az":49.0,"ss":0.0,"used":false,"gnssid":3,"svid":21,"health":1},{"PRN":423,"el":31.0,"az":223.0,"ss":41.0,"used":true,"gnssid":3,"svid":23,"health":1},{"PRN":425,"el":3.0,"az":182.0,"ss":43.0,"used":false,"gnssid":3,"svid":25,"health":1},{"PRN":428,"el":38.0,"az":283.0,"ss":45.0,"used":true,"gnssid":3,"svid":28,"health":1},{"PRN":433,"el":15.0,"az":159.0,"ss":33.0,"used":true,"gnssid":3,"svid":33,"health":1},{"PRN":434,"el":22.0,"az":81.0,"ss":0.0,"used":false,"gnssid":3,"svid":34,"health":1},{"PRN":437,"el":33.0,"az":285.0,"ss":42.0,"used":true,"gnssid":3,"svid":37,"health":1},{"PRN":65,"el":30.0,"az":100.0,"ss":0.0,"used":false,"gnssid":6,"svid":1,"health":1},{"PRN":66,"el":8.0,"az":145.0,"ss":30.0,"used":false,"gnssid":6,"svid":2,"health":1},{"PRN":72,"el":20.0,"az":39.0,"ss":23.0,"used":false,"gnssid":6,"svid":8,"health":1},{"PRN":78,"el":35.0,"az":209.0,"ss":44.0,"used":true,"gnssid":6,"svid":14,"health":1},{"PRN":79,"el":49.0,"az":284.0,"ss":43.0,"used":true,"gnssid":6,"svid":15,"health":1}]}
{"class":"PPS","device":"/dev/pps0","real_sec":1747587604,"real_nsec":0,"clock_sec":1747587604,"clock_nsec":854,"precision":-20}
{"class":"TPV","device":"/dev/ttyACM0","mode":3,"time":"2025-05-18T17:00:04.000Z","leapseconds":18,"ept":0.005,"lat":41.880678500,"lon":-87.643818000,"altHAE":258.4790,"altMSL":292.2680,"alt":292.2680,"epx":15.502,"epy":11.765,"epv":1.251,"track":246.8936,"magtrack":20.3877,"magvar":-4.1,"speed":0.002,"climb":0.000,"eps":0.02,"epc":2.50,"ecefx":195528.53,"ecefy":-4752028.40,"ecefz":4235918.05,"ecefvx":0.00,"ecefvy":0.00,"ecefvz":0.00,"ecefpAcc":1.72,"ecefvAcc":0.02,"geoidSep":-33.900,"eph":1.185,"sep":19.974}
{"class":"SKY","device":"/dev/ttyACM0","time":"2025-05-18T17:00:04.000Z","xdop":0.75,"ydop":0.64,"vdop":1.45,"tdop":1.19,"hdop":1.40,"gdop":2.34,"pdop":2.02,"nSat":41,"uSat":19,"satellites":[{"PRN":4,"el":6.0,"az":54.0,"ss":0.0,"used":false,"gnssid":0,"svid":4,"health":1},{"PRN":5,"el":8.0,"az":198.0,"ss":45.0,"used":false,"gnssid":0,"svid":5,"health":1},{"PRN":6,"el":62.0,"az":39.0,"ss":9.0,"used":true,"gnssid":0,"svid":6,"health":1},{"PRN":9,"el":10.0,"az":86.0,"ss":0.0,"used":false,"gnssid":0,"svid":9,"health":1},{"PRN":11,"el":74.0,"az":278.0,"ss":39.0,"used":true,"gnssid":0,"svid":11,"health":1},{"PRN":12,"el":53.0,"az":291.0,"ss":41.0,"used":true,"gnssid":0,"svid":12,"health":1},{"PRN":17,"el":19.0,"az":104.0,"ss":0.0,"used":false,"gnssid":0,"svid":17,"health":1},{"PRN":19,"el":44.0,"az":94.0,"ss":0.0,"used":false,"gnssid":0,"svid":19,"health":1},{"PRN":20,"el":42.0,"az":189.0,"ss":45.0,"used":true,"gnssid":0,"svid":20,"health":1},{"PRN":22,"el":12.0,"az":158.0,"ss":35.0,"used":true,"gnssid":0,"svid":22,"health":1},{"PRN":24,"el":3.0,"az":240.0,"ss":39.0,"used":false,"gnssid":0,"svid":24,"health":1},{"PRN":25,"el":23.0,"az":314.0,"ss":25.0,"used":true,"gnssid":0,"svid":25,"health":1},{"PRN":310,"el":74.0,"az":274.0,"ss":38.0,"used":true,"gnssid":2,"svid":10,"health":1},{"PRN":311,"el":46.0,"az":249.0,"ss":33.0,"used":true,"gnssid":2,"svid":11,"health":1},{"PRN":312,"el":73.0,"az":25.0,"ss":7.0,"used":false,"gnssid":2,"svid":12,"health":1},{"PRN":316,"el":62.0,"az":279.0,"ss":39.0,"used":true,"gnssid":2,"svid":16,"health":1},{"PRN":319,"el":4.0,"az":101.0,"ss":0.0,"used":false,"gnssid":2,"svid":19,"health":1},{"PRN":324,"el":66.0,"az":209.0,"ss":42.0,"used":true,"gnssid":2,"svid":24,"health":1},{"PRN":325,"el":42.0,"az":306.0,"ss":33.0,"used":true,"gnssid":2,"svid":25,"health":1},{"PRN":329,"el":5.0,"az":59.0,"ss":0.0,"used":false,"gnssid":2,"svid":29,"health":1},{"PRN":331,"el":23.0,"az":160.0,"ss":43.0,"used":true,"gnssid":2,"svid":31,"health":1},{"PRN":333,"el":21.0,"az":53.0,"ss":16.0,"used":false,"gnssid":2,"svid":33,"health":1},{"PRN":411,"el":44.0,"az":67.0,"ss":15.0,"used":false,"gnssid":3,"svid":11,"health":1},{"PRN":414,"el":28.0,"az":135.0,"ss":0.0,"used":false,"gnssid":3,"svid":14,"health":1},{"PRN":421,"el":21.0,"az":49.0,"ss":0.0,"used":false,"gnssid":3,"svid":21,"health":1},{"PRN":423,"el":31.0,"az":223.0,"ss":41.0,"used":true,"gnssid":3,"svid":23,"health":1},{"PRN":425,"el":3.0,"az":182.0,"ss":43.0,"used":false,"gnssid":3,"svid":25,"health":1},{"PRN":428,"el":38.0,"az":283.0,"ss":45.0,"used":true,"gnssid":3,"svid":28,"health":1},{"PRN":433,"el":15.0,"az":159.0,"ss":33.0,"used":true,"gnssid":3,"svid":33,"health":1},{"PRN":434,"el":22.0,"az":81.0,"ss":15.0,"used":false,"gnssid":3,"svid":34,"health":1},{"PRN":437,"el":33.0,"az":285.0,"ss":42.0,"used":true,"gnssid":3,"svid":37,"health":1},{"PRN":65,"el":30.0,"az":100.0,"ss":0.0,"used":false,"gnssid":6,"svid":1,"health":1},{"PRN":66,"el":8.0,"az":145.0,"ss":29.0,"used":false,"gnssid":6,"svid":2,"health":1},{"PRN":72,"el":20.0,"az":39.0,"ss":25.0,"used":false,"gnssid":6,"svid":8,"health":1},{"PRN":78,"el":35.0,"az":209.0,"ss":46.0,"used":true,"gnssid":6,"svid":14,"health":1},{"PRN":79,"el":49.0,"az":284.0,"ss":44.0,"used":true,"gnssid":6,"svid":15,"health":1}]}
{"class":"PPS","device":"/dev/pps0","real_sec":1747587605,"real_nsec":0,"clock_sec":1747587604,"clock_nsec":999998144,"precision":-20}
{"class":"TPV","device":"/dev/ttyACM0","mode":3,"time":"2025-05-18T17:00:05.000Z","leapseconds":18,"ept":0.005,"lat":41.880678500,"lon":-87.643818000,"altHAE":258.4750,"altMSL":292.2640,"alt":292.2640,"epx":11.186,"epy":9.619,"epv":1.252,"track":246.8936,"magtrack":20.3877,"magvar":-4.1,"speed":0.002,"climb":0.000,"eps":0.02,"epc":2.50,"ecefx":195528.53,"ecefy":-4752028.40,"ecefz":4235918.05,"ecefvx":0.00,"ecefvy":0.00,"ecefvz":0.00,"ecefpAcc":1.72,"ecefvAcc":0.02,"geoidSep":-33.900,"eph":1.185,"sep":19.974}
{"class":"SKY","device":"/dev/ttyACM0","time":"2025-05-18T17:00:05.000Z","xdop":0.68,"ydop":0.62,"vdop":1.45,"tdop":1.19,"hdop":1.40,"gdop":2.34,"pdop":2.02,"nSat":41,"uSat":20,"satellites":[{"PRN":4,"el":6.0,"az":54.0,"ss":0.0,"used":false,"gnssid":0,"svid":4,"health":1},{"PRN":5,"el":8.0,"az":198.0,"ss":45.0,"used":false,"gnssid":0,"svid":5,"health":1},{"PRN":6,"el":62.0,"az":39.0,"ss":9.0,"used":true,"gnssid":0,"svid":6,"health":1},{"PRN":9,"el":10.0,"az":86.0,"ss":0.0,"used":false,"gnssid":0,"svid":9,"health":1},{"PRN":11,"el":74.0,"az":278.0,"ss":39.0,"used":true,"gnssid":0,"svid":11,"health":1},{"PRN":12,"el":53.0,"az":291.0,"ss":41.0,"used":true,"gnssid":0,"svid":12,"health":1},{"PRN":17,"el":19.0,"az":104.0,"ss":0.0,"used":false,"gnssid":0,"svid":17,"health":1},{"PRN":19,"el":44.0,"az":94.0,"ss":0.0,"used":false,"gnssid":0,"svid":19,"health":1},{"PRN":20,"el":42.0,"az":189.0,"ss":45.0,"used":true,"gnssid":0,"svid":20,"health":1},{"PRN":22,"el":12.0,"az":158.0,"ss":34.0,"used":true,"gnssid":0,"svid":22,"health":1},{"PRN":24,"el":3.0,"az":240.0,"ss":39.0,"used":false,"gnssid":0,"svid":24,"health":1},{"PRN":25,"el":23.0,"az":314.0,"ss":24.0,"used":true,"gnssid":0,"svid":25,"health":1},{"PRN":310,"el":74.0,"az":274.0,"ss":38.0,"used":true,"gnssid":2,"svid":10,"health":1},{"PRN":311,"el":46.0,"az":249.0,"ss":33.0,"used":true,"gnssid":2,"svid":11,"health":1},{"PRN":312,"el":73.0,"az":25.0,"ss":9.0,"used":true,"gnssid":2,"svid":12,"health":1},{"PRN":316,"el":62.0,"az":279.0,"ss":39.0,"used":true,"gnssid":2,"svid":16,"health":1},{"PRN":319,"el":4.0,"az":101.0,"ss":0.0,"used":false,"gnssid":2,"svid":19,"health":1},{"PRN":324,"el":66.0,"az":209.0,"ss":42.0,"used":true,"gnssid":2,"svid":24,"health":1},{"PRN":325,"el":42.0,"az":306.0,"ss":32.0,"used":true,"gnssid":2,"svid":25,"health":1},{"PRN":329,"el":5.0,"az":59.0,"ss":0.0,"used":false,"gnssid":2,"svid":29,"health":1},{"PRN":331,"el":23.0,"az":160.0,"ss":43.0,"used":true,"gnssid":2,"svid":31,"health":1},{"PRN":333,"el":21.0,"az":53.0,"ss":15.0,"used":false,"gnssid":2,"svid":33,"health":1},{"PRN":411,"el":44.0,"az":67.0,"ss":15.0,"used":false,"gnssid":3,"svid":11,"health":1},{"PRN":414,"el":28.0,"az":135.0,"ss":0.0,"used":false,"gnssid":3,"svid":14,"health":1},{"PRN":421,"el":21.0,"az":49.0,"ss":0.0,"used":false,"gnssid":3,"svid":21,"health":1},{"PRN":423,"el":31.0,"az":223.0,"ss":41.0,"used":true,"gnssid":3,"svid":23,"health":1},{"PRN":425,"el":3.0,"az":182.0,"ss":41.0,"used":false,"gnssid":3,"svid":25,"health":1},{"PRN":428,"el":38.0,"az":283.0,"ss":45.0,"used":true,"gnssid":3,"svid":28,"health":1},{"PRN":433,"el":15.0,"az":159.0,"ss":32.0,"used":true,"gnssid":3,"svid":33,"health":1},{"PRN":434,"el":22.0,"az":81.0,"ss":14.0,"used":false,"gnssid":3,"svid":34,"health":1},{"PRN":437,"el":33.0,"az":285.0,"ss":42.0,"used":true,"gnssid":3,"svid":37,"health":1},{"PRN":65,"el":30.0,"az":100.0,"ss":0.0,"used":false,"gnssid":6,"svid":1,"health":1},{"PRN":66,"el":8.0,"az":145.0,"ss":29.0,"used":false,"gnssid":6,"svid":2,"health":1},{"PRN":72,"el":20.0,"az":39.0,"ss":22.0,"used":false,"gnssid":6,"svid":8,"health":1},{"PRN":78,"el":35.0,"az":209.0,"ss":46.0,"used":true,"gnssid":6,"svid":14,"health":1},{"PRN":79,"el":49.0,"az":284.0,"ss":44.0,"used":true,"gnssid":6,"svid":15,"health":1}]}
{"class":"PPS","device":"/dev/pps0","real_sec":1747587606,"real_nsec":0,"clock_sec":1747587605,"clock_nsec":999999266,"precision":-20}
{"class":"TPV","device":"/dev/ttyACM0","mode":3,"time":"2025-05-18T17:00:06.000Z","leapseconds":18,"ept":0.005,"lat":41.880678500,"lon":-87.643817900,"altHAE":258.4710,"altMSL":292.2600,"alt":292.2600,"epx":10.203,"epy":9.292,"epv":1.252,"track":246.8936,"magtrack":20.3877,"magvar":-4.1,"speed":0.002,"climb":0.000,"eps":0.02,"epc":2.50,"ecefx":195528.54,"ecefy":-4752028.39,"ecefz":4235918.05,"ecefvx":0.00,"ecefvy":0.00,"ecefvz":0.00,"ecefpAcc":1.72,"ecefvAcc":0.02,"geoidSep":-33.900,"eph":1.184,"sep":19.974}
{"class":"SKY","device":"/dev/ttyACM0","time":"2025-05-18T17:00:06.000Z","xdop":0.59,"ydop":0.55,"vdop":1.43,"tdop":1.13,"hdop":1.01,"gdop":2.09,"pdop":1.75,"nSat":41,"uSat":21,"satellites":[{"PRN":4,"el":6.0,"az":54.0,"ss":0.0,"used":false,"gnssid":0,"svid":4,"health":1},{"PRN":5,"el":8.0,"az":198.0,"ss":45.0,"used":false,"gnssid":0,"svid":5,"health":1},{"PRN":6,"el":62.0,"az":39.0,"ss":10.0,"used":true,"gnssid":0,"svid":6,"health":1},{"PRN":9,"el":10.0,"az":86.0,"ss":0.0,"used":false,"gnssid":0,"svid":9,"health":1},{"PRN":11,"el":74.0,"az":278.0,"ss":39.0,"used":true,"gnssid":0,"svid":11,"health":1},{"PRN":12,"el":53.0,"az":291.0,"ss":41.0,"used":true,"gnssid":0,"svid":12,"health":1},{"PRN":17,"el":19.0,"az":104.0,"ss":0.0,"used":false,"gnssid":0,"svid":17,"health":1},{"PRN":19,"el":44.0,"az":94.0,"ss":0.0,"used":false,"gnssid":0,"svid":19,"health":1},{"PRN":20,"el":42.0,"az":189.0,"ss":45.0,"used":true,"gnssid":0,"svid":20,"health":1},{"PRN":22,"el":12.0,"az":158.0,"ss":35.0,"used":true,"gnssid":0,"svid":22,"health":1},{"PRN":24,"el":3.0,"az":240.0,"ss":39.0,"used":false,"gnssid":0,"svid":24,"health":1},{"PRN":25,"el":23.0,"az":314.0,"ss":24.0,"used":true,"gnssid":0,"svid":25,"health":1},{"PRN":310,"el":74.0,"az":274.0,"ss":38.0,"used":true,"gnssid":2,"svid":10,"health":1},{"PRN":311,"el":46.0,"az":249.0,"ss":32.0,"used":true,"gnssid":2,"svid":11,"health":1},{"PRN":312,"el":73.0,"az":25.0,"ss":13.0,"used":true,"gnssid":2,"svid":12,"health":1},{"PRN":316,"el":62.0,"az":279.0,"ss":39.0,"used":true,"gnssid":2,"svid":16,"health":1},{"PRN":319,"el":4.0,"az":101.0,"ss":0.0,"used":false,"gnssid":2,"svid":19,"health":1},{"PRN":324,"el":66.0,"az":209.0,"ss":42.0,"used":true,"gnssid":2,"svid":24,"health":1},{"PRN":325,"el":42.0,"az":306.0,"ss":32.0,"used":true,"gnssid":2,"svid":25,"health":1},{"PRN":329,"el":5.0,"az":59.0,"ss":0.0,"used":false,"gnssid":2,"svid":29,"health":1},{"PRN":331,"el":23.0,"az":160.0,"ss":43.0,"used":true,"gnssid":2,"svid":31,"health":1},{"PRN":333,"el":21.0,"az":53.0,"ss":13.0,"used":false,"gnssid":2,"svid":33,"health":1},{"PRN":411,"el":44.0,"az":67.0,"ss":14.0,"used":false,"gnssid":3,"svid":11,"health":1},{"PRN":414,"el":28.0,"az":135.0,"ss":0.0,"used":false,"gnssid":3,"svid":14,"health":1},{"PRN":421,"el":21.0,"az":49.0,"ss":0.0,"used":false,"gnssid":3,"svid":21,"health":1},{"PRN":423,"el":31.0,"az":223.0,"ss":41.0,"used":true,"gnssid":3,"svid":23,"health":1},{"PRN":425,"el":3.0,"az":182.0,"ss":43.0,"used":false,"gnssid":3,"svid":25,"health":1},{"PRN":428,"el":38.0,"az":283.0,"ss":45.0,"used":true,"gnssid":3,"svid":28,"health":1},{"PRN":433,"el":15.0,"az":159.0,"ss":32.0,"used":true,"gnssid":3,"svid":33,"health":1},{"PRN":434,"el":22.0,"az":81.0,"ss":12.0,"used":false,"gnssid":3,"svid":34,"health":1},{"PRN":437,"el":33.0,"az":285.0,"ss":43.0,"used":true,"gnssid":3,"svid":37,"health":1},{"PRN":65,"el":30.0,"az":100.0,"ss":19.0,"used":false,"gnssid":6,"svid":1,"health":1},{"PRN":66,"el":8.0,"az":145.0,"ss":29.0,"used":false,"gnssid":6,"svid":2,"health":1},{"PRN":72,"el":20.0,"az":39.0,"ss":0.0,"used":false,"gnssid":6,"svid":8,"health":1},{"PRN":78,"el":35.0,"az":209.0,"ss":46.0,"used":true,"gnssid":6,"svid":14,"health":1},{"PRN":79,"el":49.0,"az":284.0,"ss":43.0,"used":true,"gnssid":6,"svid":15,"health":1}]}
{"class":"PPS","device":"/dev/pps0","real_sec":1747587607,"real_nsec":0,"clock_sec":1747587606,"clock_nsec":999997185,"precision":-20}
{"class":"TPV","device":"/dev/ttyACM0","mode":3,"time":"2025-05-18T17:00:07.000Z","leapseconds":18,"ept":0.005,"lat":41.880678500,"lon":-87.643817900,"altHAE":258.4660,"altMSL":292.2550,"alt":292.2550,"epx":8.801,"epy":8.315,"epv":1.252,"track":246.8936,"magtrack":20.3877,"magvar":-4.1,"speed":0.002,"climb":0.000,"eps":0.02,"epc":2.50,"ecefx":195528.54,"ecefy":-4752028.39,"ecefz":4235918.05,"ecefvx":0.00,"ecefvy":0.00,"ecefvz":0.00,"ecefpAcc":1.72,"ecefvAcc":0.02,"geoidSep":-33.900,"eph":1.183,"sep":19.974}
