{"class":"VERSION","release":"3.22","rev":"3.22","proto_major":3,"proto_minor":14}
{"class":"DEVICES","devices":[{"class":"DEVICE","path":"/dev/ttyACM0","driver":"u-blox","subtype":"SW EXT CORE 1.00 (3fda8e),HW 00190000","subtype1":"ROM BASE 0x118B2060,FWVER=TIM 2.20,PROTVER=29.20,MOD=ZED-F9T,GPS;GLO;GAL;BDS,SBAS;QZSS,NAVIC","activated":"2025-05-21T05:00:01.060Z","flags":1,"native":1,"bps":9600,"parity":"N","stopbits":1,"cycle":1.00,"mincycle":0.02},{"class":"DEVICE","path":"/dev/pps0","driver":"PPS","activated":"2025-05-21T05:00:01.001Z"}]}
{"class":"WATCH","enable":true,"json":true,"nmea":false,"raw":0,"scaled":false,"timing":false,"split24":false,"pps":false}
{"class":"PPS","device":"/dev/pps0","real_sec":1747803602,"real_nsec":0,"clock_sec":1747803601,"clock_nsec":999998892,"precision":-20}
{"class":"TPV","device":"/dev/ttyACM0","mode":3,"time":"2025-05-21T05:00:02.000Z","leapseconds":18,"ept":0.005,"lat":41.880734300,"lon":-87.643847000,"altHAE":252.8490,"altMSL":286.6380,"alt":286.6380,"epx":20.091,"epy":15.570,"epv":7.114,"track":246.8936,"magtrack":242.8388,"magvar":-4.1,"speed":0.008,"climb":-0.017,"eps":0.03,"epc":14.23,"ecefx":195525.79,"ecefy":-4752020.22,"ecefz":4235918.91,"ecefvx":0.00,"ecefvy":0.01,"ecefvz":0.00,"ecefpAcc":10.83,"ecefvAcc":0.03,"geoidSep":-33.900,"eph":8.154,"sep":23.940}
{"class":"SKY","device":"/dev/ttyACM0","time":"2025-05-21T05:00:02.000Z","xdop":1.34,"ydop":1.04,"vdop":1.98,"tdop":1.80,"hdop":1.60,"gdop":3.12,"pdop":2.54,"nSat":36,"uSat":12,"satellites":[{"PRN":1,"el":12.0,"az":249.0,"ss":25.0,"used":true,"gnssid":0,"svid":1,"health":1},{"PRN":3,"el":53.0,"az":288.0,"ss":29.0,"used":true,"gnssid":0,"svid":3,"health":1},{"PRN":4,"el":21.0,"az":300.0,"ss":0.0,"used":false,"gnssid":0,"svid":4,"health":1},{"PRN":16,"el":25.0,"az":184.0,"ss":18.0,"used":true,"gnssid":0,"svid":16,"health":1},{"PRN":25,"el":13.0,"az":40.0,"ss":0.0,"used":false,"gnssid":0,"svid":25,"health":1},{"PRN":26,"el":55.0,"az":167.0,"ss":26.0,"used":true,"gnssid":0,"svid":26,"health":1},{"PRN":28,"el":51.0,"az":51.0,"ss":10.0,"used":false,"gnssid":0,"svid":28,"health":1},{"PRN":29,"el":8.0,"az":76.0,"ss":0.0,"used":false,"gnssid":0,"svid":29,"health":1},{"PRN":31,"el":77.0,"az":12.0,"ss":9.0,"used":true,"gnssid":0,"svid":31,"health":1},{"PRN":32,"el":29.0,"az":108.0,"ss":9.0,"used":false,"gnssid":0,"svid":32,"health":1},{"PRN":304,"el":18.0,"az":296.0,"ss":14.0,"used":false,"gnssid":2,"svid":4,"health":1},{"PRN":307,"el":1.0,"az":108.0,"ss":9.0,"used":false,"gnssid":2,"svid":7,"health":1},{"PRN":310,"el":18.0,"az":283.0,"ss":17.0,"used":false,"gnssid":2,"svid":10,"health":1},{"PRN":311,"el":13.0,"az":309.0,"ss":0.0,"used":false,"gnssid":2,"svid":11,"health":1},{"PRN":312,"el":17.0,"az":258.0,"ss":20.0,"used":false,"gnssid":2,"svid":12,"health":1},{"PRN":319,"el":71.0,"az":334.0,"ss":10.0,"used":true,"gnssid":2,"svid":19,"health":1},{"PRN":321,"el":52.0,"az":147.0,"ss":25.0,"used":true,"gnssid":2,"svid":21,"health":1},{"PRN":323,"el":14.0,"az":191.0,"ss":27.0,"used":true,"gnssid":2,"svid":23,"health":1},{"PRN":327,"el":42.0,"az":62.0,"ss":0.0,"used":false,"gnssid":2,"svid":27,"health":1},{"PRN":329,"el":51.0,"az":93.0,"ss":7.0,"used":false,"gnssid":2,"svid":29,"health":1},{"PRN":330,"el":2.0,"az":32.0,"ss":0.0,"used":false,"gnssid":2,"svid":30,"health":1},{"PRN":333,"el":1.0,"az":210.0,"ss":20.0,"used":false,"gnssid":2,"svid":33,"health":1},{"PRN":420,"el":24.0,"az":314.0,"ss":0.0,"used":false,"gnssid":3,"svid":20,"health":1},{"PRN":423,"el":83.0,"az":105.0,"ss":0.0,"used":false,"gnssid":3,"svid":23,"health":1},{"PRN":425,"el":32.0,"az":50.0,"ss":0.0,"used":false,"gnssid":3,"svid":25,"health":1},{"PRN":432,"el":81.0,"az":282.0,"ss":16.0,"used":false,"gnssid":3,"svid":32,"health":1},{"PRN":437,"el":38.0,"az":220.0,"ss":27.0,"used":true,"gnssid":3,"svid":37,"health":1},{"PRN":65,"el":68.0,"az":109.0,"ss":8.0,"used":false,"gnssid":6,"svid":1,"health":1},{"PRN":66,"el":52.0,"az":331.0,"ss":13.0,"used":true,"gnssid":6,"svid":2,"health":1},{"PRN":72,"el":13.0,"az":130.0,"ss":9.0,"used":false,"gnssid":6,"svid":8,"health":1},{"PRN":74,"el":2.0,"az":33.0,"ss":0.0,"used":false,"gnssid":6,"svid":10,"health":1},{"PRN":75,"el":52.0,"az":37.0,"ss":7.0,"used":false,"gnssid":6,"svid":11,"health":1},{"PRN":76,"el":62.0,"az":204.0,"ss":32.0,"used":true,"gnssid":6,"svid":12,"health":1},{"PRN":77,"el":15.0,"az":211.0,"ss":17.0,"used":true,"gnssid":6,"svid":13,"health":1}]}
{"class":"PPS","device":"/dev/pps0","real_sec":1747803603,"real_nsec":0,"clock_sec":1747803602,"clock_nsec":999998800,"precision":-20}
{"class":"TPV","device":"/dev/ttyACM0","mode":3,"time":"2025-05-21T05:00:03.000Z","leapseconds":18,"ept":0.005,"lat":41.880734500,"lon":-87.643847000,"altHAE":252.8150,"altMSL":286.6040,"alt":286.6040,"epx":20.091,"epy":15.570,"epv":7.112,"track":246.8936,"magtrack":242.8388,"magvar":-4.1,"speed":0.008,"climb":-0.017,"eps":0.03,"epc":14.23,"ecefx":195525.79,"ecefy":-4752020.18,"ecefz":4235918.90,"ecefvx":0.00,"ecefvy":0.01,"ecefvz":0.00,"ecefpAcc":10.82,"ecefvAcc":0.03,"geoidSep":-33.900,"eph":8.145,"sep":23.940}
{"class":"SKY","device":"/dev/ttyACM0","time":"2025-05-21T05:00:03.000Z","xdop":1.43,"ydop":1.12,"vdop":1.98,"tdop":1.80,"hdop":1.63,"gdop":3.13,"pdop":2.56,"nSat":36,"uSat":9,"satellites":[{"PRN":1,"el":12.0,"az":249.0,"ss":25.0,"used":true,"gnssid":0,"svid":1,"health":1},{"PRN":3,"el":53.0,"az":288.0,"ss":29.0,"used":true,"gnssid":0,"svid":3,"health":1},{"PRN":4,"el":21.0,"az":300.0,"ss":0.0,"used":false,"gnssid":0,"svid":4,"health":1},{"PRN":16,"el":25.0,"az":184.0,"ss":10.0,"used":false,"gnssid":0,"svid":16,"health":1},{"PRN":25,"el":13.0,"az":40.0,"ss":0.0,"used":false,"gnssid":0,"svid":25,"health":1},{"PRN":26,"el":55.0,"az":167.0,"ss":26.0,"used":true,"gnssid":0,"svid":26,"health":1},{"PRN":28,"el":51.0,"az":51.0,"ss":8.0,"used":false,"gnssid":0,"svid":28,"health":1},{"PRN":29,"el":8.0,"az":76.0,"ss":0.0,"used":false,"gnssid":0,"svid":29,"health":1},{"PRN":31,"el":77.0,"az":12.0,"ss":7.0,"used":false,"gnssid":0,"svid":31,"health":1},{"PRN":32,"el":29.0,"az":108.0,"ss":12.0,"used":false,"gnssid":0,"svid":32,"health":1},{"PRN":304,"el":18.0,"az":296.0,"ss":14.0,"used":false,"gnssid":2,"svid":4,"health":1},{"PRN":307,"el":1.0,"az":108.0,"ss":10.0,"used":false,"gnssid":2,"svid":7,"health":1},{"PRN":310,"el":18.0,"az":283.0,"ss":18.0,"used":false,"gnssid":2,"svid":10,"health":1},{"PRN":311,"el":13.0,"az":309.0,"ss":0.0,"used":false,"gnssid":2,"svid":11,"health":1},{"PRN":312,"el":17.0,"az":258.0,"ss":20.0,"used":false,"gnssid":2,"svid":12,"health":1},{"PRN":319,"el":71.0,"az":334.0,"ss":12.0,"used":false,"gnssid":2,"svid":19,"health":1},{"PRN":321,"el":52.0,"az":147.0,"ss":26.0,"used":true,"gnssid":2,"svid":21,"health":1},{"PRN":323,"el":14.0,"az":191.0,"ss":27.0,"used":true,"gnssid":2,"svid":23,"health":1},{"PRN":327,"el":42.0,"az":62.0,"ss":0.0,"used":false,"gnssid":2,"svid":27,"health":1},{"PRN":329,"el":51.0,"az":93.0,"ss":10.0,"used":false,"gnssid":2,"svid":29,"health":1},{"PRN":330,"el":2.0,"az":32.0,"ss":0.0,"used":false,"gnssid":2,"svid":30,"health":1},{"PRN":333,"el":1.0,"az":210.0,"ss":21.0,"used":false,"gnssid":2,"svid":33,"health":1},{"PRN":420,"el":24.0,"az":314.0,"ss":0.0,"used":false,"gnssid":3,"svid":20,"health":1},{"PRN":423,"el":83.0,"az":105.0,"ss":0.0,"used":false,"gnssid":3,"svid":23,"health":1},{"PRN":425,"el":32.0,"az":50.0,"ss":0.0,"used":false,"gnssid":3,"svid":25,"health":1},{"PRN":432,"el":81.0,"az":282.0,"ss":16.0,"used":false,"gnssid":3,"svid":32,"health":1},{"PRN":437,"el":39.0,"az":220.0,"ss":28.0,"used":true,"gnssid":3,"svid":37,"health":1},{"PRN":65,"el":68.0,"az":109.0,"ss":11.0,"used":false,"gnssid":6,"svid":1,"health":1},{"PRN":66,"el":52.0,"az":331.0,"ss":14.0,"used":true,"gnssid":6,"svid":2,"health":1},{"PRN":72,"el":13.0,"az":130.0,"ss":11.0,"used":false,"gnssid":6,"svid":8,"health":1},{"PRN":74,"el":2.0,"az":33.0,"ss":0.0,"used":false,"gnssid":6,"svid":10,"health":1},{"PRN":75,"el":52.0,"az":37.0,"ss":8.0,"used":false,"gnssid":6,"svid":11,"health":1},{"PRN":76,"el":62.0,"az":204.0,"ss":32.0,"used":true,"gnssid":6,"svid":12,"health":1},{"PRN":77,"el":15.0,"az":211.0,"ss":16.0,"used":true,"gnssid":6,"svid":13,"health":1}]}
{"class":"PPS","device":"/dev/pps0","real_sec":1747803604,"real_nsec":0,"clock_sec":1747803603,"clock_nsec":999998783,"precision":-20}
{"class":"TPV","device":"/dev/ttyACM0","mode":3,"time":"2025-05-21T05:00:04.000Z","leapseconds":18,"ept":0.005,"lat":41.880734900,"lon":-87.643847100,"altHAE":252.8170,"altMSL":286.6060,"alt":286.6060,"epx":21.379,"epy":16.854,"epv":7.110,"track":246.8936,"magtrack":242.8388,"magvar":-4.1,"speed":0.008,"climb":-0.017,"eps":0.03,"epc":14.22,"ecefx":195525.78,"ecefy":-4752020.13,"ecefz":4235918.90,"ecefvx":0.00,"ecefvy":0.01,"ecefvz":0.00,"ecefpAcc":10.81,"ecefvAcc":0.03,"geoidSep":-33.900,"eph":8.135,"sep":23.940}
{"class":"SKY","device":"/dev/ttyACM0","time":"2025-05-21T05:00:04.000Z","xdop":0.91,"ydop":0.76,"vdop":2.02,"tdop":1.89,"hdop":1.72,"gdop":3.26,"pdop":2.66,"nSat":36,"uSat":13,"satellites":[{"PRN":1,"el":12.0,"az":249.0,"ss":25.0,"used":true,"gnssid":0,"svid":1,"health":1},{"PRN":3,"el":53.0,"az":288.0,"ss":29.0,"used":true,"gnssid":0,"svid":3,"health":1},{"PRN":4,"el":21.0,"az":300.0,"ss":0.0,"used":false,"gnssid":0,"svid":4,"health":1},{"PRN":16,"el":25.0,"az":184.0,"ss":12.0,"used":true,"gnssid":0,"svid":16,"health":1},{"PRN":25,"el":13.0,"az":40.0,"ss":0.0,"used":false,"gnssid":0,"svid":25,"health":1},{"PRN":26,"el":55.0,"az":167.0,"ss":25.0,"used":true,"gnssid":0,"svid":26,"health":1},{"PRN":28,"el":51.0,"az":51.0,"ss":11.0,"used":true,"gnssid":0,"svid":28,"health":1},{"PRN":29,"el":8.0,"az":76.0,"ss":0.0,"used":false,"gnssid":0,"svid":29,"health":1},{"PRN":31,"el":77.0,"az":12.0,"ss":10.0,"used":true,"gnssid":0,"svid":31,"health":1},{"PRN":32,"el":29.0,"az":108.0,"ss":9.0,"used":false,"gnssid":0,"svid":32,"health":1},{"PRN":304,"el":18.0,"az":296.0,"ss":14.0,"used":false,"gnssid":2,"svid":4,"health":1},{"PRN":307,"el":1.0,"az":108.0,"ss":8.0,"used":false,"gnssid":2,"svid":7,"health":1},{"PRN":310,"el":18.0,"az":283.0,"ss":18.0,"used":false,"gnssid":2,"svid":10,"health":1},{"PRN":311,"el":13.0,"az":309.0,"ss":0.0,"used":false,"gnssid":2,"svid":11,"health":1},{"PRN":312,"el":17.0,"az":258.0,"ss":20.0,"used":false,"gnssid":2,"svid":12,"health":1},{"PRN":319,"el":71.0,"az":334.0,"ss":11.0,"used":true,"gnssid":2,"svid":19,"health":1},{"PRN":321,"el":52.0,"az":147.0,"ss":25.0,"used":true,"gnssid":2,"svid":21,"health":1},{"PRN":323,"el":14.0,"az":191.0,"ss":27.0,"used":true,"gnssid":2,"svid":23,"health":1},{"PRN":327,"el":42.0,"az":62.0,"ss":0.0,"used":false,"gnssid":2,"svid":27,"health":1},{"PRN":329,"el":51.0,"az":93.0,"ss":8.0,"used":false,"gnssid":2,"svid":29,"health":1},{"PRN":330,"el":2.0,"az":32.0,"ss":0.0,"used":false,"gnssid":2,"svid":30,"health":1},{"PRN":333,"el":1.0,"az":210.0,"ss":21.0,"used":false,"gnssid":2,"svid":33,"health":1},{"PRN":420,"el":24.0,"az":314.0,"ss":0.0,"used":false,"gnssid":3,"svid":20,"health":1},{"PRN":423,"el":83.0,"az":105.0,"ss":0.0,"used":false,"gnssid":3,"svid":23,"health":1},{"PRN":425,"el":32.0,"az":50.0,"ss":0.0,"used":false,"gnssid":3,"svid":25,"health":1},{"PRN":432,"el":81.0,"az":282.0,"ss":16.0,"used":false,"gnssid":3,"svid":32,"health":1},{"PRN":437,"el":39.0,"az":220.0,"ss":28.0,"used":true,"gnssid":3,"svid":37,"health":1},{"PRN":65,"el":68.0,"az":109.0,"ss":9.0,"used":false,"gnssid":6,"svid":1,"health":1},{"PRN":66,"el":52.0,"az":331.0,"ss":15.0,"used":true,"gnssid":6,"svid":2,"health":1},{"PRN":72,"el":13.0,"az":130.0,"ss":10.0,"used":false,"gnssid":6,"svid":8,"health":1},{"PRN":74,"el":2.0,"az":33.0,"ss":0.0,"used":false,"gnssid":6,"svid":10,"health":1},{"PRN":75,"el":52.0,"az":37.0,"ss":8.0,"used":false,"gnssid":6,"svid":11,"health":1},{"PRN":76,"el":62.0,"az":204.0,"ss":32.0,"used":true,"gnssid":6,"svid":12,"health":1},{"PRN":77,"el":15.0,"az":211.0,"ss":15.0,"used":true,"gnssid":6,"svid":13,"health":1}]}
{"class":"PPS","device":"/dev/pps0","real_sec":1747803605,"real_nsec":0,"clock_sec":1747803604,"clock_nsec":999998358,"precision":-20}
{"class":"TPV","device":"/dev/ttyACM0","mode":3,"time":"2025-05-21T05:00:05.000Z","leapseconds":18,"ept":0.005,"lat":41.880735100,"lon":-87.643846900,"altHAE":252.7930,"altMSL":286.5820,"alt":286.5820,"epx":13.585,"epy":11.432,"epv":7.105,"track":246.8936,"magtrack":242.8388,"magvar":-4.1,"speed":0.008,"climb":-0.017,"eps":0.03,"epc":14.22,"ecefx":195525.77,"ecefy":-4752020.11,"ecefz":4235918.93,"ecefvx":0.00,"ecefvy":0.01,"ecefvz":0.00,"ecefpAcc":10.80,"ecefvAcc":0.03,"geoidSep":-33.900,"eph":8.125,"sep":23.940}
{"class":"SKY","device":"/dev/ttyACM0","time":"2025-05-21T05:00:05.000Z","xdop":0.91,"ydop":0.76,"vdop":1.53,"tdop":1.25,"hdop":1.10,"gdop":2.27,"pdop":1.89,"nSat":36,"uSat":13,"satellites":[{"PRN":1,"el":12.0,"az":249.0,"ss":25.0,"used":true,"gnssid":0,"svid":1,"health":1},{"PRN":3,"el":53.0,"az":288.0,"ss":29.0,"used":true,"gnssid":0,"svid":3,"health":1},{"PRN":4,"el":21.0,"az":300.0,"ss":0.0,"used":false,"gnssid":0,"svid":4,"health":1},{"PRN":16,"el":25.0,"az":184.0,"ss":14.0,"used":true,"gnssid":0,"svid":16,"health":1},{"PRN":25,"el":13.0,"az":40.0,"ss":0.0,"used":false,"gnssid":0,"svid":25,"health":1},{"PRN":26,"el":55.0,"az":167.0,"ss":25.0,"used":true,"gnssid":0,"svid":26,"health":1},{"PRN":28,"el":51.0,"az":51.0,"ss":11.0,"used":true,"gnssid":0,"svid":28,"health":1},{"PRN":29,"el":8.0,"az":76.0,"ss":0.0,"used":false,"gnssid":0,"svid":29,"health":1},{"PRN":31,"el":77.0,"az":12.0,"ss":9.0,"used":true,"gnssid":0,"svid":31,"health":1},{"PRN":32,"el":29.0,"az":108.0,"ss":8.0,"used":false,"gnssid":0,"svid":32,"health":1},{"PRN":304,"el":18.0,"az":296.0,"ss":13.0,"used":false,"gnssid":2,"svid":4,"health":1},{"PRN":307,"el":1.0,"az":108.0,"ss":9.0,"used":false,"gnssid":2,"svid":7,"health":1},{"PRN":310,"el":18.0,"az":283.0,"ss":18.0,"used":false,"gnssid":2,"svid":10,"health":1},{"PRN":311,"el":13.0,"az":309.0,"ss":0.0,"used":false,"gnssid":2,"svid":11,"health":1},{"PRN":312,"el":17.0,"az":258.0,"ss":20.0,"used":false,"gnssid":2,"svid":12,"health":1},{"PRN":319,"el":71.0,"az":334.0,"ss":10.0,"used":true,"gnssid":2,"svid":19,"health":1},{"PRN":321,"el":52.0,"az":147.0,"ss":26.0,"used":true,"gnssid":2,"svid":21,"health":1},{"PRN":323,"el":14.0,"az":191.0,"ss":27.0,"used":true,"gnssid":2,"svid":23,"health":1},{"PRN":327,"el":42.0,"az":62.0,"ss":0.0,"used":false,"gnssid":2,"svid":27,"health":1},{"PRN":329,"el":51.0,"az":93.0,"ss":10.0,"used":false,"gnssid":2,"svid":29,"health":1},{"PRN":330,"el":2.0,"az":32.0,"ss":0.0,"used":false,"gnssid":2,"svid":30,"health":1},{"PRN":333,"el":1.0,"az":210.0,"ss":22.0,"used":false,"gnssid":2,"svid":33,"health":1},{"PRN":420,"el":24.0,"az":314.0,"ss":0.0,"used":false,"gnssid":3,"svid":20,"health":1},{"PRN":423,"el":83.0,"az":105.0,"ss":0.0,"used":false,"gnssid":3,"svid":23,"health":1},{"PRN":425,"el":32.0,"az":50.0,"ss":0.0,"used":false,"gnssid":3,"svid":25,"health":1},{"PRN":432,"el":81.0,"az":282.0,"ss":16.0,"used":false,"gnssid":3,"svid":32,"health":1},{"PRN":437,"el":39.0,"az":220.0,"ss":28.0,"used":true,"gnssid":3,"svid":37,"health":1},{"PRN":65,"el":68.0,"az":109.0,"ss":11.0,"used":false,"gnssid":6,"svid":1,"health":1},{"PRN":66,"el":52.0,"az":331.0,"ss":14.0,"used":true,"gnssid":6,"svid":2,"health":1},{"PRN":72,"el":13.0,"az":130.0,"ss":9.0,"used":false,"gnssid":6,"svid":8,"health":1},{"PRN":74,"el":2.0,"az":33.0,"ss":0.0,"used":false,"gnssid":6,"svid":10,"health":1},{"PRN":75,"el":52.0,"az":37.0,"ss":10.0,"used":false,"gnssid":6,"svid":11,"health":1},{"PRN":76,"el":62.0,"az":204.0,"ss":33.0,"used":true,"gnssid":6,"svid":12,"health":1},{"PRN":77,"el":15.0,"az":211.0,"ss":15.0,"used":true,"gnssid":6,"svid":13,"health":1}]}
{"class":"PPS","device":"/dev/pps0","real_sec":1747803606,"real_nsec":0,"clock_sec":1747803605,"clock_nsec":999998641,"precision":-20}
{"class":"TPV","device":"/dev/ttyACM0","mode":3,"time":"2025-05-21T05:00:06.000Z","leapseconds":18,"ept":0.005,"lat":41.880735200,"lon":-87.643846800,"altHAE":252.7720,"altMSL":286.5610,"alt":286.5610,"epx":13.585,"epy":11.432,"epv":7.102,"track":246.8936,"magtrack":242.8388,"magvar":-4.1,"speed":0.008,"climb":-0.017,"eps":0.03,"epc":14.21,"ecefx":195525.79,"ecefy":-4752020.07,"ecefz":4235918.94,"ecefvx":0.00,"ecefvy":0.01,"ecefvz":0.00,"ecefpAcc":10.79,"ecefvAcc":0.03,"geoidSep":-33.900,"eph":8.117,"sep":23.940}
{"class":"SKY","device":"/dev/ttyACM0","time":"2025-05-21T05:00:06.000Z","xdop":1.39,"ydop":1.12,"vdop":1.55,"tdop":1.26,"hdop":1.12,"gdop":2.29,"pdop":1.91,"nSat":36,"uSat":10,"satellites":[{"PRN":1,"el":12.0,"az":249.0,"ss":25.0,"used":true,"gnssid":0,"svid":1,"health":1},{"PRN":3,"el":53.0,"az":288.0,"ss":29.0,"used":true,"gnssid":0,"svid":3,"health":1},{"PRN":4,"el":21.0,"az":300.0,"ss":0.0,"used":false,"gnssid":0,"svid":4,"health":1},{"PRN":16,"el":25.0,"az":184.0,"ss":14.0,"used":true,"gnssid":0,"svid":16,"health":1},{"PRN":25,"el":13.0,"az":40.0,"ss":0.0,"used":false,"gnssid":0,"svid":25,"health":1},{"PRN":26,"el":55.0,"az":167.0,"ss":25.0,"used":true,"gnssid":0,"svid":26,"health":1},{"PRN":28,"el":51.0,"az":51.0,"ss":7.0,"used":false,"gnssid":0,"svid":28,"health":1},{"PRN":29,"el":8.0,"az":76.0,"ss":0.0,"used":false,"gnssid":0,"svid":29,"health":1},{"PRN":31,"el":77.0,"az":12.0,"ss":9.0,"used":false,"gnssid":0,"svid":31,"health":1},{"PRN":32,"el":29.0,"az":108.0,"ss":8.0,"used":false,"gnssid":0,"svid":32,"health":1},{"PRN":304,"el":18.0,"az":296.0,"ss":14.0,"used":false,"gnssid":2,"svid":4,"health":1},{"PRN":307,"el":1.0,"az":108.0,"ss":8.0,"used":false,"gnssid":2,"svid":7,"health":1},{"PRN":310,"el":18.0,"az":283.0,"ss":17.0,"used":false,"gnssid":2,"svid":10,"health":1},{"PRN":311,"el":13.0,"az":309.0,"ss":0.0,"used":false,"gnssid":2,"svid":11,"health":1},{"PRN":312,"el":17.0,"az":258.0,"ss":20.0,"used":false,"gnssid":2,"svid":12,"health":1},{"PRN":319,"el":71.0,"az":334.0,"ss":12.0,"used":false,"gnssid":2,"svid":19,"health":1},{"PRN":321,"el":52.0,"az":147.0,"ss":25.0,"used":true,"gnssid":2,"svid":21,"health":1},{"PRN":323,"el":14.0,"az":191.0,"ss":26.0,"used":true,"gnssid":2,"svid":23,"health":1},{"PRN":327,"el":42.0,"az":62.0,"ss":0.0,"used":false,"gnssid":2,"svid":27,"health":1},{"PRN":329,"el":51.0,"az":93.0,"ss":11.0,"used":false,"gnssid":2,"svid":29,"health":1},{"PRN":330,"el":2.0,"az":32.0,"ss":0.0,"used":false,"gnssid":2,"svid":30,"health":1},{"PRN":333,"el":1.0,"az":210.0,"ss":21.0,"used":false,"gnssid":2,"svid":33,"health":1},{"PRN":420,"el":24.0,"az":314.0,"ss":0.0,"used":false,"gnssid":3,"svid":20,"health":1},{"PRN":423,"el":83.0,"az":105.0,"ss":0.0,"used":false,"gnssid":3,"svid":23,"health":1},{"PRN":425,"el":32.0,"az":50.0,"ss":0.0,"used":false,"gnssid":3,"svid":25,"health":1},{"PRN":432,"el":81.0,"az":282.0,"ss":15.0,"used":false,"gnssid":3,"svid":32,"health":1},{"PRN":437,"el":39.0,"az":220.0,"ss":28.0,"used":true,"gnssid":3,"svid":37,"health":1},{"PRN":65,"el":68.0,"az":109.0,"ss":8.0,"used":false,"gnssid":6,"svid":1,"health":1},{"PRN":66,"el":52.0,"az":331.0,"ss":14.0,"used":true,"gnssid":6,"svid":2,"health":1},{"PRN":72,"el":13.0,"az":130.0,"ss":8.0,"used":false,"gnssid":6,"svid":8,"health":1},{"PRN":74,"el":2.0,"az":33.0,"ss":0.0,"used":false,"gnssid":6,"svid":10,"health":1},{"PRN":75,"el":52.0,"az":37.0,"ss":9.0,"used":false,"gnssid":6,"svid":11,"health":1},{"PRN":76,"el":62.0,"az":204.0,"ss":33.0,"used":true,"gnssid":6,"svid":12,"health":1},{"PRN":77,"el":15.0,"az":211.0,"ss":14.0,"used":true,"gnssid":6,"svid":13,"health":1}]}
{"class":"PPS","device":"/dev/pps0","real_sec":1747803607,"real_nsec":0,"clock_sec":1747803606,"clock_nsec":999996414,"precision":-20}
{"class":"TPV","device":"/dev/ttyACM0","mode":3,"time":"2025-05-21T05:00:07.000Z","leapseconds":18,"ept":0.005,"lat":41.880735200,"lon":-87.643846600,"altHAE":252.7450,"altMSL":286.5340,"alt":286.5340,"epx":20.828,"epy":16.815,"epv":7.098,"track":246.8936,"magtrack":242.8388,"magvar":-4.1,"speed":0.008,"climb":-0.017,"eps":0.03,"epc":14.20,"ecefx":195525.80,"ecefy":-4752020.05,"ecefz":4235918.92,"ecefvx":0.00,"ecefvy":0.01,"ecefvz":0.00,"ecefpAcc":10.79,"ecefvAcc":0.03,"geoidSep":-33.900,"eph":8.107,"sep":23.940}
