{"class":"VERSION","release":"3.22","rev":"3.22","proto_major":3,"proto_minor":14}
{"class":"DEVICES","devices":[{"class":"DEVICE","path":"/dev/ttyACM0","driver":"u-blox","subtype":"SW EXT CORE 1.00 (3fda8e),HW 00190000","subtype1":"ROM BASE 0x118B2060,FWVER=TIM 2.20,PROTVER=29.20,MOD=ZED-F9T,GPS;GLO;GAL;BDS,SBAS;QZSS,NAVIC","activated":"2025-05-21T17:00:01.075Z","flags":1,"native":1,"bps":9600,"parity":"N","stopbits":1,"cycle":1.00,"mincycle":0.02},{"class":"DEVICE","path":"/dev/pps0","driver":"PPS","activated":"2025-05-21T17:00:01.001Z"}]}
{"class":"WATCH","enable":true,"json":true,"nmea":false,"raw":0,"scaled":false,"timing":false,"split24":false,"pps":false}
{"class":"PPS","device":"/dev/pps0","real_sec":1747846802,"real_nsec":0,"clock_sec":1747846801,"clock_nsec":999998405,"precision":-20}
{"class":"TPV","device":"/dev/ttyACM0","mode":3,"time":"2025-05-21T17:00:02.000Z","leapseconds":18,"ept":0.005,"lat":41.880702800,"lon":-87.643881800,"altHAE":263.5500,"altMSL":297.3390,"alt":297.3390,"epx":8.373,"epy":10.075,"epv":4.247,"track":246.8936,"magtrack":242.8388,"magvar":-4.1,"speed":0.012,"climb":-0.017,"eps":0.02,"epc":8.50,"ecefx":195523.31,"ecefy":-4752030.60,"ecefz":4235923.44,"ecefvx":0.01,"ecefvy":0.01,"ecefvz":0.00,"ecefpAcc":6.48,"ecefvAcc":0.02,"geoidSep":-33.900,"eph":4.887,"sep":23.940}
{"class":"SKY","device":"/dev/ttyACM0","time":"2025-05-21T17:00:02.000Z","xdop":0.56,"ydop":0.67,"vdop":1.15,"tdop":0.86,"hdop":0.79,"gdop":1.64,"pdop":1.39,"nSat":40,"uSat":16,"satellites":[{"PRN":4,"el":7.0,"az":49.0,"ss":0.0,"used":false,"gnssid":0,"svid":4,"health":1},{"PRN":5,"el":13.0,"az":199.0,"ss":29.0,"used":true,"gnssid":0,"svid":5,"health":1},{"PRN":6,"el":56.0,"az":44.0,"ss":10.0,"used":true,"gnssid":0,"svid":6,"health":1},{"PRN":9,"el":13.0,"az":81.0,"ss":0.0,"used":false,"gnssid":0,"svid":9,"health":1},{"PRN":11,"el":77.0,"az":296.0,"ss":14.0,"used":true,"gnssid":0,"svid":11,"health":1},{"PRN":12,"el":56.0,"az":283.0,"ss":30.0,"used":true,"gnssid":0,"svid":12,"health":1},{"PRN":17,"el":16.0,"az":107.0,"ss":10.0,"used":false,"gnssid":0,"svid":17,"health":1},{"PRN":19,"el":40.0,"az":98.0,"ss":10.0,"used":false,"gnssid":0,"svid":19,"health":1},{"PRN":20,"el":47.0,"az":189.0,"ss":30.0,"used":true,"gnssid":0,"svid":20,"health":1},{"PRN":22,"el":8.0,"az":158.0,"ss":19.0,"used":false,"gnssid":0,"svid":22,"health":1},{"PRN":24,"el":0.0,"az":237.0,"ss":19.0,"used":false,"gnssid":0,"svid":24,"health":1},{"PRN":25,"el":27.0,"az":311.0,"ss":0.0,"used":false,"gnssid":0,"svid":25,"health":1},{"PRN":302,"el":35.0,"az":310.0,"ss":19.0,"used":false,"gnssid":2,"svid":2,"health":1},{"PRN":304,"el":5.0,"az":112.0,"ss":0.0,"used":false,"gnssid":2,"svid":4,"health":1},{"PRN":310,"el":53.0,"az":45.0,"ss":9.0,"used":true,"gnssid":2,"svid":10,"health":1},{"PRN":311,"el":78.0,"az":358.0,"ss":9.0,"used":false,"gnssid":2,"svid":11,"health":1},{"PRN":312,"el":29.0,"az":53.0,"ss":9.0,"used":false,"gnssid":2,"svid":12,"health":1},{"PRN":316,"el":51.0,"az":184.0,"ss":24.0,"used":true,"gnssid":2,"svid":16,"health":1},{"PRN":319,"el":8.0,"az":60.0,"ss":0.0,"used":false,"gnssid":2,"svid":19,"health":1},{"PRN":324,"el":28.0,"az":165.0,"ss":31.0,"used":true,"gnssid":2,"svid":24,"health":1},{"PRN":325,"el":66.0,"az":226.0,"ss":27.0,"used":true,"gnssid":2,"svid":25,"health":1},{"PRN":336,"el":41.0,"az":251.0,"ss":29.0,"used":true,"gnssid":2,"svid":36,"health":1},{"PRN":419,"el":34.0,"az":127.0,"ss":0.0,"used":false,"gnssid":3,"svid":19,"health":1},{"PRN":420,"el":32.0,"az":68.0,"ss":0.0,"used":false,"gnssid":3,"svid":20,"health":1},{"PRN":422,"el":5.0,"az":173.0,"ss":30.0,"used":false,"gnssid":3,"svid":22,"health":1},{"PRN":424,"el":24.0,"az":302.0,"ss":0.0,"used":false,"gnssid":3,"svid":24,"health":1},{"PRN":426,"el":33.0,"az":247.0,"ss":25.0,"used":true,"gnssid":3,"svid":26,"health":1},{"PRN":429,"el":37.0,"az":78.0,"ss":0.0,"used":false,"gnssid":3,"svid":29,"health":1},{"PRN":432,"el":1.0,"az":24.0,"ss":0.0,"used":false,"gnssid":3,"svid":32,"health":1},{"PRN":435,"el":70.0,"az":325.0,"ss":0.0,"used":false,"gnssid":3,"svid":35,"health":1},{"PRN":67,"el":19.0,"az":35.0,"ss":0.0,"used":false,"gnssid":6,"svid":3,"health":1},{"PRN":68,"el":32.0,"az":87.0,"ss":0.0,"used":false,"gnssid":6,"svid":4,"health":1},{"PRN":69,"el":15.0,"az":138.0,"ss":23.0,"used":true,"gnssid":6,"svid":5,"health":1},{"PRN":73,"el":29.0,"az":209.0,"ss":34.0,"used":true,"gnssid":6,"svid":9,"health":1},{"PRN":74,"el":48.0,"az":266.0,"ss":29.0,"used":true,"gnssid":6,"svid":10,"health":1},{"PRN":75,"el":23.0,"az":326.0,"ss":23.0,"used":false,"gnssid":6,"svid":11,"health":1}]}
{"class":"PPS","device":"/dev/pps0","real_sec":1747846803,"real_nsec":0,"clock_sec":1747846802,"clock_nsec":999999240,"precision":-20}
{"class":"TPV","device":"/dev/ttyACM0","mode":3,"time":"2025-05-21T17:00:03.000Z","leapseconds":18,"ept":0.005,"lat":41.880702800,"lon":-87.643881800,"altHAE":263.5440,"altMSL":297.3330,"alt":297.3330,"epx":8.373,"epy":10.075,"epv":4.244,"track":246.8936,"magtrack":242.8388,"magvar":-4.1,"speed":0.012,"climb":-0.017,"eps":0.02,"epc":8.49,"ecefx":195523.32,"ecefy":-4752030.59,"ecefz":4235923.44,"ecefvx":0.01,"ecefvy":0.01,"ecefvz":0.00,"ecefpAcc":6.47,"ecefvAcc":0.02,"geoidSep":-33.900,"eph":4.888,"sep":23.940}
{"class":"SKY","device":"/dev/ttyACM0","time":"2025-05-21T17:00:03.000Z","xdop":0.81,"ydop":0.95,"vdop":1.15,"tdop":0.86,"hdop":0.79,"gdop":1.64,"pdop":1.39,"nSat":40,"uSat":14,"satellites":[{"PRN":4,"el":7.0,"az":49.0,"ss":0.0,"used":false,"gnssid":0,"svid":4,"health":1},{"PRN":5,"el":13.0,"az":199.0,"ss":29.0,"used":true,"gnssid":0,"svid":5,"health":1},{"PRN":6,"el":56.0,"az":44.0,"ss":8.0,"used":false,"gnssid":0,"svid":6,"health":1},{"PRN":9,"el":13.0,"az":81.0,"ss":0.0,"used":false,"gnssid":0,"svid":9,"health":1},{"PRN":11,"el":77.0,"az":296.0,"ss":13.0,"used":true,"gnssid":0,"svid":11,"health":1},{"PRN":12,"el":56.0,"az":283.0,"ss":30.0,"used":true,"gnssid":0,"svid":12,"health":1},{"PRN":17,"el":16.0,"az":107.0,"ss":11.0,"used":false,"gnssid":0,"svid":17,"health":1},{"PRN":19,"el":40.0,"az":98.0,"ss":8.0,"used":false,"gnssid":0,"svid":19,"health":1},{"PRN":20,"el":47.0,"az":189.0,"ss":30.0,"used":true,"gnssid":0,"svid":20,"health":1},{"PRN":22,"el":8.0,"az":158.0,"ss":19.0,"used":false,"gnssid":0,"svid":22,"health":1},{"PRN":24,"el":0.0,"az":237.0,"ss":19.0,"used":false,"gnssid":0,"svid":24,"health":1},{"PRN":25,"el":27.0,"az":311.0,"ss":0.0,"used":false,"gnssid":0,"svid":25,"health":1},{"PRN":302,"el":35.0,"az":310.0,"ss":20.0,"used":false,"gnssid":2,"svid":2,"health":1},{"PRN":304,"el":5.0,"az":112.0,"ss":0.0,"used":false,"gnssid":2,"svid":4,"health":1},{"PRN":310,"el":53.0,"az":45.0,"ss":9.0,"used":false,"gnssid":2,"svid":10,"health":1},{"PRN":311,"el":78.0,"az":358.0,"ss":9.0,"used":false,"gnssid":2,"svid":11,"health":1},{"PRN":312,"el":29.0,"az":53.0,"ss":11.0,"used":false,"gnssid":2,"svid":12,"health":1},{"PRN":316,"el":51.0,"az":184.0,"ss":23.0,"used":true,"gnssid":2,"svid":16,"health":1},{"PRN":319,"el":8.0,"az":60.0,"ss":0.0,"used":false,"gnssid":2,"svid":19,"health":1},{"PRN":324,"el":28.0,"az":165.0,"ss":31.0,"used":true,"gnssid":2,"svid":24,"health":1},{"PRN":325,"el":66.0,"az":226.0,"ss":27.0,"used":true,"gnssid":2,"svid":25,"health":1},{"PRN":336,"el":41.0,"az":251.0,"ss":29.0,"used":true,"gnssid":2,"svid":36,"health":1},{"PRN":419,"el":34.0,"az":127.0,"ss":0.0,"used":false,"gnssid":3,"svid":19,"health":1},{"PRN":420,"el":32.0,"az":68.0,"ss":0.0,"used":false,"gnssid":3,"svid":20,"health":1},{"PRN":422,"el":5.0,"az":173.0,"ss":30.0,"used":false,"gnssid":3,"svid":22,"health":1},{"PRN":424,"el":24.0,"az":302.0,"ss":0.0,"used":false,"gnssid":3,"svid":24,"health":1},{"PRN":426,"el":33.0,"az":247.0,"ss":25.0,"used":true,"gnssid":3,"svid":26,"health":1},{"PRN":429,"el":37.0,"az":78.0,"ss":0.0,"used":false,"gnssid":3,"svid":29,"health":1},{"PRN":432,"el":1.0,"az":24.0,"ss":0.0,"used":false,"gnssid":3,"svid":32,"health":1},{"PRN":435,"el":70.0,"az":325.0,"ss":0.0,"used":false,"gnssid":3,"svid":35,"health":1},{"PRN":67,"el":19.0,"az":35.0,"ss":0.0,"used":false,"gnssid":6,"svid":3,"health":1},{"PRN":68,"el":32.0,"az":87.0,"ss":0.0,"used":false,"gnssid":6,"svid":4,"health":1},{"PRN":69,"el":15.0,"az":138.0,"ss":22.0,"used":true,"gnssid":6,"svid":5,"health":1},{"PRN":73,"el":29.0,"az":209.0,"ss":33.0,"used":true,"gnssid":6,"svid":9,"health":1},{"PRN":74,"el":48.0,"az":266.0,"ss":29.0,"used":true,"gnssid":6,"svid":10,"health":1},{"PRN":75,"el":23.0,"az":326.0,"ss":21.0,"used":false,"gnssid":6,"svid":11,"health":1}]}
{"class":"PPS","device":"/dev/pps0","real_sec":1747846804,"real_nsec":0,"clock_sec":1747846803,"clock_nsec":999999113,"precision":-20}
{"class":"TPV","device":"/dev/ttyACM0","mode":3,"time":"2025-05-21T17:00:04.000Z","leapseconds":18,"ept":0.005,"lat":41.880702900,"lon":-87.643881900,"altHAE":263.5350,"altMSL":297.3240,"alt":297.3240,"epx":12.209,"epy":14.294,"epv":4.241,"track":246.8936,"magtrack":242.8388,"magvar":-4.1,"speed":0.012,"climb":-0.017,"eps":0.02,"epc":8.49,"ecefx":195523.32,"ecefy":-4752030.58,"ecefz":4235923.44,"ecefvx":0.01,"ecefvy":0.01,"ecefvz":0.00,"ecefpAcc":6.47,"ecefvAcc":0.02,"geoidSep":-33.900,"eph":4.889,"sep":23.940}
{"class":"SKY","device":"/dev/ttyACM0","time":"2025-05-21T17:00:04.000Z","xdop":0.56,"ydop":0.67,"vdop":1.16,"tdop":1.00,"hdop":1.09,"gdop":1.89,"pdop":1.60,"nSat":40,"uSat":16,"satellites":[{"PRN":4,"el":7.0,"az":49.0,"ss":0.0,"used":false,"gnssid":0,"svid":4,"health":1},{"PRN":5,"el":13.0,"az":199.0,"ss":29.0,"used":true,"gnssid":0,"svid":5,"health":1},{"PRN":6,"el":56.0,"az":44.0,"ss":13.0,"used":true,"gnssid":0,"svid":6,"health":1},{"PRN":9,"el":13.0,"az":81.0,"ss":0.0,"used":false,"gnssid":0,"svid":9,"health":1},{"PRN":11,"el":77.0,"az":300.0,"ss":14.0,"used":true,"gnssid":0,"svid":11,"health":1},{"PRN":12,"el":56.0,"az":283.0,"ss":30.0,"used":true,"gnssid":0,"svid":12,"health":1},{"PRN":17,"el":16.0,"az":107.0,"ss":8.0,"used":false,"gnssid":0,"svid":17,"health":1},{"PRN":19,"el":40.0,"az":98.0,"ss":12.0,"used":false,"gnssid":0,"svid":19,"health":1},{"PRN":20,"el":47.0,"az":189.0,"ss":30.0,"used":true,"gnssid":0,"svid":20,"health":1},{"PRN":22,"el":8.0,"az":158.0,"ss":19.0,"used":false,"gnssid":0,"svid":22,"health":1},{"PRN":24,"el":0.0,"az":237.0,"ss":19.0,"used":false,"gnssid":0,"svid":24,"health":1},{"PRN":25,"el":27.0,"az":311.0,"ss":0.0,"used":false,"gnssid":0,"svid":25,"health":1},{"PRN":302,"el":35.0,"az":310.0,"ss":19.0,"used":false,"gnssid":2,"svid":2,"health":1},{"PRN":304,"el":5.0,"az":112.0,"ss":0.0,"used":false,"gnssid":2,"svid":4,"health":1},{"PRN":310,"el":53.0,"az":45.0,"ss":9.0,"used":true,"gnssid":2,"svid":10,"health":1},{"PRN":311,"el":78.0,"az":358.0,"ss":12.0,"used":false,"gnssid":2,"svid":11,"health":1},{"PRN":312,"el":29.0,"az":53.0,"ss":8.0,"used":false,"gnssid":2,"svid":12,"health":1},{"PRN":316,"el":51.0,"az":184.0,"ss":24.0,"used":true,"gnssid":2,"svid":16,"health":1},{"PRN":319,"el":8.0,"az":60.0,"ss":0.0,"used":false,"gnssid":2,"svid":19,"health":1},{"PRN":324,"el":28.0,"az":165.0,"ss":31.0,"used":true,"gnssid":2,"svid":24,"health":1},{"PRN":325,"el":66.0,"az":226.0,"ss":27.0,"used":true,"gnssid":2,"svid":25,"health":1},{"PRN":336,"el":41.0,"az":251.0,"ss":30.0,"used":true,"gnssid":2,"svid":36,"health":1},{"PRN":419,"el":34.0,"az":127.0,"ss":0.0,"used":false,"gnssid":3,"svid":19,"health":1},{"PRN":420,"el":32.0,"az":68.0,"ss":0.0,"used":false,"gnssid":3,"svid":20,"health":1},{"PRN":422,"el":5.0,"az":173.0,"ss":29.0,"used":false,"gnssid":3,"svid":22,"health":1},{"PRN":424,"el":24.0,"az":302.0,"ss":0.0,"used":false,"gnssid":3,"svid":24,"health":1},{"PRN":426,"el":33.0,"az":247.0,"ss":25.0,"used":true,"gnssid":3,"svid":26,"health":1},{"PRN":429,"el":37.0,"az":78.0,"ss":0.0,"used":false,"gnssid":3,"svid":29,"health":1},{"PRN":432,"el":1.0,"az":24.0,"ss":0.0,"used":false,"gnssid":3,"svid":32,"health":1},{"PRN":435,"el":70.0,"az":325.0,"ss":0.0,"used":false,"gnssid":3,"svid":35,"health":1},{"PRN":67,"el":19.0,"az":35.0,"ss":0.0,"used":false,"gnssid":6,"svid":3,"health":1},{"PRN":68,"el":32.0,"az":87.0,"ss":0.0,"used":false,"gnssid":6,"svid":4,"health":1},{"PRN":69,"el":15.0,"az":138.0,"ss":22.0,"used":true,"gnssid":6,"svid":5,"health":1},{"PRN":73,"el":29.0,"az":209.0,"ss":34.0,"used":true,"gnssid":6,"svid":9,"health":1},{"PRN":74,"el":48.0,"az":266.0,"ss":29.0,"used":true,"gnssid":6,"svid":10,"health":1},{"PRN":75,"el":23.0,"az":326.0,"ss":21.0,"used":false,"gnssid":6,"svid":11,"health":1}]}
{"class":"PPS","device":"/dev/pps0","real_sec":1747846805,"real_nsec":0,"clock_sec":1747846804,"clock_nsec":999998486,"precision":-20}
{"class":"TPV","device":"/dev/ttyACM0","mode":3,"time":"2025-05-21T17:00:05.000Z","leapseconds":18,"ept":0.005,"lat":41.880702900,"lon":-87.643882100,"altHAE":263.5390,"altMSL":297.3280,"alt":297.3280,"epx":8.373,"epy":10.075,"epv":4.239,"track":246.8936,"magtrack":242.8388,"magvar":-4.1,"speed":0.012,"climb":-0.017,"eps":0.02,"epc":8.48,"ecefx":195523.31,"ecefy":-4752030.57,"ecefz":4235923.44,"ecefvx":0.01,"ecefvy":0.01,"ecefvz":0.00,"ecefpAcc":6.47,"ecefvAcc":0.02,"geoidSep":-33.900,"eph":4.889,"sep":23.940}
{"class":"SKY","device":"/dev/ttyACM0","time":"2025-05-21T17:00:05.000Z","xdop":0.62,"ydop":0.74,"vdop":1.15,"tdop":0.86,"hdop":0.79,"gdop":1.64,"pdop":1.39,"nSat":40,"uSat":15,"satellites":[{"PRN":4,"el":7.0,"az":49.0,"ss":0.0,"used":false,"gnssid":0,"svid":4,"health":1},{"PRN":5,"el":13.0,"az":199.0,"ss":29.0,"used":true,"gnssid":0,"svid":5,"health":1},{"PRN":6,"el":56.0,"az":44.0,"ss":8.0,"used":false,"gnssid":0,"svid":6,"health":1},{"PRN":9,"el":13.0,"az":81.0,"ss":0.0,"used":false,"gnssid":0,"svid":9,"health":1},{"PRN":11,"el":77.0,"az":300.0,"ss":15.0,"used":true,"gnssid":0,"svid":11,"health":1},{"PRN":12,"el":56.0,"az":281.0,"ss":30.0,"used":true,"gnssid":0,"svid":12,"health":1},{"PRN":17,"el":16.0,"az":107.0,"ss":9.0,"used":false,"gnssid":0,"svid":17,"health":1},{"PRN":19,"el":40.0,"az":98.0,"ss":9.0,"used":false,"gnssid":0,"svid":19,"health":1},{"PRN":20,"el":47.0,"az":189.0,"ss":30.0,"used":true,"gnssid":0,"svid":20,"health":1},{"PRN":22,"el":8.0,"az":158.0,"ss":19.0,"used":false,"gnssid":0,"svid":22,"health":1},{"PRN":24,"el":0.0,"az":237.0,"ss":20.0,"used":false,"gnssid":0,"svid":24,"health":1},{"PRN":25,"el":27.0,"az":311.0,"ss":0.0,"used":false,"gnssid":0,"svid":25,"health":1},{"PRN":302,"el":35.0,"az":310.0,"ss":18.0,"used":false,"gnssid":2,"svid":2,"health":1},{"PRN":304,"el":5.0,"az":112.0,"ss":0.0,"used":false,"gnssid":2,"svid":4,"health":1},{"PRN":310,"el":53.0,"az":45.0,"ss":9.0,"used":true,"gnssid":2,"svid":10,"health":1},{"PRN":311,"el":78.0,"az":358.0,"ss":9.0,"used":false,"gnssid":2,"svid":11,"health":1},{"PRN":312,"el":29.0,"az":53.0,"ss":8.0,"used":false,"gnssid":2,"svid":12,"health":1},{"PRN":316,"el":51.0,"az":184.0,"ss":24.0,"used":true,"gnssid":2,"svid":16,"health":1},{"PRN":319,"el":8.0,"az":60.0,"ss":0.0,"used":false,"gnssid":2,"svid":19,"health":1},{"PRN":324,"el":28.0,"az":165.0,"ss":31.0,"used":true,"gnssid":2,"svid":24,"health":1},{"PRN":325,"el":66.0,"az":226.0,"ss":26.0,"used":true,"gnssid":2,"svid":25,"health":1},{"PRN":336,"el":41.0,"az":251.0,"ss":29.0,"used":true,"gnssid":2,"svid":36,"health":1},{"PRN":419,"el":34.0,"az":127.0,"ss":0.0,"used":false,"gnssid":3,"svid":19,"health":1},{"PRN":420,"el":32.0,"az":68.0,"ss":0.0,"used":false,"gnssid":3,"svid":20,"health":1},{"PRN":422,"el":5.0,"az":173.0,"ss":29.0,"used":false,"gnssid":3,"svid":22,"health":1},{"PRN":424,"el":24.0,"az":302.0,"ss":0.0,"used":false,"gnssid":3,"svid":24,"health":1},{"PRN":426,"el":33.0,"az":247.0,"ss":25.0,"used":true,"gnssid":3,"svid":26,"health":1},{"PRN":429,"el":37.0,"az":78.0,"ss":0.0,"used":false,"gnssid":3,"svid":29,"health":1},{"PRN":432,"el":1.0,"az":24.0,"ss":0.0,"used":false,"gnssid":3,"svid":32,"health":1},{"PRN":435,"el":70.0,"az":325.0,"ss":0.0,"used":false,"gnssid":3,"svid":35,"health":1},{"PRN":67,"el":19.0,"az":35.0,"ss":0.0,"used":false,"gnssid":6,"svid":3,"health":1},{"PRN":68,"el":32.0,"az":87.0,"ss":0.0,"used":false,"gnssid":6,"svid":4,"health":1},{"PRN":69,"el":15.0,"az":138.0,"ss":23.0,"used":true,"gnssid":6,"svid":5,"health":1},{"PRN":73,"el":29.0,"az":209.0,"ss":34.0,"used":true,"gnssid":6,"svid":9,"health":1},{"PRN":74,"el":48.0,"az":266.0,"ss":30.0,"used":true,"gnssid":6,"svid":10,"health":1},{"PRN":75,"el":23.0,"az":326.0,"ss":22.0,"used":false,"gnssid":6,"svid":11,"health":1}]}
{"class":"PPS","device":"/dev/pps0","real_sec":1747846806,"real_nsec":0,"clock_sec":1747846805,"clock_nsec":999999512,"precision":-20}
{"class":"TPV","device":"/dev/ttyACM0","mode":3,"time":"2025-05-21T17:00:06.000Z","leapseconds":18,"ept":0.005,"lat":41.880703000,"lon":-87.643882300,"altHAE":263.5310,"altMSL":297.3200,"alt":297.3200,"epx":9.259,"epy":11.026,"epv":4.237,"track":246.8936,"magtrack":242.8388,"magvar":-4.1,"speed":0.012,"climb":-0.017,"eps":0.02,"epc":8.48,"ecefx":195523.29,"ecefy":-4752030.57,"ecefz":4235923.44,"ecefvx":0.01,"ecefvy":0.01,"ecefvz":0.00,"ecefpAcc":6.47,"ecefvAcc":0.02,"geoidSep":-33.900,"eph":4.887,"sep":23.940}
{"class":"SKY","device":"/dev/ttyACM0","time":"2025-05-21T17:00:06.000Z","xdop":0.81,"ydop":0.95,"vdop":1.15,"tdop":0.89,"hdop":0.87,"gdop":1.69,"pdop":1.44,"nSat":40,"uSat":14,"satellites":[{"PRN":4,"el":7.0,"az":49.0,"ss":0.0,"used":false,"gnssid":0,"svid":4,"health":1},{"PRN":5,"el":13.0,"az":199.0,"ss":29.0,"used":true,"gnssid":0,"svid":5,"health":1},{"PRN":6,"el":56.0,"az":44.0,"ss":8.0,"used":false,"gnssid":0,"svid":6,"health":1},{"PRN":9,"el":13.0,"az":81.0,"ss":0.0,"used":false,"gnssid":0,"svid":9,"health":1},{"PRN":11,"el":77.0,"az":300.0,"ss":16.0,"used":true,"gnssid":0,"svid":11,"health":1},{"PRN":12,"el":56.0,"az":281.0,"ss":30.0,"used":true,"gnssid":0,"svid":12,"health":1},{"PRN":17,"el":16.0,"az":107.0,"ss":7.0,"used":false,"gnssid":0,"svid":17,"health":1},{"PRN":19,"el":40.0,"az":98.0,"ss":11.0,"used":false,"gnssid":0,"svid":19,"health":1},{"PRN":20,"el":47.0,"az":189.0,"ss":30.0,"used":true,"gnssid":0,"svid":20,"health":1},{"PRN":22,"el":8.0,"az":158.0,"ss":20.0,"used":false,"gnssid":0,"svid":22,"health":1},{"PRN":24,"el":0.0,"az":237.0,"ss":20.0,"used":false,"gnssid":0,"svid":24,"health":1},{"PRN":25,"el":27.0,"az":311.0,"ss":0.0,"used":false,"gnssid":0,"svid":25,"health":1},{"PRN":302,"el":35.0,"az":310.0,"ss":19.0,"used":false,"gnssid":2,"svid":2,"health":1},{"PRN":304,"el":5.0,"az":112.0,"ss":0.0,"used":false,"gnssid":2,"svid":4,"health":1},{"PRN":310,"el":53.0,"az":45.0,"ss":8.0,"used":false,"gnssid":2,"svid":10,"health":1},{"PRN":311,"el":78.0,"az":358.0,"ss":11.0,"used":false,"gnssid":2,"svid":11,"health":1},{"PRN":312,"el":29.0,"az":53.0,"ss":9.0,"used":false,"gnssid":2,"svid":12,"health":1},{"PRN":316,"el":51.0,"az":184.0,"ss":25.0,"used":true,"gnssid":2,"svid":16,"health":1},{"PRN":319,"el":8.0,"az":60.0,"ss":0.0,"used":false,"gnssid":2,"svid":19,"health":1},{"PRN":324,"el":28.0,"az":165.0,"ss":31.0,"used":true,"gnssid":2,"svid":24,"health":1},{"PRN":325,"el":66.0,"az":226.0,"ss":26.0,"used":true,"gnssid":2,"svid":25,"health":1},{"PRN":336,"el":41.0,"az":251.0,"ss":29.0,"used":true,"gnssid":2,"svid":36,"health":1},{"PRN":419,"el":34.0,"az":127.0,"ss":0.0,"used":false,"gnssid":3,"svid":19,"health":1},{"PRN":420,"el":32.0,"az":68.0,"ss":0.0,"used":false,"gnssid":3,"svid":20,"health":1},{"PRN":422,"el":5.0,"az":173.0,"ss":30.0,"used":false,"gnssid":3,"svid":22,"health":1},{"PRN":424,"el":24.0,"az":302.0,"ss":0.0,"used":false,"gnssid":3,"svid":24,"health":1},{"PRN":426,"el":33.0,"az":247.0,"ss":25.0,"used":true,"gnssid":3,"svid":26,"health":1},{"PRN":429,"el":37.0,"az":78.0,"ss":0.0,"used":false,"gnssid":3,"svid":29,"health":1},{"PRN":432,"el":1.0,"az":24.0,"ss":0.0,"used":false,"gnssid":3,"svid":32,"health":1},{"PRN":435,"el":70.0,"az":325.0,"ss":0.0,"used":false,"gnssid":3,"svid":35,"health":1},{"PRN":67,"el":19.0,"az":35.0,"ss":0.0,"used":false,"gnssid":6,"svid":3,"health":1},{"PRN":68,"el":32.0,"az":87.0,"ss":0.0,"used":false,"gnssid":6,"svid":4,"health":1},{"PRN":69,"el":15.0,"az":138.0,"ss":23.0,"used":true,"gnssid":6,"svid":5,"health":1},{"PRN":73,"el":29.0,"az":209.0,"ss":35.0,"used":true,"gnssid":6,"svid":9,"health":1},{"PRN":74,"el":48.0,"az":266.0,"ss":30.0,"used":true,"gnssid":6,"svid":10,"health":1},{"PRN":75,"el":23.0,"az":326.0,"ss":23.0,"used":false,"gnssid":6,"svid":11,"health":1}]}
{"class":"PPS","device":"/dev/pps0","real_sec":1747846807,"real_nsec":0,"clock_sec":1747846806,"clock_nsec":999999131,"precision":-20}
{"class":"TPV","device":"/dev/ttyACM0","mode":3,"time":"2025-05-21T17:00:07.000Z","leapseconds":18,"ept":0.005,"lat":41.880703100,"lon":-87.643882500,"altHAE":263.5190,"altMSL":297.3080,"alt":297.3080,"epx":12.171,"epy":14.290,"epv":4.235,"track":246.8936,"magtrack":242.8388,"magvar":-4.1,"speed":0.012,"climb":-0.017,"eps":0.02,"epc":8.47,"ecefx":195523.28,"ecefy":-4752030.56,"ecefz":4235923.45,"ecefvx":0.01,"ecefvy":0.01,"ecefvz":0.00,"ecefpAcc":6.47,"ecefvAcc":0.02,"geoidSep":-33.900,"eph":4.886,"sep":23.940}
