{"class":"VERSION","release":"3.22","rev":"3.22","proto_major":3,"proto_minor":14}
{"class":"DEVICES","devices":[{"class":"DEVICE","path":"/dev/ttyACM0","driver":"u-blox","subtype":"SW EXT CORE 1.00 (3fda8e),HW 00190000","subtype1":"ROM BASE 0x118B2060,FWVER=TIM 2.20,PROTVER=29.20,MOD=ZED-F9T,GPS;GLO;GAL;BDS,SBAS;QZSS,NAVIC","activated":"2025-05-22T05:00:01.067Z","flags":1,"native":1,"bps":9600,"parity":"N","stopbits":1,"cycle":1.00,"mincycle":0.02},{"class":"DEVICE","path":"/dev/pps0","driver":"PPS","activated":"2025-05-22T05:00:01.001Z"}]}
{"class":"WATCH","enable":true,"json":true,"nmea":false,"raw":0,"scaled":false,"timing":false,"split24":false,"pps":false}
{"class":"PPS","device":"/dev/pps0","real_sec":1747890002,"real_nsec":0,"clock_sec":1747890001,"clock_nsec":999997814,"precision":-20}
{"class":"TPV","device":"/dev/ttyACM0","mode":3,"time":"2025-05-22T05:00:02.000Z","leapseconds":18,"ept":0.005,"lat":41.880708800,"lon":-87.643714200,"altHAE":250.8330,"altMSL":284.6220,"alt":284.6220,"epx":8.674,"epy":7.812,"epv":1.603,"track":198.7335,"magtrack":242.8388,"magvar":-4.1,"speed":0.057,"climb":-0.017,"eps":0.03,"epc":3.20,"ecefx":195536.94,"ecefy":-4752019.86,"ecefz":4235915.37,"ecefvx":-0.04,"ecefvy":-0.09,"ecefvz":0.04,"ecefpAcc":2.21,"ecefvAcc":0.03,"geoidSep":-33.900,"eph":1.533,"sep":23.940}
{"class":"SKY","device":"/dev/ttyACM0","time":"2025-05-22T05:00:02.000Z","xdop":0.52,"ydop":0.53,"vdop":1.10,"tdop":0.81,"hdop":0.76,"gdop":1.56,"pdop":1.33,"nSat":35,"uSat":18,"satellites":[{"PRN":1,"el":11.0,"az":248.0,"ss":40.0,"used":true,"gnssid":0,"svid":1,"health":1},{"PRN":3,"el":54.0,"az":285.0,"ss":45.0,"used":true,"gnssid":0,"svid":3,"health":1},{"PRN":4,"el":23.0,"az":301.0,"ss":33.0,"used":true,"gnssid":0,"svid":4,"health":1},{"PRN":16,"el":27.0,"az":184.0,"ss":29.0,"used":true,"gnssid":0,"svid":16,"health":1},{"PRN":25,"el":11.0,"az":40.0,"ss":0.0,"used":false,"gnssid":0,"svid":25,"health":1},{"PRN":26,"el":57.0,"az":166.0,"ss":40.0,"used":true,"gnssid":0,"svid":26,"health":1},{"PRN":28,"el":50.0,"az":52.0,"ss":9.0,"used":true,"gnssid":0,"svid":28,"health":1},{"PRN":29,"el":9.0,"az":75.0,"ss":0.0,"used":false,"gnssid":0,"svid":29,"health":1},{"PRN":31,"el":76.0,"az":17.0,"ss":0.0,"used":false,"gnssid":0,"svid":31,"health":1},{"PRN":32,"el":28.0,"az":109.0,"ss":0.0,"used":false,"gnssid":0,"svid":32,"health":1},{"PRN":302,"el":54.0,"az":88.0,"ss":8.0,"used":false,"gnssid":2,"svid":2,"health":1},{"PRN":303,"el":19.0,"az":105.0,"ss":9.0,"used":false,"gnssid":2,"svid":3,"health":1},{"PRN":307,"el":50.0,"az":307.0,"ss":35.0,"used":true,"gnssid":2,"svid":7,"health":1},{"PRN":308,"el":68.0,"az":76.0,"ss":8.0,"used":false,"gnssid":2,"svid":8,"health":1},{"PRN":313,"el":8.0,"az":228.0,"ss":30.0,"used":false,"gnssid":2,"svid":13,"health":1},{"PRN":325,"el":17.0,"az":40.0,"ss":0.0,"used":false,"gnssid":2,"svid":25,"health":1},{"PRN":326,"el":17.0,"az":277.0,"ss":42.0,"used":true,"gnssid":2,"svid":26,"health":1},{"PRN":329,"el":0.0,"az":293.0,"ss":0.0,"used":false,"gnssid":2,"svid":29,"health":1},{"PRN":330,"el":39.0,"az":171.0,"ss":47.0,"used":true,"gnssid":2,"svid":30,"health":1},{"PRN":333,"el":8.0,"az":324.0,"ss":30.0,"used":false,"gnssid":2,"svid":33,"health":1},{"PRN":414,"el":21.0,"az":140.0,"ss":33.0,"used":true,"gnssid":3,"svid":14,"health":1},{"PRN":423,"el":31.0,"az":222.0,"ss":35.0,"used":true,"gnssid":3,"svid":23,"health":1},{"PRN":424,"el":35.0,"az":51.0,"ss":20.0,"used":false,"gnssid":3,"svid":24,"health":1},{"PRN":425,"el":83.0,"az":184.0,"ss":31.0,"used":true,"gnssid":3,"svid":25,"health":1},{"PRN":432,"el":22.0,"az":314.0,"ss":28.0,"used":true,"gnssid":3,"svid":32,"health":1},{"PRN":433,"el":46.0,"az":144.0,"ss":41.0,"used":true,"gnssid":3,"svid":33,"health":1},{"PRN":65,"el":14.0,"az":133.0,"ss":19.0,"used":true,"gnssid":6,"svid":1,"health":1},{"PRN":66,"el":62.0,"az":112.0,"ss":0.0,"used":false,"gnssid":6,"svid":2,"health":1},{"PRN":67,"el":53.0,"az":331.0,"ss":0.0,"used":false,"gnssid":6,"svid":3,"health":1},{"PRN":68,"el":6.0,"az":319.0,"ss":0.0,"used":false,"gnssid":6,"svid":4,"health":1},{"PRN":76,"el":55.0,"az":38.0,"ss":10.0,"used":true,"gnssid":6,"svid":12,"health":1},{"PRN":77,"el":72.0,"az":205.0,"ss":40.0,"used":true,"gnssid":6,"svid":13,"health":1},{"PRN":78,"el":13.0,"az":213.0,"ss":28.0,"used":true,"gnssid":6,"svid":14,"health":1},{"PRN":83,"el":3.0,"az":309.0,"ss":0.0,"used":false,"gnssid":6,"svid":19,"health":1}]}
{"class":"PPS","device":"/dev/pps0","real_sec":1747890003,"real_nsec":0,"clock_sec":1747890002,"clock_nsec":999999890,"precision":-20}
{"class":"TPV","device":"/dev/ttyACM0","mode":3,"time":"2025-05-22T05:00:03.000Z","leapseconds":18,"ept":0.005,"lat":41.880707900,"lon":-87.643716000,"altHAE":251.0720,"altMSL":284.8610,"alt":284.8610,"epx":7.765,"epy":7.903,"epv":1.610,"track":198.7335,"magtrack":242.8388,"magvar":-4.1,"speed":0.058,"climb":-0.017,"eps":0.03,"epc":3.21,"ecefx":195536.81,"ecefy":-4752020.11,"ecefz":4235915.45,"ecefvx":-0.04,"ecefvy":-0.09,"ecefvz":0.04,"ecefpAcc":2.22,"ecefvAcc":0.03,"geoidSep":-33.900,"eph":1.533,"sep":23.940}
{"class":"SKY","device":"/dev/ttyACM0","time":"2025-05-22T05:00:03.000Z","xdop":0.57,"ydop":0.63,"vdop":1.10,"tdop":0.82,"hdop":0.80,"gdop":1.59,"pdop":1.36,"nSat":35,"uSat":17,"satellites":[{"PRN":1,"el":11.0,"az":248.0,"ss":39.0,"used":true,"gnssid":0,"svid":1,"health":1},{"PRN":3,"el":54.0,"az":285.0,"ss":45.0,"used":true,"gnssid":0,"svid":3,"health":1},{"PRN":4,"el":23.0,"az":301.0,"ss":34.0,"used":true,"gnssid":0,"svid":4,"health":1},{"PRN":16,"el":27.0,"az":184.0,"ss":29.0,"used":true,"gnssid":0,"svid":16,"health":1},{"PRN":25,"el":11.0,"az":40.0,"ss":0.0,"used":false,"gnssid":0,"svid":25,"health":1},{"PRN":26,"el":57.0,"az":166.0,"ss":40.0,"used":true,"gnssid":0,"svid":26,"health":1},{"PRN":28,"el":50.0,"az":52.0,"ss":9.0,"used":false,"gnssid":0,"svid":28,"health":1},{"PRN":29,"el":9.0,"az":75.0,"ss":0.0,"used":false,"gnssid":0,"svid":29,"health":1},{"PRN":31,"el":76.0,"az":17.0,"ss":0.0,"used":false,"gnssid":0,"svid":31,"health":1},{"PRN":32,"el":28.0,"az":109.0,"ss":23.0,"used":false,"gnssid":0,"svid":32,"health":1},{"PRN":302,"el":54.0,"az":88.0,"ss":9.0,"used":true,"gnssid":2,"svid":2,"health":1},{"PRN":303,"el":19.0,"az":105.0,"ss":8.0,"used":false,"gnssid":2,"svid":3,"health":1},{"PRN":307,"el":50.0,"az":307.0,"ss":34.0,"used":true,"gnssid":2,"svid":7,"health":1},{"PRN":308,"el":68.0,"az":76.0,"ss":7.0,"used":false,"gnssid":2,"svid":8,"health":1},{"PRN":313,"el":8.0,"az":228.0,"ss":31.0,"used":false,"gnssid":2,"svid":13,"health":1},{"PRN":325,"el":17.0,"az":40.0,"ss":0.0,"used":false,"gnssid":2,"svid":25,"health":1},{"PRN":326,"el":17.0,"az":277.0,"ss":42.0,"used":true,"gnssid":2,"svid":26,"health":1},{"PRN":329,"el":0.0,"az":293.0,"ss":0.0,"used":false,"gnssid":2,"svid":29,"health":1},{"PRN":330,"el":39.0,"az":171.0,"ss":47.0,"used":true,"gnssid":2,"svid":30,"health":1},{"PRN":333,"el":8.0,"az":324.0,"ss":30.0,"used":false,"gnssid":2,"svid":33,"health":1},{"PRN":414,"el":21.0,"az":140.0,"ss":33.0,"used":true,"gnssid":3,"svid":14,"health":1},{"PRN":423,"el":31.0,"az":222.0,"ss":35.0,"used":true,"gnssid":3,"svid":23,"health":1},{"PRN":424,"el":35.0,"az":51.0,"ss":19.0,"used":false,"gnssid":3,"svid":24,"health":1},{"PRN":425,"el":83.0,"az":184.0,"ss":31.0,"used":true,"gnssid":3,"svid":25,"health":1},{"PRN":432,"el":22.0,"az":314.0,"ss":29.0,"used":true,"gnssid":3,"svid":32,"health":1},{"PRN":433,"el":46.0,"az":144.0,"ss":41.0,"used":true,"gnssid":3,"svid":33,"health":1},{"PRN":65,"el":14.0,"az":133.0,"ss":20.0,"used":true,"gnssid":6,"svid":1,"health":1},{"PRN":66,"el":62.0,"az":112.0,"ss":0.0,"used":false,"gnssid":6,"svid":2,"health":1},{"PRN":67,"el":53.0,"az":331.0,"ss":0.0,"used":false,"gnssid":6,"svid":3,"health":1},{"PRN":68,"el":6.0,"az":319.0,"ss":0.0,"used":false,"gnssid":6,"svid":4,"health":1},{"PRN":76,"el":55.0,"az":38.0,"ss":8.0,"used":false,"gnssid":6,"svid":12,"health":1},{"PRN":77,"el":72.0,"az":205.0,"ss":40.0,"used":true,"gnssid":6,"svid":13,"health":1},{"PRN":78,"el":13.0,"az":213.0,"ss":30.0,"used":true,"gnssid":6,"svid":14,"health":1},{"PRN":83,"el":3.0,"az":309.0,"ss":29.0,"used":false,"gnssid":6,"svid":19,"health":1}]}
{"class":"PPS","device":"/dev/pps0","real_sec":1747890004,"real_nsec":0,"clock_sec":1747890003,"clock_nsec":999999282,"precision":-20}
{"class":"TPV","device":"/dev/ttyACM0","mode":3,"time":"2025-05-22T05:00:04.000Z","leapseconds":18,"ept":0.005,"lat":41.880706800,"lon":-87.643717800,"altHAE":251.3140,"altMSL":285.1030,"alt":285.1030,"epx":8.598,"epy":9.384,"epv":1.616,"track":198.7335,"magtrack":242.8388,"magvar":-4.1,"speed":0.060,"climb":-0.017,"eps":0.03,"epc":3.23,"ecefx":195536.68,"ecefy":-4752020.36,"ecefz":4235915.53,"ecefvx":-0.05,"ecefvy":-0.09,"ecefvz":0.04,"ecefpAcc":2.22,"ecefvAcc":0.03,"geoidSep":-33.900,"eph":1.532,"sep":23.940}
{"class":"SKY","device":"/dev/ttyACM0","time":"2025-05-22T05:00:04.000Z","xdop":0.56,"ydop":0.61,"vdop":1.16,"tdop":0.99,"hdop":1.08,"gdop":1.87,"pdop":1.59,"nSat":35,"uSat":18,"satellites":[{"PRN":1,"el":11.0,"az":248.0,"ss":40.0,"used":true,"gnssid":0,"svid":1,"health":1},{"PRN":3,"el":54.0,"az":285.0,"ss":45.0,"used":true,"gnssid":0,"svid":3,"health":1},{"PRN":4,"el":23.0,"az":301.0,"ss":34.0,"used":true,"gnssid":0,"svid":4,"health":1},{"PRN":16,"el":27.0,"az":184.0,"ss":31.0,"used":true,"gnssid":0,"svid":16,"health":1},{"PRN":25,"el":11.0,"az":40.0,"ss":0.0,"used":false,"gnssid":0,"svid":25,"health":1},{"PRN":26,"el":57.0,"az":166.0,"ss":40.0,"used":true,"gnssid":0,"svid":26,"health":1},{"PRN":28,"el":50.0,"az":52.0,"ss":6.0,"used":false,"gnssid":0,"svid":28,"health":1},{"PRN":29,"el":9.0,"az":75.0,"ss":0.0,"used":false,"gnssid":0,"svid":29,"health":1},{"PRN":31,"el":76.0,"az":17.0,"ss":0.0,"used":false,"gnssid":0,"svid":31,"health":1},{"PRN":32,"el":28.0,"az":109.0,"ss":23.0,"used":false,"gnssid":0,"svid":32,"health":1},{"PRN":302,"el":54.0,"az":88.0,"ss":10.0,"used":true,"gnssid":2,"svid":2,"health":1},{"PRN":303,"el":19.0,"az":105.0,"ss":9.0,"used":false,"gnssid":2,"svid":3,"health":1},{"PRN":307,"el":50.0,"az":307.0,"ss":34.0,"used":true,"gnssid":2,"svid":7,"health":1},{"PRN":308,"el":68.0,"az":76.0,"ss":10.0,"used":true,"gnssid":2,"svid":8,"health":1},{"PRN":313,"el":8.0,"az":228.0,"ss":31.0,"used":false,"gnssid":2,"svid":13,"health":1},{"PRN":325,"el":17.0,"az":40.0,"ss":0.0,"used":false,"gnssid":2,"svid":25,"health":1},{"PRN":326,"el":17.0,"az":277.0,"ss":42.0,"used":true,"gnssid":2,"svid":26,"health":1},{"PRN":329,"el":0.0,"az":293.0,"ss":0.0,"used":false,"gnssid":2,"svid":29,"health":1},{"PRN":330,"el":39.0,"az":171.0,"ss":47.0,"used":true,"gnssid":2,"svid":30,"health":1},{"PRN":333,"el":8.0,"az":324.0,"ss":30.0,"used":false,"gnssid":2,"svid":33,"health":1},{"PRN":414,"el":21.0,"az":140.0,"ss":33.0,"used":true,"gnssid":3,"svid":14,"health":1},{"PRN":423,"el":31.0,"az":222.0,"ss":35.0,"used":true,"gnssid":3,"svid":23,"health":1},{"PRN":424,"el":35.0,"az":51.0,"ss":20.0,"used":false,"gnssid":3,"svid":24,"health":1},{"PRN":425,"el":83.0,"az":184.0,"ss":31.0,"used":true,"gnssid":3,"svid":25,"health":1},{"PRN":432,"el":22.0,"az":314.0,"ss":29.0,"used":true,"gnssid":3,"svid":32,"health":1},{"PRN":433,"el":46.0,"az":144.0,"ss":41.0,"used":true,"gnssid":3,"svid":33,"health":1},{"PRN":65,"el":14.0,"az":133.0,"ss":18.0,"used":true,"gnssid":6,"svid":1,"health":1},{"PRN":66,"el":62.0,"az":112.0,"ss":0.0,"used":false,"gnssid":6,"svid":2,"health":1},{"PRN":67,"el":53.0,"az":331.0,"ss":0.0,"used":false,"gnssid":6,"svid":3,"health":1},{"PRN":68,"el":6.0,"az":319.0,"ss":0.0,"used":false,"gnssid":6,"svid":4,"health":1},{"PRN":76,"el":55.0,"az":38.0,"ss":7.0,"used":false,"gnssid":6,"svid":12,"health":1},{"PRN":77,"el":72.0,"az":205.0,"ss":40.0,"used":true,"gnssid":6,"svid":13,"health":1},{"PRN":78,"el":13.0,"az":213.0,"ss":30.0,"used":true,"gnssid":6,"svid":14,"health":1},{"PRN":83,"el":3.0,"az":309.0,"ss":29.0,"used":false,"gnssid":6,"svid":19,"health":1}]}
{"class":"PPS","device":"/dev/pps0","real_sec":1747890005,"real_nsec":0,"clock_sec":1747890004,"clock_nsec":999998415,"precision":-20}
{"class":"TPV","device":"/dev/ttyACM0","mode":3,"time":"2025-05-22T05:00:05.000Z","leapseconds":18,"ept":0.005,"lat":41.880705600,"lon":-87.643719800,"altHAE":251.5570,"altMSL":285.3460,"alt":285.3460,"epx":8.326,"epy":9.120,"epv":1.622,"track":198.7335,"magtrack":242.8388,"magvar":-4.1,"speed":0.061,"climb":-0.017,"eps":0.03,"epc":3.24,"ecefx":195536.53,"ecefy":-4752020.63,"ecefz":4235915.61,"ecefvx":-0.05,"ecefvy":-0.09,"ecefvz":0.04,"ecefpAcc":2.23,"ecefvAcc":0.03,"geoidSep":-33.900,"eph":1.531,"sep":23.940}
{"class":"SKY","device":"/dev/ttyACM0","time":"2025-05-22T05:00:05.000Z","xdop":0.52,"ydop":0.55,"vdop":1.13,"tdop":0.90,"hdop":0.90,"gdop":1.70,"pdop":1.45,"nSat":35,"uSat":19,"satellites":[{"PRN":1,"el":11.0,"az":248.0,"ss":40.0,"used":true,"gnssid":0,"svid":1,"health":1},{"PRN":3,"el":54.0,"az":285.0,"ss":45.0,"used":true,"gnssid":0,"svid":3,"health":1},{"PRN":4,"el":23.0,"az":301.0,"ss":35.0,"used":true,"gnssid":0,"svid":4,"health":1},{"PRN":16,"el":27.0,"az":184.0,"ss":32.0,"used":true,"gnssid":0,"svid":16,"health":1},{"PRN":25,"el":11.0,"az":40.0,"ss":0.0,"used":false,"gnssid":0,"svid":25,"health":1},{"PRN":26,"el":57.0,"az":166.0,"ss":40.0,"used":true,"gnssid":0,"svid":26,"health":1},{"PRN":28,"el":50.0,"az":52.0,"ss":5.0,"used":false,"gnssid":0,"svid":28,"health":1},{"PRN":29,"el":9.0,"az":75.0,"ss":0.0,"used":false,"gnssid":0,"svid":29,"health":1},{"PRN":31,"el":76.0,"az":17.0,"ss":0.0,"used":false,"gnssid":0,"svid":31,"health":1},{"PRN":32,"el":28.0,"az":109.0,"ss":23.0,"used":false,"gnssid":0,"svid":32,"health":1},{"PRN":302,"el":54.0,"az":88.0,"ss":9.0,"used":true,"gnssid":2,"svid":2,"health":1},{"PRN":303,"el":19.0,"az":105.0,"ss":11.0,"used":false,"gnssid":2,"svid":3,"health":1},{"PRN":307,"el":50.0,"az":307.0,"ss":34.0,"used":true,"gnssid":2,"svid":7,"health":1},{"PRN":308,"el":68.0,"az":76.0,"ss":13.0,"used":true,"gnssid":2,"svid":8,"health":1},{"PRN":313,"el":8.0,"az":228.0,"ss":31.0,"used":false,"gnssid":2,"svid":13,"health":1},{"PRN":325,"el":17.0,"az":40.0,"ss":0.0,"used":false,"gnssid":2,"svid":25,"health":1},{"PRN":326,"el":17.0,"az":277.0,"ss":42.0,"used":true,"gnssid":2,"svid":26,"health":1},{"PRN":329,"el":0.0,"az":293.0,"ss":0.0,"used":false,"gnssid":2,"svid":29,"health":1},{"PRN":330,"el":39.0,"az":171.0,"ss":47.0,"used":true,"gnssid":2,"svid":30,"health":1},{"PRN":333,"el":8.0,"az":324.0,"ss":30.0,"used":false,"gnssid":2,"svid":33,"health":1},{"PRN":414,"el":21.0,"az":140.0,"ss":33.0,"used":true,"gnssid":3,"svid":14,"health":1},{"PRN":423,"el":31.0,"az":222.0,"ss":35.0,"used":true,"gnssid":3,"svid":23,"health":1},{"PRN":424,"el":35.0,"az":51.0,"ss":19.0,"used":false,"gnssid":3,"svid":24,"health":1},{"PRN":425,"el":83.0,"az":184.0,"ss":31.0,"used":true,"gnssid":3,"svid":25,"health":1},{"PRN":432,"el":22.0,"az":314.0,"ss":29.0,"used":true,"gnssid":3,"svid":32,"health":1},{"PRN":433,"el":46.0,"az":144.0,"ss":41.0,"used":true,"gnssid":3,"svid":33,"health":1},{"PRN":65,"el":14.0,"az":133.0,"ss":17.0,"used":true,"gnssid":6,"svid":1,"health":1},{"PRN":66,"el":62.0,"az":112.0,"ss":0.0,"used":false,"gnssid":6,"svid":2,"health":1},{"PRN":67,"el":53.0,"az":331.0,"ss":0.0,"used":false,"gnssid":6,"svid":3,"health":1},{"PRN":68,"el":6.0,"az":319.0,"ss":0.0,"used":false,"gnssid":6,"svid":4,"health":1},{"PRN":76,"el":55.0,"az":38.0,"ss":9.0,"used":true,"gnssid":6,"svid":12,"health":1},{"PRN":77,"el":72.0,"az":205.0,"ss":40.0,"used":true,"gnssid":6,"svid":13,"health":1},{"PRN":78,"el":13.0,"az":213.0,"ss":30.0,"used":true,"gnssid":6,"svid":14,"health":1},{"PRN":83,"el":3.0,"az":309.0,"ss":29.0,"used":false,"gnssid":6,"svid":19,"health":1}]}
{"class":"PPS","device":"/dev/pps0","real_sec":1747890006,"real_nsec":0,"clock_sec":1747890005,"clock_nsec":999999973,"precision":-20}
{"class":"TPV","device":"/dev/ttyACM0","mode":3,"time":"2025-05-22T05:00:06.000Z","leapseconds":18,"ept":0.005,"lat":41.880704700,"lon":-87.643721400,"altHAE":251.7860,"altMSL":285.5750,"alt":285.5750,"epx":7.837,"epy":8.318,"epv":1.629,"track":198.7335,"magtrack":242.8388,"magvar":-4.1,"speed":0.063,"climb":-0.017,"eps":0.03,"epc":3.25,"ecefx":195536.39,"ecefy":-4752020.90,"ecefz":4235915.67,"ecefvx":-0.05,"ecefvy":-0.10,"ecefvz":0.04,"ecefpAcc":2.23,"ecefvAcc":0.03,"geoidSep":-33.900,"eph":1.530,"sep":23.940}
{"class":"SKY","device":"/dev/ttyACM0","time":"2025-05-22T05:00:06.000Z","xdop":0.65,"ydop":0.68,"vdop":1.12,"tdop":0.86,"hdop":0.82,"gdop":1.63,"pdop":1.39,"nSat":35,"uSat":16,"satellites":[{"PRN":1,"el":11.0,"az":248.0,"ss":40.0,"used":true,"gnssid":0,"svid":1,"health":1},{"PRN":3,"el":54.0,"az":285.0,"ss":45.0,"used":true,"gnssid":0,"svid":3,"health":1},{"PRN":4,"el":23.0,"az":301.0,"ss":34.0,"used":true,"gnssid":0,"svid":4,"health":1},{"PRN":16,"el":27.0,"az":184.0,"ss":32.0,"used":true,"gnssid":0,"svid":16,"health":1},{"PRN":25,"el":11.0,"az":40.0,"ss":0.0,"used":false,"gnssid":0,"svid":25,"health":1},{"PRN":26,"el":57.0,"az":166.0,"ss":40.0,"used":true,"gnssid":0,"svid":26,"health":1},{"PRN":28,"el":50.0,"az":52.0,"ss":10.0,"used":false,"gnssid":0,"svid":28,"health":1},{"PRN":29,"el":9.0,"az":75.0,"ss":0.0,"used":false,"gnssid":0,"svid":29,"health":1},{"PRN":31,"el":76.0,"az":17.0,"ss":0.0,"used":false,"gnssid":0,"svid":31,"health":1},{"PRN":32,"el":28.0,"az":109.0,"ss":0.0,"used":false,"gnssid":0,"svid":32,"health":1},{"PRN":302,"el":54.0,"az":88.0,"ss":8.0,"used":false,"gnssid":2,"svid":2,"health":1},{"PRN":303,"el":19.0,"az":105.0,"ss":8.0,"used":false,"gnssid":2,"svid":3,"health":1},{"PRN":307,"el":50.0,"az":307.0,"ss":34.0,"used":true,"gnssid":2,"svid":7,"health":1},{"PRN":308,"el":68.0,"az":76.0,"ss":11.0,"used":false,"gnssid":2,"svid":8,"health":1},{"PRN":313,"el":8.0,"az":228.0,"ss":31.0,"used":false,"gnssid":2,"svid":13,"health":1},{"PRN":325,"el":17.0,"az":40.0,"ss":0.0,"used":false,"gnssid":2,"svid":25,"health":1},{"PRN":326,"el":17.0,"az":277.0,"ss":41.0,"used":true,"gnssid":2,"svid":26,"health":1},{"PRN":329,"el":0.0,"az":293.0,"ss":0.0,"used":false,"gnssid":2,"svid":29,"health":1},{"PRN":330,"el":39.0,"az":171.0,"ss":47.0,"used":true,"gnssid":2,"svid":30,"health":1},{"PRN":333,"el":8.0,"az":324.0,"ss":30.0,"used":false,"gnssid":2,"svid":33,"health":1},{"PRN":414,"el":21.0,"az":140.0,"ss":33.0,"used":true,"gnssid":3,"svid":14,"health":1},{"PRN":423,"el":31.0,"az":222.0,"ss":34.0,"used":true,"gnssid":3,"svid":23,"health":1},{"PRN":424,"el":35.0,"az":51.0,"ss":18.0,"used":false,"gnssid":3,"svid":24,"health":1},{"PRN":425,"el":83.0,"az":184.0,"ss":31.0,"used":true,"gnssid":3,"svid":25,"health":1},{"PRN":432,"el":22.0,"az":314.0,"ss":29.0,"used":true,"gnssid":3,"svid":32,"health":1},{"PRN":433,"el":46.0,"az":144.0,"ss":41.0,"used":true,"gnssid":3,"svid":33,"health":1},{"PRN":65,"el":14.0,"az":133.0,"ss":20.0,"used":true,"gnssid":6,"svid":1,"health":1},{"PRN":66,"el":62.0,"az":112.0,"ss":0.0,"used":false,"gnssid":6,"svid":2,"health":1},{"PRN":67,"el":53.0,"az":331.0,"ss":0.0,"used":false,"gnssid":6,"svid":3,"health":1},{"PRN":68,"el":6.0,"az":319.0,"ss":0.0,"used":false,"gnssid":6,"svid":4,"health":1},{"PRN":76,"el":55.0,"az":38.0,"ss":6.0,"used":false,"gnssid":6,"svid":12,"health":1},{"PRN":77,"el":72.0,"az":205.0,"ss":39.0,"used":true,"gnssid":6,"svid":13,"health":1},{"PRN":78,"el":13.0,"az":213.0,"ss":30.0,"used":true,"gnssid":6,"svid":14,"health":1},{"PRN":83,"el":3.0,"az":309.0,"ss":29.0,"used":false,"gnssid":6,"svid":19,"health":1}]}
{"class":"PPS","device":"/dev/pps0","real_sec":1747890007,"real_nsec":0,"clock_sec":1747890006,"clock_nsec":999998032,"precision":-20}
{"class":"TPV","device":"/dev/ttyACM0","mode":3,"time":"2025-05-22T05:00:07.000Z","leapseconds":18,"ept":0.005,"lat":41.880703700,"lon":-87.643723200,"altHAE":252.0230,"altMSL":285.8120,"alt":285.8120,"epx":9.717,"epy":10.134,"epv":1.635,"track":198.7335,"magtrack":242.8388,"magvar":-4.1,"speed":0.064,"climb":-0.017,"eps":0.03,"epc":3.26,"ecefx":195536.26,"ecefy":-4752021.15,"ecefz":4235915.75,"ecefvx":-0.05,"ecefvy":-0.10,"ecefvz":0.04,"ecefpAcc":2.23,"ecefvAcc":0.03,"geoidSep":-33.900,"eph":1.529,"sep":23.940}
