{"class":"VERSION","release":"3.22","rev":"3.22","proto_major":3,"proto_minor":14}
{"class":"DEVICES","devices":[{"class":"DEVICE","path":"/dev/ttyACM0","driver":"u-blox","subtype":"SW EXT CORE 1.00 (3fda8e),HW 00190000","subtype1":"ROM BASE 0x118B2060,FWVER=TIM 2.20,PROTVER=29.20,MOD=ZED-F9T,GPS;GLO;GAL;BDS,SBAS;QZSS,NAVIC","activated":"2025-05-17T17:00:01.088Z","flags":1,"native":1,"bps":9600,"parity":"N","stopbits":1,"cycle":1.00,"mincycle":0.02},{"class":"DEVICE","path":"/dev/pps0","driver":"PPS","activated":"2025-05-17T17:00:01.000Z"}]}
{"class":"WATCH","enable":true,"json":true,"nmea":false,"raw":0,"scaled":false,"timing":false,"split24":false,"pps":false}
{"class":"PPS","device":"/dev/pps0","real_sec":1747501202,"real_nsec":0,"clock_sec":1747501202,"clock_nsec":2245,"precision":-20}
{"class":"TPV","device":"/dev/ttyACM0","mode":3,"time":"2025-05-17T17:00:02.000Z","leapseconds":18,"ept":0.005,"lat":41.880731700,"lon":-87.643813900,"altHAE":244.9460,"altMSL":278.7350,"alt":278.7350,"epx":10.187,"epy":8.556,"epv":1.379,"track":190.2817,"magtrack":20.3877,"magvar":-4.1,"speed":0.002,"climb":0.000,"eps":0.01,"epc":2.76,"ecefx":195528.30,"ecefy":-4752014.37,"ecefz":4235913.42,"ecefvx":0.00,"ecefvy":0.00,"ecefvz":0.00,"ecefpAcc":1.78,"ecefvAcc":0.01,"geoidSep":-33.900,"eph":1.117,"sep":19.974}
{"class":"SKY","device":"/dev/ttyACM0","time":"2025-05-17T17:00:02.000Z","xdop":0.45,"ydop":0.54,"vdop":1.26,"tdop":1.03,"hdop":1.20,"gdop":2.02,"pdop":1.74,"nSat":39,"uSat":19,"satellites":[{"PRN":4,"el":6.0,"az":55.0,"ss":0.0,"used":false,"gnssid":0,"svid":4,"health":1},{"PRN":5,"el":6.0,"az":198.0,"ss":46.0,"used":false,"gnssid":0,"svid":5,"health":1},{"PRN":6,"el":64.0,"az":37.0,"ss":10.0,"used":true,"gnssid":0,"svid":6,"health":1},{"PRN":9,"el":10.0,"az":88.0,"ss":0.0,"used":false,"gnssid":0,"svid":9,"health":1},{"PRN":11,"el":73.0,"az":272.0,"ss":40.0,"used":true,"gnssid":0,"svid":11,"health":1},{"PRN":12,"el":52.0,"az":293.0,"ss":38.0,"used":true,"gnssid":0,"svid":12,"health":1},{"PRN":17,"el":21.0,"az":103.0,"ss":11.0,"used":true,"gnssid":0,"svid":17,"health":1},{"PRN":19,"el":45.0,"az":92.0,"ss":10.0,"used":true,"gnssid":0,"svid":19,"health":1},{"PRN":20,"el":40.0,"az":189.0,"ss":46.0,"used":true,"gnssid":0,"svid":20,"health":1},{"PRN":22,"el":14.0,"az":157.0,"ss":36.0,"used":true,"gnssid":0,"svid":22,"health":1},{"PRN":24,"el":4.0,"az":241.0,"ss":40.0,"used":false,"gnssid":0,"svid":24,"health":1},{"PRN":25,"el":22.0,"az":315.0,"ss":26.0,"used":true,"gnssid":0,"svid":25,"health":1},{"PRN":302,"el":52.0,"az":177.0,"ss":41.0,"used":true,"gnssid":2,"svid":2,"health":1},{"PRN":304,"el":3.0,"az":41.0,"ss":0.0,"used":false,"gnssid":2,"svid":4,"health":1},{"PRN":306,"el":5.0,"az":65.0,"ss":0.0,"used":false,"gnssid":2,"svid":6,"health":1},{"PRN":309,"el":5.0,"az":87.0,"ss":0.0,"used":false,"gnssid":2,"svid":9,"health":1},{"PRN":311,"el":5.0,"az":55.0,"ss":0.0,"used":false,"gnssid":2,"svid":11,"health":1},{"PRN":315,"el":17.0,"az":241.0,"ss":42.0,"used":true,"gnssid":2,"svid":15,"health":1},{"PRN":325,"el":5.0,"az":153.0,"ss":26.0,"used":false,"gnssid":2,"svid":25,"health":1},{"PRN":327,"el":13.0,"az":320.0,"ss":22.0,"used":false,"gnssid":2,"svid":27,"health":1},{"PRN":330,"el":58.0,"az":291.0,"ss":41.0,"used":true,"gnssid":2,"svid":30,"health":1},{"PRN":334,"el":67.0,"az":259.0,"ss":44.0,"used":true,"gnssid":2,"svid":34,"health":1},{"PRN":336,"el":53.0,"az":45.0,"ss":9.0,"used":true,"gnssid":2,"svid":36,"health":1},{"PRN":427,"el":52.0,"az":290.0,"ss":40.0,"used":true,"gnssid":3,"svid":27,"health":1},{"PRN":428,"el":69.0,"az":37.0,"ss":0.0,"used":false,"gnssid":3,"svid":28,"health":1},{"PRN":430,"el":4.0,"az":273.0,"ss":41.0,"used":false,"gnssid":3,"svid":30,"health":1},{"PRN":433,"el":34.0,"az":99.0,"ss":0.0,"used":false,"gnssid":3,"svid":33,"health":1},{"PRN":436,"el":7.0,"az":326.0,"ss":0.0,"used":false,"gnssid":3,"svid":36,"health":1},{"PRN":437,"el":29.0,"az":215.0,"ss":44.0,"used":true,"gnssid":3,"svid":37,"health":1},{"PRN":65,"el":6.0,"az":149.0,"ss":32.0,"used":false,"gnssid":6,"svid":1,"health":1},{"PRN":71,"el":22.0,"az":43.0,"ss":16.0,"used":false,"gnssid":6,"svid":7,"health":1},{"PRN":72,"el":28.0,"az":98.0,"ss":0.0,"used":false,"gnssid":6,"svid":8,"health":1},{"PRN":77,"el":33.0,"az":205.0,"ss":35.0,"used":true,"gnssid":6,"svid":13,"health":1}]}
{"class":"PPS","device":"/dev/pps0","real_sec":1747501203,"real_nsec":0,"clock_sec":1747501203,"clock_nsec":4368,"precision":-20}
{"class":"TPV","device":"/dev/ttyACM0","mode":3,"time":"2025-05-17T17:00:03.000Z","leapseconds":18,"ept":0.005,"lat":41.880731700,"lon":-87.643813900,"altHAE":244.9410,"altMSL":278.7300,"alt":278.7300,"epx":6.798,"epy":8.123,"epv":1.377,"track":190.2817,"magtrack":20.3877,"magvar":-4.1,"speed":0.002,"climb":0.000,"eps":0.01,"epc":2.76,"ecefx":195528.30,"ecefy":-4752014.37,"ecefz":4235913.41,"ecefvx":0.00,"ecefvy":0.00,"ecefvz":0.00,"ecefpAcc":1.77,"ecefvAcc":0.01,"geoidSep":-33.900,"eph":1.113,"sep":19.974}
{"class":"SKY","device":"/dev/ttyACM0","time":"2025-05-17T17:00:03.000Z","xdop":0.54,"ydop":0.55,"vdop":1.16,"tdop":0.80,"hdop":0.67,"gdop":1.57,"pdop":1.34,"nSat":39,"uSat":17,"satellites":[{"PRN":4,"el":6.0,"az":55.0,"ss":0.0,"used":false,"gnssid":0,"svid":4,"health":1},{"PRN":5,"el":6.0,"az":198.0,"ss":45.0,"used":false,"gnssid":0,"svid":5,"health":1},{"PRN":6,"el":64.0,"az":37.0,"ss":8.0,"used":false,"gnssid":0,"svid":6,"health":1},{"PRN":9,"el":10.0,"az":88.0,"ss":0.0,"used":false,"gnssid":0,"svid":9,"health":1},{"PRN":11,"el":73.0,"az":272.0,"ss":40.0,"used":true,"gnssid":0,"svid":11,"health":1},{"PRN":12,"el":52.0,"az":293.0,"ss":38.0,"used":true,"gnssid":0,"svid":12,"health":1},{"PRN":17,"el":21.0,"az":103.0,"ss":7.0,"used":false,"gnssid":0,"svid":17,"health":1},{"PRN":19,"el":45.0,"az":92.0,"ss":11.0,"used":true,"gnssid":0,"svid":19,"health":1},{"PRN":20,"el":40.0,"az":189.0,"ss":46.0,"used":true,"gnssid":0,"svid":20,"health":1},{"PRN":22,"el":14.0,"az":157.0,"ss":35.0,"used":true,"gnssid":0,"svid":22,"health":1},{"PRN":24,"el":4.0,"az":241.0,"ss":40.0,"used":false,"gnssid":0,"svid":24,"health":1},{"PRN":25,"el":22.0,"az":315.0,"ss":25.0,"used":true,"gnssid":0,"svid":25,"health":1},{"PRN":302,"el":52.0,"az":177.0,"ss":41.0,"used":true,"gnssid":2,"svid":2,"health":1},{"PRN":304,"el":3.0,"az":41.0,"ss":0.0,"used":false,"gnssid":2,"svid":4,"health":1},{"PRN":306,"el":5.0,"az":65.0,"ss":0.0,"used":false,"gnssid":2,"svid":6,"health":1},{"PRN":309,"el":5.0,"az":87.0,"ss":0.0,"used":false,"gnssid":2,"svid":9,"health":1},{"PRN":311,"el":5.0,"az":55.0,"ss":0.0,"used":false,"gnssid":2,"svid":11,"health":1},{"PRN":315,"el":17.0,"az":241.0,"ss":42.0,"used":true,"gnssid":2,"svid":15,"health":1},{"PRN":325,"el":5.0,"az":153.0,"ss":26.0,"used":false,"gnssid":2,"svid":25,"health":1},{"PRN":327,"el":13.0,"az":320.0,"ss":22.0,"used":false,"gnssid":2,"svid":27,"health":1},{"PRN":330,"el":58.0,"az":289.0,"ss":41.0,"used":true,"gnssid":2,"svid":30,"health":1},{"PRN":334,"el":67.0,"az":259.0,"ss":44.0,"used":true,"gnssid":2,"svid":34,"health":1},{"PRN":336,"el":53.0,"az":45.0,"ss":12.0,"used":true,"gnssid":2,"svid":36,"health":1},{"PRN":427,"el":52.0,"az":290.0,"ss":40.0,"used":true,"gnssid":3,"svid":27,"health":1},{"PRN":428,"el":69.0,"az":37.0,"ss":0.0,"used":false,"gnssid":3,"svid":28,"health":1},{"PRN":430,"el":4.0,"az":273.0,"ss":41.0,"used":false,"gnssid":3,"svid":30,"health":1},{"PRN":433,"el":34.0,"az":99.0,"ss":0.0,"used":false,"gnssid":3,"svid":33,"health":1},{"PRN":436,"el":7.0,"az":326.0,"ss":0.0,"used":false,"gnssid":3,"svid":36,"health":1},{"PRN":437,"el":29.0,"az":215.0,"ss":44.0,"used":true,"gnssid":3,"svid":37,"health":1},{"PRN":65,"el":6.0,"az":149.0,"ss":32.0,"used":false,"gnssid":6,"svid":1,"health":1},{"PRN":71,"el":22.0,"az":43.0,"ss":16.0,"used":false,"gnssid":6,"svid":7,"health":1},{"PRN":72,"el":28.0,"az":98.0,"ss":0.0,"used":false,"gnssid":6,"svid":8,"health":1},{"PRN":77,"el":33.0,"az":205.0,"ss":34.0,"used":true,"gnssid":6,"svid":13,"health":1}]}
{"class":"PPS","device":"/dev/pps0","real_sec":1747501204,"real_nsec":0,"clock_sec":1747501204,"clock_nsec":2157,"precision":-20}
{"class":"TPV","device":"/dev/ttyACM0","mode":3,"time":"2025-05-17T17:00:04.000Z","leapseconds":18,"ept":0.005,"lat":41.880731700,"lon":-87.643813900,"altHAE":244.9350,"altMSL":278.7240,"alt":278.7240,"epx":8.139,"epy":8.271,"epv":1.374,"track":190.2817,"magtrack":20.3877,"magvar":-4.1,"speed":0.002,"climb":0.000,"eps":0.01,"epc":2.75,"ecefx":195528.30,"ecefy":-4752014.37,"ecefz":4235913.41,"ecefvx":0.00,"ecefvy":0.00,"ecefvz":0.00,"ecefpAcc":1.77,"ecefvAcc":0.01,"geoidSep":-33.900,"eph":1.110,"sep":19.974}
{"class":"SKY","device":"/dev/ttyACM0","time":"2025-05-17T17:00:04.000Z","xdop":0.76,"ydop":0.62,"vdop":1.25,"tdop":0.89,"hdop":0.73,"gdop":1.70,"pdop":1.45,"nSat":39,"uSat":15,"satellites":[{"PRN":4,"el":6.0,"az":55.0,"ss":0.0,"used":false,"gnssid":0,"svid":4,"health":1},{"PRN":5,"el":6.0,"az":198.0,"ss":45.0,"used":false,"gnssid":0,"svid":5,"health":1},{"PRN":6,"el":64.0,"az":37.0,"ss":8.0,"used":false,"gnssid":0,"svid":6,"health":1},{"PRN":9,"el":10.0,"az":88.0,"ss":0.0,"used":false,"gnssid":0,"svid":9,"health":1},{"PRN":11,"el":73.0,"az":272.0,"ss":40.0,"used":true,"gnssid":0,"svid":11,"health":1},{"PRN":12,"el":52.0,"az":293.0,"ss":38.0,"used":true,"gnssid":0,"svid":12,"health":1},{"PRN":17,"el":21.0,"az":103.0,"ss":8.0,"used":false,"gnssid":0,"svid":17,"health":1},{"PRN":19,"el":45.0,"az":92.0,"ss":11.0,"used":false,"gnssid":0,"svid":19,"health":1},{"PRN":20,"el":40.0,"az":189.0,"ss":46.0,"used":true,"gnssid":0,"svid":20,"health":1},{"PRN":22,"el":14.0,"az":157.0,"ss":34.0,"used":true,"gnssid":0,"svid":22,"health":1},{"PRN":24,"el":4.0,"az":241.0,"ss":40.0,"used":false,"gnssid":0,"svid":24,"health":1},{"PRN":25,"el":22.0,"az":315.0,"ss":25.0,"used":true,"gnssid":0,"svid":25,"health":1},{"PRN":302,"el":52.0,"az":177.0,"ss":41.0,"used":true,"gnssid":2,"svid":2,"health":1},{"PRN":304,"el":3.0,"az":41.0,"ss":0.0,"used":false,"gnssid":2,"svid":4,"health":1},{"PRN":306,"el":5.0,"az":65.0,"ss":0.0,"used":false,"gnssid":2,"svid":6,"health":1},{"PRN":309,"el":5.0,"az":87.0,"ss":0.0,"used":false,"gnssid":2,"svid":9,"health":1},{"PRN":311,"el":5.0,"az":55.0,"ss":0.0,"used":false,"gnssid":2,"svid":11,"health":1},{"PRN":315,"el":17.0,"az":241.0,"ss":42.0,"used":true,"gnssid":2,"svid":15,"health":1},{"PRN":325,"el":5.0,"az":153.0,"ss":27.0,"used":false,"gnssid":2,"svid":25,"health":1},{"PRN":327,"el":13.0,"az":320.0,"ss":23.0,"used":false,"gnssid":2,"svid":27,"health":1},{"PRN":330,"el":58.0,"az":289.0,"ss":41.0,"used":true,"gnssid":2,"svid":30,"health":1},{"PRN":334,"el":67.0,"az":259.0,"ss":44.0,"used":true,"gnssid":2,"svid":34,"health":1},{"PRN":336,"el":53.0,"az":45.0,"ss":9.0,"used":true,"gnssid":2,"svid":36,"health":1},{"PRN":427,"el":52.0,"az":290.0,"ss":40.0,"used":true,"gnssid":3,"svid":27,"health":1},{"PRN":428,"el":69.0,"az":37.0,"ss":0.0,"used":false,"gnssid":3,"svid":28,"health":1},{"PRN":430,"el":4.0,"az":273.0,"ss":41.0,"used":false,"gnssid":3,"svid":30,"health":1},{"PRN":433,"el":34.0,"az":99.0,"ss":0.0,"used":false,"gnssid":3,"svid":33,"health":1},{"PRN":436,"el":7.0,"az":326.0,"ss":0.0,"used":false,"gnssid":3,"svid":36,"health":1},{"PRN":437,"el":29.0,"az":215.0,"ss":44.0,"used":true,"gnssid":3,"svid":37,"health":1},{"PRN":65,"el":6.0,"az":149.0,"ss":32.0,"used":false,"gnssid":6,"svid":1,"health":1},{"PRN":71,"el":22.0,"az":43.0,"ss":16.0,"used":false,"gnssid":6,"svid":7,"health":1},{"PRN":72,"el":28.0,"az":98.0,"ss":0.0,"used":false,"gnssid":6,"svid":8,"health":1},{"PRN":77,"el":33.0,"az":205.0,"ss":34.0,"used":true,"gnssid":6,"svid":13,"health":1}]}
{"class":"PPS","device":"/dev/pps0","real_sec":1747501205,"real_nsec":0,"clock_sec":1747501205,"clock_nsec":1909,"precision":-20}
{"class":"TPV","device":"/dev/ttyACM0","mode":3,"time":"2025-05-17T17:00:05.000Z","leapseconds":18,"ept":0.005,"lat":41.880731800,"lon":-87.643813900,"altHAE":244.9320,"altMSL":278.7210,"alt":278.7210,"epx":11.451,"epy":9.304,"epv":1.372,"track":190.2817,"magtrack":20.3877,"magvar":-4.1,"speed":0.002,"climb":0.000,"eps":0.01,"epc":2.75,"ecefx":195528.30,"ecefy":-4752014.36,"ecefz":4235913.41,"ecefvx":0.00,"ecefvy":0.00,"ecefvz":0.00,"ecefpAcc":1.77,"ecefvAcc":0.01,"geoidSep":-33.900,"eph":1.106,"sep":19.974}
{"class":"SKY","device":"/dev/ttyACM0","time":"2025-05-17T17:00:05.000Z","xdop":0.47,"ydop":0.57,"vdop":1.26,"tdop":1.03,"hdop":1.20,"gdop":2.02,"pdop":1.74,"nSat":39,"uSat":18,"satellites":[{"PRN":4,"el":6.0,"az":55.0,"ss":0.0,"used":false,"gnssid":0,"svid":4,"health":1},{"PRN":5,"el":6.0,"az":198.0,"ss":46.0,"used":false,"gnssid":0,"svid":5,"health":1},{"PRN":6,"el":64.0,"az":37.0,"ss":9.0,"used":true,"gnssid":0,"svid":6,"health":1},{"PRN":9,"el":10.0,"az":88.0,"ss":0.0,"used":false,"gnssid":0,"svid":9,"health":1},{"PRN":11,"el":73.0,"az":272.0,"ss":40.0,"used":true,"gnssid":0,"svid":11,"health":1},{"PRN":12,"el":52.0,"az":293.0,"ss":38.0,"used":true,"gnssid":0,"svid":12,"health":1},{"PRN":17,"el":21.0,"az":103.0,"ss":12.0,"used":true,"gnssid":0,"svid":17,"health":1},{"PRN":19,"el":45.0,"az":92.0,"ss":11.0,"used":true,"gnssid":0,"svid":19,"health":1},{"PRN":20,"el":40.0,"az":189.0,"ss":46.0,"used":true,"gnssid":0,"svid":20,"health":1},{"PRN":22,"el":14.0,"az":157.0,"ss":35.0,"used":true,"gnssid":0,"svid":22,"health":1},{"PRN":24,"el":4.0,"az":241.0,"ss":41.0,"used":false,"gnssid":0,"svid":24,"health":1},{"PRN":25,"el":22.0,"az":315.0,"ss":25.0,"used":true,"gnssid":0,"svid":25,"health":1},{"PRN":302,"el":52.0,"az":177.0,"ss":41.0,"used":true,"gnssid":2,"svid":2,"health":1},{"PRN":304,"el":3.0,"az":41.0,"ss":0.0,"used":false,"gnssid":2,"svid":4,"health":1},{"PRN":306,"el":5.0,"az":65.0,"ss":0.0,"used":false,"gnssid":2,"svid":6,"health":1},{"PRN":309,"el":5.0,"az":87.0,"ss":0.0,"used":false,"gnssid":2,"svid":9,"health":1},{"PRN":311,"el":5.0,"az":55.0,"ss":0.0,"used":false,"gnssid":2,"svid":11,"health":1},{"PRN":315,"el":17.0,"az":241.0,"ss":42.0,"used":true,"gnssid":2,"svid":15,"health":1},{"PRN":325,"el":5.0,"az":153.0,"ss":26.0,"used":false,"gnssid":2,"svid":25,"health":1},{"PRN":327,"el":13.0,"az":320.0,"ss":22.0,"used":false,"gnssid":2,"svid":27,"health":1},{"PRN":330,"el":58.0,"az":289.0,"ss":41.0,"used":true,"gnssid":2,"svid":30,"health":1},{"PRN":334,"el":67.0,"az":259.0,"ss":44.0,"used":true,"gnssid":2,"svid":34,"health":1},{"PRN":336,"el":53.0,"az":45.0,"ss":9.0,"used":true,"gnssid":2,"svid":36,"health":1},{"PRN":427,"el":52.0,"az":290.0,"ss":40.0,"used":true,"gnssid":3,"svid":27,"health":1},{"PRN":428,"el":69.0,"az":37.0,"ss":0.0,"used":false,"gnssid":3,"svid":28,"health":1},{"PRN":430,"el":4.0,"az":273.0,"ss":42.0,"used":false,"gnssid":3,"svid":30,"health":1},{"PRN":433,"el":34.0,"az":99.0,"ss":0.0,"used":false,"gnssid":3,"svid":33,"health":1},{"PRN":436,"el":7.0,"az":326.0,"ss":0.0,"used":false,"gnssid":3,"svid":36,"health":1},{"PRN":437,"el":29.0,"az":215.0,"ss":44.0,"used":true,"gnssid":3,"svid":37,"health":1},{"PRN":65,"el":6.0,"az":149.0,"ss":31.0,"used":false,"gnssid":6,"svid":1,"health":1},{"PRN":71,"el":22.0,"az":43.0,"ss":0.0,"used":false,"gnssid":6,"svid":7,"health":1},{"PRN":72,"el":28.0,"az":98.0,"ss":0.0,"used":false,"gnssid":6,"svid":8,"health":1},{"PRN":77,"el":33.0,"az":205.0,"ss":34.0,"used":true,"gnssid":6,"svid":13,"health":1}]}
{"class":"PPS","device":"/dev/pps0","real_sec":1747501206,"real_nsec":0,"clock_sec":1747501206,"clock_nsec":6012,"precision":-20}
{"class":"TPV","device":"/dev/ttyACM0","mode":3,"time":"2025-05-17T17:00:06.000Z","leapseconds":18,"ept":0.005,"lat":41.880731800,"lon":-87.643813800,"altHAE":244.9250,"altMSL":278.7140,"alt":278.7140,"epx":7.100,"epy":8.600,"epv":1.370,"track":190.2817,"magtrack":20.3877,"magvar":-4.1,"speed":0.002,"climb":0.000,"eps":0.01,"epc":2.74,"ecefx":195528.30,"ecefy":-4752014.36,"ecefz":4235913.41,"ecefvx":0.00,"ecefvy":0.00,"ecefvz":0.00,"ecefpAcc":1.76,"ecefvAcc":0.01,"geoidSep":-33.900,"eph":1.103,"sep":19.974}
{"class":"SKY","device":"/dev/ttyACM0","time":"2025-05-17T17:00:06.000Z","xdop":0.53,"ydop":0.55,"vdop":1.16,"tdop":0.82,"hdop":0.71,"gdop":1.59,"pdop":1.37,"nSat":39,"uSat":18,"satellites":[{"PRN":4,"el":6.0,"az":55.0,"ss":0.0,"used":false,"gnssid":0,"svid":4,"health":1},{"PRN":5,"el":6.0,"az":198.0,"ss":48.0,"used":false,"gnssid":0,"svid":5,"health":1},{"PRN":6,"el":64.0,"az":37.0,"ss":9.0,"used":true,"gnssid":0,"svid":6,"health":1},{"PRN":9,"el":10.0,"az":88.0,"ss":0.0,"used":false,"gnssid":0,"svid":9,"health":1},{"PRN":11,"el":73.0,"az":272.0,"ss":41.0,"used":true,"gnssid":0,"svid":11,"health":1},{"PRN":12,"el":52.0,"az":293.0,"ss":38.0,"used":true,"gnssid":0,"svid":12,"health":1},{"PRN":17,"el":21.0,"az":103.0,"ss":8.0,"used":false,"gnssid":0,"svid":17,"health":1},{"PRN":19,"el":45.0,"az":92.0,"ss":11.0,"used":true,"gnssid":0,"svid":19,"health":1},{"PRN":20,"el":40.0,"az":189.0,"ss":45.0,"used":true,"gnssid":0,"svid":20,"health":1},{"PRN":22,"el":14.0,"az":157.0,"ss":34.0,"used":true,"gnssid":0,"svid":22,"health":1},{"PRN":24,"el":4.0,"az":241.0,"ss":41.0,"used":false,"gnssid":0,"svid":24,"health":1},{"PRN":25,"el":22.0,"az":315.0,"ss":25.0,"used":true,"gnssid":0,"svid":25,"health":1},{"PRN":302,"el":52.0,"az":177.0,"ss":41.0,"used":true,"gnssid":2,"svid":2,"health":1},{"PRN":304,"el":3.0,"az":41.0,"ss":0.0,"used":false,"gnssid":2,"svid":4,"health":1},{"PRN":306,"el":5.0,"az":65.0,"ss":0.0,"used":false,"gnssid":2,"svid":6,"health":1},{"PRN":309,"el":5.0,"az":87.0,"ss":0.0,"used":false,"gnssid":2,"svid":9,"health":1},{"PRN":311,"el":5.0,"az":55.0,"ss":0.0,"used":false,"gnssid":2,"svid":11,"health":1},{"PRN":315,"el":17.0,"az":241.0,"ss":42.0,"used":true,"gnssid":2,"svid":15,"health":1},{"PRN":325,"el":5.0,"az":153.0,"ss":25.0,"used":false,"gnssid":2,"svid":25,"health":1},{"PRN":327,"el":13.0,"az":320.0,"ss":22.0,"used":false,"gnssid":2,"svid":27,"health":1},{"PRN":330,"el":58.0,"az":289.0,"ss":41.0,"used":true,"gnssid":2,"svid":30,"health":1},{"PRN":334,"el":68.0,"az":261.0,"ss":44.0,"used":true,"gnssid":2,"svid":34,"health":1},{"PRN":336,"el":53.0,"az":45.0,"ss":11.0,"used":true,"gnssid":2,"svid":36,"health":1},{"PRN":427,"el":52.0,"az":290.0,"ss":40.0,"used":true,"gnssid":3,"svid":27,"health":1},{"PRN":428,"el":69.0,"az":37.0,"ss":0.0,"used":false,"gnssid":3,"svid":28,"health":1},{"PRN":430,"el":4.0,"az":273.0,"ss":42.0,"used":false,"gnssid":3,"svid":30,"health":1},{"PRN":433,"el":34.0,"az":99.0,"ss":0.0,"used":false,"gnssid":3,"svid":33,"health":1},{"PRN":436,"el":7.0,"az":326.0,"ss":0.0,"used":false,"gnssid":3,"svid":36,"health":1},{"PRN":437,"el":29.0,"az":215.0,"ss":44.0,"used":true,"gnssid":3,"svid":37,"health":1},{"PRN":65,"el":6.0,"az":149.0,"ss":32.0,"used":false,"gnssid":6,"svid":1,"health":1},{"PRN":71,"el":22.0,"az":43.0,"ss":20.0,"used":false,"gnssid":6,"svid":7,"health":1},{"PRN":72,"el":28.0,"az":98.0,"ss":0.0,"used":false,"gnssid":6,"svid":8,"health":1},{"PRN":77,"el":33.0,"az":205.0,"ss":33.0,"used":true,"gnssid":6,"svid":13,"health":1}]}
{"class":"PPS","device":"/dev/pps0","real_sec":1747501207,"real_nsec":0,"clock_sec":1747501206,"clock_nsec":999999975,"precision":-20}
{"class":"TPV","device":"/dev/ttyACM0","mode":3,"time":"2025-05-17T17:00:07.000Z","leapseconds":18,"ept":0.005,"lat":41.880731800,"lon":-87.643813800,"altHAE":244.9170,"altMSL":278.7060,"alt":278.7060,"epx":7.901,"epy":8.206,"epv":1.368,"track":190.2817,"magtrack":20.3877,"magvar":-4.1,"speed":0.002,"climb":0.000,"eps":0.01,"epc":2.74,"ecefx":195528.30,"ecefy":-4752014.35,"ecefz":4235913.41,"ecefvx":0.00,"ecefvy":0.00,"ecefvz":0.00,"ecefpAcc":1.76,"ecefvAcc":0.01,"geoidSep":-33.900,"eph":1.100,"sep":19.974}
