{"class":"VERSION","release":"3.22","rev":"3.22","proto_major":3,"proto_minor":14}
{"class":"DEVICES","devices":[{"class":"DEVICE","path":"/dev/ttyACM0","driver":"u-blox","subtype":"SW EXT CORE 1.00 (3fda8e),HW 00190000","subtype1":"ROM BASE 0x118B2060,FWVER=TIM 2.20,PROTVER=29.20,MOD=ZED-F9T,GPS;GLO;GAL;BDS,SBAS;QZSS,NAVIC","activated":"2025-05-15T17:00:01.093Z","flags":1,"native":1,"bps":9600,"parity":"N","stopbits":1,"cycle":1.00,"mincycle":0.02},{"class":"DEVICE","path":"/dev/pps0","driver":"PPS","activated":"2025-05-15T17:00:01.000Z"}]}
{"class":"WATCH","enable":true,"json":true,"nmea":false,"raw":0,"scaled":false,"timing":false,"split24":false,"pps":false}
{"class":"PPS","device":"/dev/pps0","real_sec":1747328402,"real_nsec":0,"clock_sec":1747328401,"clock_nsec":999999934,"precision":-20}
{"class":"TPV","device":"/dev/ttyACM0","mode":3,"time":"2025-05-15T17:00:02.000Z","leapseconds":18,"ept":0.005,"lat":41.880692200,"lon":-87.643875900,"altHAE":258.1320,"altMSL":291.9210,"alt":291.9210,"epx":9.442,"epy":6.579,"epv":1.562,"track":204.5607,"magtrack":20.3877,"magvar":-4.1,"speed":0.003,"climb":0.000,"eps":0.02,"epc":3.12,"ecefx":195523.68,"ecefy":-4752027.33,"ecefz":4235918.95,"ecefvx":0.00,"ecefvy":0.00,"ecefvz":0.00,"ecefpAcc":1.98,"ecefvAcc":0.02,"geoidSep":-33.900,"eph":1.213,"sep":19.974}
{"class":"SKY","device":"/dev/ttyACM0","time":"2025-05-15T17:00:02.000Z","xdop":0.57,"ydop":0.44,"vdop":1.21,"tdop":0.80,"hdop":1.06,"gdop":1.80,"pdop":1.61,"nSat":42,"uSat":20,"satellites":[{"PRN":4,"el":5.0,"az":59.0,"ss":0.0,"used":false,"gnssid":0,"svid":4,"health":1},{"PRN":5,"el":2.0,"az":198.0,"ss":42.0,"used":false,"gnssid":0,"svid":5,"health":1},{"PRN":6,"el":68.0,"az":34.0,"ss":7.0,"used":false,"gnssid":0,"svid":6,"health":1},{"PRN":9,"el":8.0,"az":91.0,"ss":0.0,"used":false,"gnssid":0,"svid":9,"health":1},{"PRN":11,"el":70.0,"az":262.0,"ss":40.0,"used":true,"gnssid":0,"svid":11,"health":1},{"PRN":12,"el":50.0,"az":298.0,"ss":33.0,"used":true,"gnssid":0,"svid":12,"health":1},{"PRN":17,"el":23.0,"az":100.0,"ss":21.0,"used":false,"gnssid":0,"svid":17,"health":1},{"PRN":19,"el":48.0,"az":87.0,"ss":9.0,"used":true,"gnssid":0,"svid":19,"health":1},{"PRN":20,"el":36.0,"az":189.0,"ss":44.0,"used":true,"gnssid":0,"svid":20,"health":1},{"PRN":22,"el":18.0,"az":157.0,"ss":39.0,"used":true,"gnssid":0,"svid":22,"health":1},{"PRN":24,"el":7.0,"az":244.0,"ss":39.0,"used":false,"gnssid":0,"svid":24,"health":1},{"PRN":25,"el":18.0,"az":317.0,"ss":23.0,"used":true,"gnssid":0,"svid":25,"health":1},{"PRN":307,"el":3.0,"az":52.0,"ss":14.0,"used":false,"gnssid":2,"svid":7,"health":1},{"PRN":310,"el":29.0,"az":241.0,"ss":35.0,"used":true,"gnssid":2,"svid":10,"health":1},{"PRN":311,"el":4.0,"az":238.0,"ss":33.0,"used":false,"gnssid":2,"svid":11,"health":1},{"PRN":312,"el":54.0,"az":247.0,"ss":40.0,"used":true,"gnssid":2,"svid":12,"health":1},{"PRN":316,"el":23.0,"az":316.0,"ss":27.0,"used":true,"gnssid":2,"svid":16,"health":1},{"PRN":323,"el":18.0,"az":156.0,"ss":38.0,"used":true,"gnssid":2,"svid":23,"health":1},{"PRN":324,"el":48.0,"az":303.0,"ss":27.0,"used":true,"gnssid":2,"svid":24,"health":1},{"PRN":325,"el":2.0,"az":323.0,"ss":16.0,"used":false,"gnssid":2,"svid":25,"health":1},{"PRN":326,"el":16.0,"az":53.0,"ss":0.0,"used":false,"gnssid":2,"svid":26,"health":1},{"PRN":329,"el":2.0,"az":100.0,"ss":0.0,"used":false,"gnssid":2,"svid":29,"health":1},{"PRN":331,"el":64.0,"az":192.0,"ss":31.0,"used":true,"gnssid":2,"svid":31,"health":1},{"PRN":333,"el":65.0,"az":38.0,"ss":7.0,"used":false,"gnssid":2,"svid":33,"health":1},{"PRN":420,"el":20.0,"az":145.0,"ss":36.0,"used":true,"gnssid":3,"svid":20,"health":1},{"PRN":426,"el":14.0,"az":318.0,"ss":0.0,"used":false,"gnssid":3,"svid":26,"health":1},{"PRN":427,"el":3.0,"az":82.0,"ss":0.0,"used":false,"gnssid":3,"svid":27,"health":1},{"PRN":429,"el":63.0,"az":304.0,"ss":33.0,"used":true,"gnssid":3,"svid":29,"health":1},{"PRN":430,"el":50.0,"az":66.0,"ss":0.0,"used":false,"gnssid":3,"svid":30,"health":1},{"PRN":432,"el":31.0,"az":85.0,"ss":20.0,"used":false,"gnssid":3,"svid":32,"health":1},{"PRN":435,"el":8.0,"az":272.0,"ss":42.0,"used":false,"gnssid":3,"svid":35,"health":1},{"PRN":436,"el":26.0,"az":205.0,"ss":40.0,"used":true,"gnssid":3,"svid":36,"health":1},{"PRN":69,"el":20.0,"az":42.0,"ss":0.0,"used":false,"gnssid":6,"svid":5,"health":1},{"PRN":70,"el":24.0,"az":111.0,"ss":20.0,"used":false,"gnssid":6,"svid":6,"health":1},{"PRN":71,"el":2.0,"az":149.0,"ss":28.0,"used":false,"gnssid":6,"svid":7,"health":1},{"PRN":75,"el":38.0,"az":206.0,"ss":46.0,"used":true,"gnssid":6,"svid":11,"health":1},{"PRN":76,"el":48.0,"az":296.0,"ss":41.0,"used":true,"gnssid":6,"svid":12,"health":1},{"PRN":77,"el":13.0,"az":333.0,"ss":21.0,"used":true,"gnssid":6,"svid":13,"health":1}]}
{"class":"PPS","device":"/dev/pps0","real_sec":1747328403,"real_nsec":0,"clock_sec":1747328403,"clock_nsec":410,"precision":-20}
{"class":"TPV","device":"/dev/ttyACM0","mode":3,"time":"2025-05-15T17:00:03.000Z","leapseconds":18,"ept":0.005,"lat":41.880692200,"lon":-87.643875900,"altHAE":258.1300,"altMSL":291.9190,"alt":291.9190,"epx":8.542,"epy":6.543,"epv":1.564,"track":204.5607,"magtrack":20.3877,"magvar":-4.1,"speed":0.003,"climb":0.000,"eps":0.02,"epc":3.13,"ecefx":195523.68,"ecefy":-4752027.32,"ecefz":4235918.95,"ecefvx":0.00,"ecefvy":0.00,"ecefvz":0.00,"ecefpAcc":1.98,"ecefvAcc":0.02,"geoidSep":-33.900,"eph":1.214,"sep":19.974}
{"class":"SKY","device":"/dev/ttyACM0","time":"2025-05-15T17:00:03.000Z","xdop":0.58,"ydop":0.45,"vdop":1.16,"tdop":0.79,"hdop":0.73,"gdop":1.58,"pdop":1.37,"nSat":42,"uSat":20,"satellites":[{"PRN":4,"el":5.0,"az":59.0,"ss":0.0,"used":false,"gnssid":0,"svid":4,"health":1},{"PRN":5,"el":2.0,"az":198.0,"ss":42.0,"used":false,"gnssid":0,"svid":5,"health":1},{"PRN":6,"el":68.0,"az":34.0,"ss":8.0,"used":false,"gnssid":0,"svid":6,"health":1},{"PRN":9,"el":8.0,"az":91.0,"ss":0.0,"used":false,"gnssid":0,"svid":9,"health":1},{"PRN":11,"el":70.0,"az":262.0,"ss":40.0,"used":true,"gnssid":0,"svid":11,"health":1},{"PRN":12,"el":50.0,"az":298.0,"ss":33.0,"used":true,"gnssid":0,"svid":12,"health":1},{"PRN":17,"el":23.0,"az":100.0,"ss":22.0,"used":false,"gnssid":0,"svid":17,"health":1},{"PRN":19,"el":48.0,"az":87.0,"ss":9.0,"used":true,"gnssid":0,"svid":19,"health":1},{"PRN":20,"el":36.0,"az":189.0,"ss":44.0,"used":true,"gnssid":0,"svid":20,"health":1},{"PRN":22,"el":18.0,"az":157.0,"ss":39.0,"used":true,"gnssid":0,"svid":22,"health":1},{"PRN":24,"el":7.0,"az":244.0,"ss":40.0,"used":false,"gnssid":0,"svid":24,"health":1},{"PRN":25,"el":18.0,"az":317.0,"ss":23.0,"used":true,"gnssid":0,"svid":25,"health":1},{"PRN":307,"el":3.0,"az":52.0,"ss":14.0,"used":false,"gnssid":2,"svid":7,"health":1},{"PRN":310,"el":29.0,"az":241.0,"ss":35.0,"used":true,"gnssid":2,"svid":10,"health":1},{"PRN":311,"el":4.0,"az":238.0,"ss":32.0,"used":false,"gnssid":2,"svid":11,"health":1},{"PRN":312,"el":54.0,"az":247.0,"ss":40.0,"used":true,"gnssid":2,"svid":12,"health":1},{"PRN":316,"el":23.0,"az":316.0,"ss":28.0,"used":true,"gnssid":2,"svid":16,"health":1},{"PRN":323,"el":18.0,"az":156.0,"ss":38.0,"used":true,"gnssid":2,"svid":23,"health":1},{"PRN":324,"el":48.0,"az":303.0,"ss":27.0,"used":true,"gnssid":2,"svid":24,"health":1},{"PRN":325,"el":2.0,"az":323.0,"ss":16.0,"used":false,"gnssid":2,"svid":25,"health":1},{"PRN":326,"el":16.0,"az":53.0,"ss":0.0,"used":false,"gnssid":2,"svid":26,"health":1},{"PRN":329,"el":2.0,"az":100.0,"ss":0.0,"used":false,"gnssid":2,"svid":29,"health":1},{"PRN":331,"el":64.0,"az":192.0,"ss":31.0,"used":true,"gnssid":2,"svid":31,"health":1},{"PRN":333,"el":65.0,"az":38.0,"ss":9.0,"used":true,"gnssid":2,"svid":33,"health":1},{"PRN":420,"el":20.0,"az":145.0,"ss":36.0,"used":true,"gnssid":3,"svid":20,"health":1},{"PRN":426,"el":14.0,"az":318.0,"ss":0.0,"used":false,"gnssid":3,"svid":26,"health":1},{"PRN":427,"el":3.0,"az":82.0,"ss":0.0,"used":false,"gnssid":3,"svid":27,"health":1},{"PRN":429,"el":63.0,"az":304.0,"ss":32.0,"used":true,"gnssid":3,"svid":29,"health":1},{"PRN":430,"el":50.0,"az":66.0,"ss":0.0,"used":false,"gnssid":3,"svid":30,"health":1},{"PRN":432,"el":32.0,"az":84.0,"ss":22.0,"used":false,"gnssid":3,"svid":32,"health":1},{"PRN":435,"el":8.0,"az":272.0,"ss":41.0,"used":false,"gnssid":3,"svid":35,"health":1},{"PRN":436,"el":26.0,"az":205.0,"ss":39.0,"used":true,"gnssid":3,"svid":36,"health":1},{"PRN":69,"el":20.0,"az":42.0,"ss":0.0,"used":false,"gnssid":6,"svid":5,"health":1},{"PRN":70,"el":24.0,"az":111.0,"ss":19.0,"used":false,"gnssid":6,"svid":6,"health":1},{"PRN":71,"el":2.0,"az":149.0,"ss":0.0,"used":false,"gnssid":6,"svid":7,"health":1},{"PRN":75,"el":38.0,"az":206.0,"ss":46.0,"used":true,"gnssid":6,"svid":11,"health":1},{"PRN":76,"el":48.0,"az":296.0,"ss":41.0,"used":true,"gnssid":6,"svid":12,"health":1},{"PRN":77,"el":13.0,"az":333.0,"ss":21.0,"used":true,"gnssid":6,"svid":13,"health":1}]}
{"class":"PPS","device":"/dev/pps0","real_sec":1747328404,"real_nsec":0,"clock_sec":1747328404,"clock_nsec":775,"precision":-20}
{"class":"TPV","device":"/dev/ttyACM0","mode":3,"time":"2025-05-15T17:00:04.000Z","leapseconds":18,"ept":0.005,"lat":41.880692300,"lon":-87.643875900,"altHAE":258.1270,"altMSL":291.9160,"alt":291.9160,"epx":8.727,"epy":6.803,"epv":1.566,"track":204.5607,"magtrack":20.3877,"magvar":-4.1,"speed":0.003,"climb":0.000,"eps":0.02,"epc":3.13,"ecefx":195523.68,"ecefy":-4752027.32,"ecefz":4235918.95,"ecefvx":0.00,"ecefvy":0.00,"ecefvz":0.00,"ecefpAcc":1.98,"ecefvAcc":0.02,"geoidSep":-33.900,"eph":1.215,"sep":19.974}
{"class":"SKY","device":"/dev/ttyACM0","time":"2025-05-15T17:00:04.000Z","xdop":0.73,"ydop":0.49,"vdop":1.13,"tdop":0.79,"hdop":0.76,"gdop":1.57,"pdop":1.36,"nSat":42,"uSat":19,"satellites":[{"PRN":4,"el":5.0,"az":59.0,"ss":0.0,"used":false,"gnssid":0,"svid":4,"health":1},{"PRN":5,"el":2.0,"az":198.0,"ss":41.0,"used":false,"gnssid":0,"svid":5,"health":1},{"PRN":6,"el":68.0,"az":34.0,"ss":12.0,"used":true,"gnssid":0,"svid":6,"health":1},{"PRN":9,"el":8.0,"az":91.0,"ss":0.0,"used":false,"gnssid":0,"svid":9,"health":1},{"PRN":11,"el":70.0,"az":262.0,"ss":40.0,"used":true,"gnssid":0,"svid":11,"health":1},{"PRN":12,"el":50.0,"az":298.0,"ss":33.0,"used":true,"gnssid":0,"svid":12,"health":1},{"PRN":17,"el":23.0,"az":100.0,"ss":22.0,"used":false,"gnssid":0,"svid":17,"health":1},{"PRN":19,"el":48.0,"az":87.0,"ss":9.0,"used":false,"gnssid":0,"svid":19,"health":1},{"PRN":20,"el":36.0,"az":189.0,"ss":44.0,"used":true,"gnssid":0,"svid":20,"health":1},{"PRN":22,"el":18.0,"az":157.0,"ss":39.0,"used":true,"gnssid":0,"svid":22,"health":1},{"PRN":24,"el":7.0,"az":244.0,"ss":39.0,"used":false,"gnssid":0,"svid":24,"health":1},{"PRN":25,"el":18.0,"az":317.0,"ss":23.0,"used":true,"gnssid":0,"svid":25,"health":1},{"PRN":307,"el":3.0,"az":52.0,"ss":14.0,"used":false,"gnssid":2,"svid":7,"health":1},{"PRN":310,"el":29.0,"az":241.0,"ss":35.0,"used":true,"gnssid":2,"svid":10,"health":1},{"PRN":311,"el":4.0,"az":238.0,"ss":33.0,"used":false,"gnssid":2,"svid":11,"health":1},{"PRN":312,"el":54.0,"az":247.0,"ss":40.0,"used":true,"gnssid":2,"svid":12,"health":1},{"PRN":316,"el":23.0,"az":316.0,"ss":28.0,"used":true,"gnssid":2,"svid":16,"health":1},{"PRN":323,"el":18.0,"az":156.0,"ss":38.0,"used":true,"gnssid":2,"svid":23,"health":1},{"PRN":324,"el":48.0,"az":303.0,"ss":27.0,"used":true,"gnssid":2,"svid":24,"health":1},{"PRN":325,"el":2.0,"az":323.0,"ss":16.0,"used":false,"gnssid":2,"svid":25,"health":1},{"PRN":326,"el":16.0,"az":53.0,"ss":0.0,"used":false,"gnssid":2,"svid":26,"health":1},{"PRN":329,"el":2.0,"az":100.0,"ss":0.0,"used":false,"gnssid":2,"svid":29,"health":1},{"PRN":331,"el":64.0,"az":192.0,"ss":31.0,"used":true,"gnssid":2,"svid":31,"health":1},{"PRN":333,"el":65.0,"az":38.0,"ss":8.0,"used":false,"gnssid":2,"svid":33,"health":1},{"PRN":420,"el":20.0,"az":145.0,"ss":36.0,"used":true,"gnssid":3,"svid":20,"health":1},{"PRN":426,"el":14.0,"az":318.0,"ss":0.0,"used":false,"gnssid":3,"svid":26,"health":1},{"PRN":427,"el":3.0,"az":82.0,"ss":0.0,"used":false,"gnssid":3,"svid":27,"health":1},{"PRN":429,"el":63.0,"az":304.0,"ss":32.0,"used":true,"gnssid":3,"svid":29,"health":1},{"PRN":430,"el":50.0,"az":66.0,"ss":0.0,"used":false,"gnssid":3,"svid":30,"health":1},{"PRN":432,"el":32.0,"az":84.0,"ss":22.0,"used":false,"gnssid":3,"svid":32,"health":1},{"PRN":435,"el":8.0,"az":272.0,"ss":41.0,"used":false,"gnssid":3,"svid":35,"health":1},{"PRN":436,"el":26.0,"az":205.0,"ss":40.0,"used":true,"gnssid":3,"svid":36,"health":1},{"PRN":69,"el":20.0,"az":42.0,"ss":0.0,"used":false,"gnssid":6,"svid":5,"health":1},{"PRN":70,"el":24.0,"az":111.0,"ss":18.0,"used":false,"gnssid":6,"svid":6,"health":1},{"PRN":71,"el":2.0,"az":149.0,"ss":0.0,"used":false,"gnssid":6,"svid":7,"health":1},{"PRN":75,"el":38.0,"az":206.0,"ss":46.0,"used":true,"gnssid":6,"svid":11,"health":1},{"PRN":76,"el":48.0,"az":296.0,"ss":40.0,"used":true,"gnssid":6,"svid":12,"health":1},{"PRN":77,"el":13.0,"az":333.0,"ss":21.0,"used":true,"gnssid":6,"svid":13,"health":1}]}
{"class":"PPS","device":"/dev/pps0","real_sec":1747328405,"real_nsec":0,"clock_sec":1747328404,"clock_nsec":999999662,"precision":-20}
{"class":"TPV","device":"/dev/ttyACM0","mode":3,"time":"2025-05-15T17:00:05.000Z","leapseconds":18,"ept":0.005,"lat":41.880692300,"lon":-87.643875900,"altHAE":258.1260,"altMSL":291.9150,"alt":291.9150,"epx":10.989,"epy":7.359,"epv":1.568,"track":204.5607,"magtrack":20.3877,"magvar":-4.1,"speed":0.003,"climb":0.000,"eps":0.02,"epc":3.13,"ecefx":195523.68,"ecefy":-4752027.31,"ecefz":4235918.95,"ecefvx":0.00,"ecefvy":0.00,"ecefvz":0.00,"ecefpAcc":1.98,"ecefvAcc":0.02,"geoidSep":-33.900,"eph":1.215,"sep":19.974}
{"class":"SKY","device":"/dev/ttyACM0","time":"2025-05-15T17:00:05.000Z","xdop":0.59,"ydop":0.46,"vdop":1.21,"tdop":0.80,"hdop":1.06,"gdop":1.80,"pdop":1.61,"nSat":42,"uSat":20,"satellites":[{"PRN":4,"el":5.0,"az":59.0,"ss":0.0,"used":false,"gnssid":0,"svid":4,"health":1},{"PRN":5,"el":2.0,"az":198.0,"ss":40.0,"used":false,"gnssid":0,"svid":5,"health":1},{"PRN":6,"el":68.0,"az":34.0,"ss":10.0,"used":true,"gnssid":0,"svid":6,"health":1},{"PRN":9,"el":8.0,"az":91.0,"ss":0.0,"used":false,"gnssid":0,"svid":9,"health":1},{"PRN":11,"el":70.0,"az":262.0,"ss":40.0,"used":true,"gnssid":0,"svid":11,"health":1},{"PRN":12,"el":50.0,"az":298.0,"ss":33.0,"used":true,"gnssid":0,"svid":12,"health":1},{"PRN":17,"el":23.0,"az":100.0,"ss":22.0,"used":false,"gnssid":0,"svid":17,"health":1},{"PRN":19,"el":48.0,"az":87.0,"ss":9.0,"used":true,"gnssid":0,"svid":19,"health":1},{"PRN":20,"el":36.0,"az":189.0,"ss":44.0,"used":true,"gnssid":0,"svid":20,"health":1},{"PRN":22,"el":18.0,"az":157.0,"ss":39.0,"used":true,"gnssid":0,"svid":22,"health":1},{"PRN":24,"el":7.0,"az":244.0,"ss":39.0,"used":false,"gnssid":0,"svid":24,"health":1},{"PRN":25,"el":18.0,"az":317.0,"ss":23.0,"used":true,"gnssid":0,"svid":25,"health":1},{"PRN":307,"el":3.0,"az":52.0,"ss":14.0,"used":false,"gnssid":2,"svid":7,"health":1},{"PRN":310,"el":29.0,"az":241.0,"ss":34.0,"used":true,"gnssid":2,"svid":10,"health":1},{"PRN":311,"el":4.0,"az":238.0,"ss":33.0,"used":false,"gnssid":2,"svid":11,"health":1},{"PRN":312,"el":54.0,"az":247.0,"ss":40.0,"used":true,"gnssid":2,"svid":12,"health":1},{"PRN":316,"el":23.0,"az":316.0,"ss":27.0,"used":true,"gnssid":2,"svid":16,"health":1},{"PRN":323,"el":18.0,"az":156.0,"ss":38.0,"used":true,"gnssid":2,"svid":23,"health":1},{"PRN":324,"el":48.0,"az":303.0,"ss":27.0,"used":true,"gnssid":2,"svid":24,"health":1},{"PRN":325,"el":2.0,"az":323.0,"ss":17.0,"used":false,"gnssid":2,"svid":25,"health":1},{"PRN":326,"el":16.0,"az":53.0,"ss":0.0,"used":false,"gnssid":2,"svid":26,"health":1},{"PRN":329,"el":2.0,"az":100.0,"ss":0.0,"used":false,"gnssid":2,"svid":29,"health":1},{"PRN":331,"el":64.0,"az":192.0,"ss":30.0,"used":true,"gnssid":2,"svid":31,"health":1},{"PRN":333,"el":65.0,"az":38.0,"ss":6.0,"used":false,"gnssid":2,"svid":33,"health":1},{"PRN":420,"el":20.0,"az":145.0,"ss":36.0,"used":true,"gnssid":3,"svid":20,"health":1},{"PRN":426,"el":14.0,"az":318.0,"ss":0.0,"used":false,"gnssid":3,"svid":26,"health":1},{"PRN":427,"el":3.0,"az":82.0,"ss":0.0,"used":false,"gnssid":3,"svid":27,"health":1},{"PRN":429,"el":63.0,"az":304.0,"ss":32.0,"used":true,"gnssid":3,"svid":29,"health":1},{"PRN":430,"el":50.0,"az":66.0,"ss":0.0,"used":false,"gnssid":3,"svid":30,"health":1},{"PRN":432,"el":32.0,"az":84.0,"ss":23.0,"used":false,"gnssid":3,"svid":32,"health":1},{"PRN":435,"el":8.0,"az":272.0,"ss":41.0,"used":false,"gnssid":3,"svid":35,"health":1},{"PRN":436,"el":26.0,"az":205.0,"ss":40.0,"used":true,"gnssid":3,"svid":36,"health":1},{"PRN":69,"el":20.0,"az":42.0,"ss":0.0,"used":false,"gnssid":6,"svid":5,"health":1},{"PRN":70,"el":24.0,"az":111.0,"ss":18.0,"used":false,"gnssid":6,"svid":6,"health":1},{"PRN":71,"el":2.0,"az":149.0,"ss":0.0,"used":false,"gnssid":6,"svid":7,"health":1},{"PRN":75,"el":38.0,"az":206.0,"ss":46.0,"used":true,"gnssid":6,"svid":11,"health":1},{"PRN":76,"el":48.0,"az":296.0,"ss":40.0,"used":true,"gnssid":6,"svid":12,"health":1},{"PRN":77,"el":13.0,"az":333.0,"ss":21.0,"used":true,"gnssid":6,"svid":13,"health":1}]}
{"class":"PPS","device":"/dev/pps0","real_sec":1747328406,"real_nsec":0,"clock_sec":1747328405,"clock_nsec":999999280,"precision":-20}
{"class":"TPV","device":"/dev/ttyACM0","mode":3,"time":"2025-05-15T17:00:06.000Z","leapseconds":18,"ept":0.005,"lat":41.880692300,"lon":-87.643875900,"altHAE":258.1260,"altMSL":291.9150,"alt":291.9150,"epx":8.841,"epy":6.856,"epv":1.570,"track":204.5607,"magtrack":20.3877,"magvar":-4.1,"speed":0.003,"climb":0.000,"eps":0.02,"epc":3.14,"ecefx":195523.67,"ecefy":-4752027.31,"ecefz":4235918.96,"ecefvx":0.00,"ecefvy":0.00,"ecefvz":0.00,"ecefpAcc":1.98,"ecefvAcc":0.02,"geoidSep":-33.900,"eph":1.216,"sep":19.974}
{"class":"SKY","device":"/dev/ttyACM0","time":"2025-05-15T17:00:06.000Z","xdop":0.54,"ydop":0.43,"vdop":1.12,"tdop":0.79,"hdop":0.77,"gdop":1.57,"pdop":1.36,"nSat":42,"uSat":21,"satellites":[{"PRN":4,"el":5.0,"az":59.0,"ss":0.0,"used":false,"gnssid":0,"svid":4,"health":1},{"PRN":5,"el":2.0,"az":198.0,"ss":39.0,"used":false,"gnssid":0,"svid":5,"health":1},{"PRN":6,"el":68.0,"az":34.0,"ss":10.0,"used":true,"gnssid":0,"svid":6,"health":1},{"PRN":9,"el":8.0,"az":91.0,"ss":0.0,"used":false,"gnssid":0,"svid":9,"health":1},{"PRN":11,"el":70.0,"az":262.0,"ss":40.0,"used":true,"gnssid":0,"svid":11,"health":1},{"PRN":12,"el":50.0,"az":298.0,"ss":33.0,"used":true,"gnssid":0,"svid":12,"health":1},{"PRN":17,"el":23.0,"az":100.0,"ss":21.0,"used":false,"gnssid":0,"svid":17,"health":1},{"PRN":19,"el":48.0,"az":87.0,"ss":10.0,"used":true,"gnssid":0,"svid":19,"health":1},{"PRN":20,"el":36.0,"az":189.0,"ss":44.0,"used":true,"gnssid":0,"svid":20,"health":1},{"PRN":22,"el":18.0,"az":157.0,"ss":39.0,"used":true,"gnssid":0,"svid":22,"health":1},{"PRN":24,"el":7.0,"az":244.0,"ss":38.0,"used":false,"gnssid":0,"svid":24,"health":1},{"PRN":25,"el":18.0,"az":317.0,"ss":23.0,"used":true,"gnssid":0,"svid":25,"health":1},{"PRN":307,"el":3.0,"az":52.0,"ss":14.0,"used":false,"gnssid":2,"svid":7,"health":1},{"PRN":310,"el":29.0,"az":241.0,"ss":34.0,"used":true,"gnssid":2,"svid":10,"health":1},{"PRN":311,"el":4.0,"az":238.0,"ss":33.0,"used":false,"gnssid":2,"svid":11,"health":1},{"PRN":312,"el":54.0,"az":247.0,"ss":40.0,"used":true,"gnssid":2,"svid":12,"health":1},{"PRN":316,"el":23.0,"az":316.0,"ss":27.0,"used":true,"gnssid":2,"svid":16,"health":1},{"PRN":323,"el":18.0,"az":156.0,"ss":38.0,"used":true,"gnssid":2,"svid":23,"health":1},{"PRN":324,"el":48.0,"az":303.0,"ss":26.0,"used":true,"gnssid":2,"svid":24,"health":1},{"PRN":325,"el":2.0,"az":323.0,"ss":18.0,"used":false,"gnssid":2,"svid":25,"health":1},{"PRN":326,"el":16.0,"az":53.0,"ss":0.0,"used":false,"gnssid":2,"svid":26,"health":1},{"PRN":329,"el":2.0,"az":100.0,"ss":0.0,"used":false,"gnssid":2,"svid":29,"health":1},{"PRN":331,"el":64.0,"az":192.0,"ss":30.0,"used":true,"gnssid":2,"svid":31,"health":1},{"PRN":333,"el":65.0,"az":38.0,"ss":7.0,"used":false,"gnssid":2,"svid":33,"health":1},{"PRN":420,"el":20.0,"az":145.0,"ss":36.0,"used":true,"gnssid":3,"svid":20,"health":1},{"PRN":426,"el":14.0,"az":318.0,"ss":0.0,"used":false,"gnssid":3,"svid":26,"health":1},{"PRN":427,"el":3.0,"az":82.0,"ss":0.0,"used":false,"gnssid":3,"svid":27,"health":1},{"PRN":429,"el":63.0,"az":304.0,"ss":32.0,"used":true,"gnssid":3,"svid":29,"health":1},{"PRN":430,"el":50.0,"az":66.0,"ss":0.0,"used":false,"gnssid":3,"svid":30,"health":1},{"PRN":432,"el":32.0,"az":84.0,"ss":23.0,"used":false,"gnssid":3,"svid":32,"health":1},{"PRN":435,"el":9.0,"az":273.0,"ss":41.0,"used":false,"gnssid":3,"svid":35,"health":1},{"PRN":436,"el":26.0,"az":205.0,"ss":40.0,"used":true,"gnssid":3,"svid":36,"health":1},{"PRN":69,"el":20.0,"az":42.0,"ss":0.0,"used":false,"gnssid":6,"svid":5,"health":1},{"PRN":70,"el":24.0,"az":111.0,"ss":17.0,"used":false,"gnssid":6,"svid":6,"health":1},{"PRN":71,"el":2.0,"az":149.0,"ss":0.0,"used":false,"gnssid":6,"svid":7,"health":1},{"PRN":75,"el":38.0,"az":206.0,"ss":45.0,"used":true,"gnssid":6,"svid":11,"health":1},{"PRN":76,"el":48.0,"az":296.0,"ss":40.0,"used":true,"gnssid":6,"svid":12,"health":1},{"PRN":77,"el":13.0,"az":333.0,"ss":20.0,"used":true,"gnssid":6,"svid":13,"health":1}]}
{"class":"PPS","device":"/dev/pps0","real_sec":1747328407,"real_nsec":0,"clock_sec":1747328406,"clock_nsec":999997546,"precision":-20}
{"class":"TPV","device":"/dev/ttyACM0","mode":3,"time":"2025-05-15T17:00:07.000Z","leapseconds":18,"ept":0.005,"lat":41.880692400,"lon":-87.643875900,"altHAE":258.1250,"altMSL":291.9140,"alt":291.9140,"epx":8.109,"epy":6.381,"epv":1.571,"track":204.5607,"magtrack":20.3877,"magvar":-4.1,"speed":0.003,"climb":0.000,"eps":0.02,"epc":3.14,"ecefx":195523.67,"ecefy":-4752027.31,"ecefz":4235918.96,"ecefvx":0.00,"ecefvy":0.00,"ecefvz":0.00,"ecefpAcc":1.99,"ecefvAcc":0.02,"geoidSep":-33.900,"eph":1.216,"sep":19.974}
