{"class":"VERSION","release":"3.22","rev":"3.22","proto_major":3,"proto_minor":14}
{"class":"DEVICES","devices":[{"class":"DEVICE","path":"/dev/ttyACM0","driver":"u-blox","subtype":"SW EXT CORE 1.00 (3fda8e),HW 00190000","subtype1":"ROM BASE 0x118B2060,FWVER=TIM 2.20,PROTVER=29.20,MOD=ZED-F9T,GPS;GLO;GAL;BDS,SBAS;QZSS,NAVIC","activated":"2025-05-20T17:00:01.067Z","flags":1,"native":1,"bps":9600,"parity":"N","stopbits":1,"cycle":1.00,"mincycle":0.02},{"class":"DEVICE","path":"/dev/pps0","driver":"PPS","activated":"2025-05-20T17:00:01.001Z"}]}
{"class":"WATCH","enable":true,"json":true,"nmea":false,"raw":0,"scaled":false,"timing":false,"split24":false,"pps":false}
{"class":"PPS","device":"/dev/pps0","real_sec":1747760402,"real_nsec":0,"clock_sec":1747760401,"clock_nsec":999999444,"precision":-20}
{"class":"TPV","device":"/dev/ttyACM0","mode":3,"time":"2025-05-20T17:00:02.000Z","leapseconds":18,"ept":0.005,"lat":41.880659800,"lon":-87.643953200,"altHAE":269.3020,"altMSL":303.0910,"alt":303.0910,"epx":9.945,"epy":13.233,"epv":5.872,"track":246.8936,"magtrack":242.8388,"magvar":-4.1,"speed":0.017,"climb":-0.017,"eps":0.02,"epc":11.74,"ecefx":195517.75,"ecefy":-4752038.30,"ecefz":4235923.68,"ecefvx":-0.01,"ecefvy":0.01,"ecefvz":0.01,"ecefpAcc":8.91,"ecefvAcc":0.02,"geoidSep":-33.900,"eph":6.709,"sep":23.940}
{"class":"SKY","device":"/dev/ttyACM0","time":"2025-05-20T17:00:02.000Z","xdop":0.59,"ydop":0.80,"vdop":1.24,"tdop":1.00,"hdop":0.99,"gdop":1.87,"pdop":1.59,"nSat":43,"uSat":15,"satellites":[{"PRN":4,"el":6.0,"az":50.0,"ss":0.0,"used":false,"gnssid":0,"svid":4,"health":1},{"PRN":5,"el":11.0,"az":199.0,"ss":28.0,"used":true,"gnssid":0,"svid":5,"health":1},{"PRN":6,"el":59.0,"az":42.0,"ss":0.0,"used":false,"gnssid":0,"svid":6,"health":1},{"PRN":9,"el":12.0,"az":83.0,"ss":0.0,"used":false,"gnssid":0,"svid":9,"health":1},{"PRN":11,"el":76.0,"az":291.0,"ss":15.0,"used":true,"gnssid":0,"svid":11,"health":1},{"PRN":12,"el":55.0,"az":285.0,"ss":27.0,"used":true,"gnssid":0,"svid":12,"health":1},{"PRN":17,"el":16.0,"az":107.0,"ss":10.0,"used":false,"gnssid":0,"svid":17,"health":1},{"PRN":19,"el":41.0,"az":97.0,"ss":10.0,"used":true,"gnssid":0,"svid":19,"health":1},{"PRN":20,"el":46.0,"az":189.0,"ss":28.0,"used":true,"gnssid":0,"svid":20,"health":1},{"PRN":22,"el":9.0,"az":158.0,"ss":20.0,"used":false,"gnssid":0,"svid":22,"health":1},{"PRN":24,"el":1.0,"az":237.0,"ss":11.0,"used":false,"gnssid":0,"svid":24,"health":1},{"PRN":25,"el":26.0,"az":312.0,"ss":0.0,"used":false,"gnssid":0,"svid":25,"health":1},{"PRN":302,"el":11.0,"az":157.0,"ss":17.0,"used":true,"gnssid":2,"svid":2,"health":1},{"PRN":305,"el":7.0,"az":94.0,"ss":0.0,"used":false,"gnssid":2,"svid":5,"health":1},{"PRN":306,"el":0.0,"az":24.0,"ss":0.0,"used":false,"gnssid":2,"svid":6,"health":1},{"PRN":309,"el":5.0,"az":45.0,"ss":0.0,"used":false,"gnssid":2,"svid":9,"health":1},{"PRN":313,"el":10.0,"az":243.0,"ss":22.0,"used":true,"gnssid":2,"svid":13,"health":1},{"PRN":315,"el":61.0,"az":260.0,"ss":24.0,"used":true,"gnssid":2,"svid":15,"health":1},{"PRN":321,"el":7.0,"az":323.0,"ss":0.0,"used":false,"gnssid":2,"svid":21,"health":1},{"PRN":327,"el":53.0,"az":294.0,"ss":20.0,"used":false,"gnssid":2,"svid":27,"health":1},{"PRN":330,"el":57.0,"az":190.0,"ss":27.0,"used":true,"gnssid":2,"svid":30,"health":1},{"PRN":334,"el":60.0,"az":41.0,"ss":11.0,"used":true,"gnssid":2,"svid":34,"health":1},{"PRN":336,"el":10.0,"az":56.0,"ss":9.0,"used":false,"gnssid":2,"svid":36,"health":1},{"PRN":411,"el":10.0,"az":274.0,"ss":0.0,"used":false,"gnssid":3,"svid":11,"health":1},{"PRN":412,"el":58.0,"az":301.0,"ss":0.0,"used":false,"gnssid":3,"svid":12,"health":1},{"PRN":419,"el":27.0,"az":59.0,"ss":0.0,"used":false,"gnssid":3,"svid":19,"health":1},{"PRN":420,"el":0.0,"az":23.0,"ss":0.0,"used":false,"gnssid":3,"svid":20,"health":1},{"PRN":421,"el":8.0,"az":168.0,"ss":24.0,"used":false,"gnssid":3,"svid":21,"health":1},{"PRN":422,"el":34.0,"az":122.0,"ss":0.0,"used":false,"gnssid":3,"svid":22,"health":1},{"PRN":424,"el":33.0,"az":235.0,"ss":25.0,"used":true,"gnssid":3,"svid":24,"health":1},{"PRN":425,"el":25.0,"az":299.0,"ss":19.0,"used":false,"gnssid":3,"svid":25,"health":1},{"PRN":426,"el":9.0,"az":191.0,"ss":25.0,"used":false,"gnssid":3,"svid":26,"health":1},{"PRN":434,"el":31.0,"az":283.0,"ss":21.0,"used":true,"gnssid":3,"svid":34,"health":1},{"PRN":435,"el":37.0,"az":77.0,"ss":0.0,"used":false,"gnssid":3,"svid":35,"health":1},{"PRN":66,"el":19.0,"az":35.0,"ss":0.0,"used":false,"gnssid":6,"svid":2,"health":1},{"PRN":68,"el":12.0,"az":142.0,"ss":16.0,"used":false,"gnssid":6,"svid":4,"health":1},{"PRN":73,"el":46.0,"az":281.0,"ss":30.0,"used":true,"gnssid":6,"svid":9,"health":1},{"PRN":74,"el":20.0,"az":328.0,"ss":0.0,"used":false,"gnssid":6,"svid":10,"health":1},{"PRN":80,"el":31.0,"az":207.0,"ss":34.0,"used":true,"gnssid":6,"svid":16,"health":1},{"PRN":81,"el":7.0,"az":70.0,"ss":0.0,"used":false,"gnssid":6,"svid":17,"health":1}]}
{"class":"PPS","device":"/dev/pps0","real_sec":1747760403,"real_nsec":0,"clock_sec":1747760402,"clock_nsec":999998898,"precision":-20}
{"class":"TPV","device":"/dev/ttyACM0","mode":3,"time":"2025-05-20T17:00:03.000Z","leapseconds":18,"ept":0.005,"lat":41.880660200,"lon":-87.643953400,"altHAE":269.3160,"altMSL":303.1050,"alt":303.1050,"epx":8.870,"epy":12.055,"epv":5.883,"track":246.8936,"magtrack":242.8388,"magvar":-4.1,"speed":0.017,"climb":-0.017,"eps":0.02,"epc":11.76,"ecefx":195517.70,"ecefy":-4752038.30,"ecefz":4235923.73,"ecefvx":-0.01,"ecefvy":0.01,"ecefvz":0.01,"ecefpAcc":8.92,"ecefvAcc":0.02,"geoidSep":-33.900,"eph":6.714,"sep":23.940}
{"class":"SKY","device":"/dev/ttyACM0","time":"2025-05-20T17:00:03.000Z","xdop":0.59,"ydop":0.80,"vdop":1.24,"tdop":0.96,"hdop":0.89,"gdop":1.80,"pdop":1.53,"nSat":43,"uSat":15,"satellites":[{"PRN":4,"el":6.0,"az":50.0,"ss":0.0,"used":false,"gnssid":0,"svid":4,"health":1},{"PRN":5,"el":11.0,"az":199.0,"ss":27.0,"used":true,"gnssid":0,"svid":5,"health":1},{"PRN":6,"el":59.0,"az":42.0,"ss":0.0,"used":false,"gnssid":0,"svid":6,"health":1},{"PRN":9,"el":12.0,"az":83.0,"ss":0.0,"used":false,"gnssid":0,"svid":9,"health":1},{"PRN":11,"el":76.0,"az":291.0,"ss":15.0,"used":true,"gnssid":0,"svid":11,"health":1},{"PRN":12,"el":55.0,"az":285.0,"ss":27.0,"used":true,"gnssid":0,"svid":12,"health":1},{"PRN":17,"el":16.0,"az":107.0,"ss":8.0,"used":false,"gnssid":0,"svid":17,"health":1},{"PRN":19,"el":41.0,"az":97.0,"ss":10.0,"used":true,"gnssid":0,"svid":19,"health":1},{"PRN":20,"el":46.0,"az":189.0,"ss":28.0,"used":true,"gnssid":0,"svid":20,"health":1},{"PRN":22,"el":9.0,"az":158.0,"ss":20.0,"used":false,"gnssid":0,"svid":22,"health":1},{"PRN":24,"el":1.0,"az":237.0,"ss":12.0,"used":false,"gnssid":0,"svid":24,"health":1},{"PRN":25,"el":26.0,"az":312.0,"ss":0.0,"used":false,"gnssid":0,"svid":25,"health":1},{"PRN":302,"el":11.0,"az":157.0,"ss":16.0,"used":true,"gnssid":2,"svid":2,"health":1},{"PRN":305,"el":7.0,"az":94.0,"ss":0.0,"used":false,"gnssid":2,"svid":5,"health":1},{"PRN":306,"el":0.0,"az":24.0,"ss":0.0,"used":false,"gnssid":2,"svid":6,"health":1},{"PRN":309,"el":5.0,"az":45.0,"ss":0.0,"used":false,"gnssid":2,"svid":9,"health":1},{"PRN":313,"el":10.0,"az":243.0,"ss":21.0,"used":true,"gnssid":2,"svid":13,"health":1},{"PRN":315,"el":61.0,"az":260.0,"ss":25.0,"used":true,"gnssid":2,"svid":15,"health":1},{"PRN":321,"el":7.0,"az":323.0,"ss":0.0,"used":false,"gnssid":2,"svid":21,"health":1},{"PRN":327,"el":53.0,"az":294.0,"ss":19.0,"used":false,"gnssid":2,"svid":27,"health":1},{"PRN":330,"el":56.0,"az":189.0,"ss":27.0,"used":true,"gnssid":2,"svid":30,"health":1},{"PRN":334,"el":60.0,"az":41.0,"ss":10.0,"used":true,"gnssid":2,"svid":34,"health":1},{"PRN":336,"el":10.0,"az":56.0,"ss":11.0,"used":false,"gnssid":2,"svid":36,"health":1},{"PRN":411,"el":10.0,"az":274.0,"ss":0.0,"used":false,"gnssid":3,"svid":11,"health":1},{"PRN":412,"el":58.0,"az":301.0,"ss":0.0,"used":false,"gnssid":3,"svid":12,"health":1},{"PRN":419,"el":27.0,"az":59.0,"ss":0.0,"used":false,"gnssid":3,"svid":19,"health":1},{"PRN":420,"el":0.0,"az":23.0,"ss":0.0,"used":false,"gnssid":3,"svid":20,"health":1},{"PRN":421,"el":8.0,"az":168.0,"ss":24.0,"used":false,"gnssid":3,"svid":21,"health":1},{"PRN":422,"el":34.0,"az":122.0,"ss":0.0,"used":false,"gnssid":3,"svid":22,"health":1},{"PRN":424,"el":33.0,"az":235.0,"ss":25.0,"used":true,"gnssid":3,"svid":24,"health":1},{"PRN":425,"el":25.0,"az":299.0,"ss":18.0,"used":false,"gnssid":3,"svid":25,"health":1},{"PRN":426,"el":9.0,"az":191.0,"ss":25.0,"used":false,"gnssid":3,"svid":26,"health":1},{"PRN":434,"el":31.0,"az":283.0,"ss":20.0,"used":true,"gnssid":3,"svid":34,"health":1},{"PRN":435,"el":37.0,"az":77.0,"ss":0.0,"used":false,"gnssid":3,"svid":35,"health":1},{"PRN":66,"el":19.0,"az":35.0,"ss":0.0,"used":false,"gnssid":6,"svid":2,"health":1},{"PRN":68,"el":12.0,"az":142.0,"ss":18.0,"used":false,"gnssid":6,"svid":4,"health":1},{"PRN":73,"el":46.0,"az":281.0,"ss":30.0,"used":true,"gnssid":6,"svid":9,"health":1},{"PRN":74,"el":20.0,"az":328.0,"ss":0.0,"used":false,"gnssid":6,"svid":10,"health":1},{"PRN":80,"el":31.0,"az":207.0,"ss":33.0,"used":true,"gnssid":6,"svid":16,"health":1},{"PRN":81,"el":7.0,"az":70.0,"ss":0.0,"used":false,"gnssid":6,"svid":17,"health":1}]}
{"class":"PPS","device":"/dev/pps0","real_sec":1747760404,"real_nsec":0,"clock_sec":1747760403,"clock_nsec":999998723,"precision":-20}
{"class":"TPV","device":"/dev/ttyACM0","mode":3,"time":"2025-05-20T17:00:04.000Z","leapseconds":18,"ept":0.005,"lat":41.880660600,"lon":-87.643953500,"altHAE":269.3080,"altMSL":303.0970,"alt":303.0970,"epx":8.871,"epy":12.043,"epv":5.893,"track":246.8936,"magtrack":242.8388,"magvar":-4.1,"speed":0.017,"climb":-0.017,"eps":0.02,"epc":11.78,"ecefx":195517.69,"ecefy":-4752038.28,"ecefz":4235923.77,"ecefvx":-0.01,"ecefvy":0.01,"ecefvz":0.01,"ecefpAcc":8.93,"ecefvAcc":0.02,"geoidSep":-33.900,"eph":6.718,"sep":23.940}
{"class":"SKY","device":"/dev/ttyACM0","time":"2025-05-20T17:00:04.000Z","xdop":1.10,"ydop":1.08,"vdop":1.32,"tdop":1.28,"hdop":1.40,"gdop":2.31,"pdop":1.92,"nSat":43,"uSat":13,"satellites":[{"PRN":4,"el":6.0,"az":50.0,"ss":0.0,"used":false,"gnssid":0,"svid":4,"health":1},{"PRN":5,"el":11.0,"az":199.0,"ss":28.0,"used":true,"gnssid":0,"svid":5,"health":1},{"PRN":6,"el":59.0,"az":42.0,"ss":0.0,"used":false,"gnssid":0,"svid":6,"health":1},{"PRN":9,"el":12.0,"az":83.0,"ss":0.0,"used":false,"gnssid":0,"svid":9,"health":1},{"PRN":11,"el":76.0,"az":291.0,"ss":16.0,"used":true,"gnssid":0,"svid":11,"health":1},{"PRN":12,"el":55.0,"az":285.0,"ss":27.0,"used":true,"gnssid":0,"svid":12,"health":1},{"PRN":17,"el":16.0,"az":107.0,"ss":9.0,"used":false,"gnssid":0,"svid":17,"health":1},{"PRN":19,"el":41.0,"az":97.0,"ss":7.0,"used":false,"gnssid":0,"svid":19,"health":1},{"PRN":20,"el":46.0,"az":189.0,"ss":28.0,"used":true,"gnssid":0,"svid":20,"health":1},{"PRN":22,"el":9.0,"az":158.0,"ss":20.0,"used":false,"gnssid":0,"svid":22,"health":1},{"PRN":24,"el":1.0,"az":237.0,"ss":14.0,"used":false,"gnssid":0,"svid":24,"health":1},{"PRN":25,"el":26.0,"az":312.0,"ss":0.0,"used":false,"gnssid":0,"svid":25,"health":1},{"PRN":302,"el":11.0,"az":157.0,"ss":16.0,"used":true,"gnssid":2,"svid":2,"health":1},{"PRN":305,"el":7.0,"az":94.0,"ss":0.0,"used":false,"gnssid":2,"svid":5,"health":1},{"PRN":306,"el":0.0,"az":24.0,"ss":0.0,"used":false,"gnssid":2,"svid":6,"health":1},{"PRN":309,"el":5.0,"az":45.0,"ss":0.0,"used":false,"gnssid":2,"svid":9,"health":1},{"PRN":313,"el":10.0,"az":243.0,"ss":21.0,"used":true,"gnssid":2,"svid":13,"health":1},{"PRN":315,"el":61.0,"az":260.0,"ss":25.0,"used":true,"gnssid":2,"svid":15,"health":1},{"PRN":321,"el":7.0,"az":323.0,"ss":0.0,"used":false,"gnssid":2,"svid":21,"health":1},{"PRN":327,"el":53.0,"az":294.0,"ss":19.0,"used":false,"gnssid":2,"svid":27,"health":1},{"PRN":330,"el":56.0,"az":189.0,"ss":27.0,"used":true,"gnssid":2,"svid":30,"health":1},{"PRN":334,"el":60.0,"az":41.0,"ss":8.0,"used":false,"gnssid":2,"svid":34,"health":1},{"PRN":336,"el":10.0,"az":56.0,"ss":11.0,"used":false,"gnssid":2,"svid":36,"health":1},{"PRN":411,"el":10.0,"az":274.0,"ss":0.0,"used":false,"gnssid":3,"svid":11,"health":1},{"PRN":412,"el":58.0,"az":301.0,"ss":0.0,"used":false,"gnssid":3,"svid":12,"health":1},{"PRN":419,"el":27.0,"az":59.0,"ss":0.0,"used":false,"gnssid":3,"svid":19,"health":1},{"PRN":420,"el":0.0,"az":23.0,"ss":0.0,"used":false,"gnssid":3,"svid":20,"health":1},{"PRN":421,"el":8.0,"az":168.0,"ss":24.0,"used":false,"gnssid":3,"svid":21,"health":1},{"PRN":422,"el":34.0,"az":122.0,"ss":0.0,"used":false,"gnssid":3,"svid":22,"health":1},{"PRN":424,"el":33.0,"az":235.0,"ss":25.0,"used":true,"gnssid":3,"svid":24,"health":1},{"PRN":425,"el":25.0,"az":299.0,"ss":18.0,"used":false,"gnssid":3,"svid":25,"health":1},{"PRN":426,"el":9.0,"az":191.0,"ss":25.0,"used":false,"gnssid":3,"svid":26,"health":1},{"PRN":434,"el":31.0,"az":283.0,"ss":21.0,"used":true,"gnssid":3,"svid":34,"health":1},{"PRN":435,"el":37.0,"az":77.0,"ss":0.0,"used":false,"gnssid":3,"svid":35,"health":1},{"PRN":66,"el":19.0,"az":35.0,"ss":0.0,"used":false,"gnssid":6,"svid":2,"health":1},{"PRN":68,"el":12.0,"az":142.0,"ss":17.0,"used":false,"gnssid":6,"svid":4,"health":1},{"PRN":73,"el":46.0,"az":281.0,"ss":30.0,"used":true,"gnssid":6,"svid":9,"health":1},{"PRN":74,"el":20.0,"az":328.0,"ss":0.0,"used":false,"gnssid":6,"svid":10,"health":1},{"PRN":80,"el":31.0,"az":207.0,"ss":34.0,"used":true,"gnssid":6,"svid":16,"health":1},{"PRN":81,"el":7.0,"az":70.0,"ss":0.0,"used":false,"gnssid":6,"svid":17,"health":1}]}
{"class":"PPS","device":"/dev/pps0","real_sec":1747760405,"real_nsec":0,"clock_sec":1747760404,"clock_nsec":999999141,"precision":-20}
{"class":"TPV","device":"/dev/ttyACM0","mode":3,"time":"2025-05-20T17:00:05.000Z","leapseconds":18,"ept":0.005,"lat":41.880661100,"lon":-87.643953200,"altHAE":269.2920,"altMSL":303.0810,"alt":303.0810,"epx":16.524,"epy":16.210,"epv":5.903,"track":246.8936,"magtrack":242.8388,"magvar":-4.1,"speed":0.017,"climb":-0.017,"eps":0.02,"epc":11.80,"ecefx":195517.68,"ecefy":-4752038.24,"ecefz":4235923.80,"ecefvx":-0.01,"ecefvy":0.01,"ecefvz":0.01,"ecefpAcc":8.94,"ecefvAcc":0.02,"geoidSep":-33.900,"eph":6.721,"sep":23.940}
{"class":"SKY","device":"/dev/ttyACM0","time":"2025-05-20T17:00:05.000Z","xdop":0.78,"ydop":0.85,"vdop":1.32,"tdop":1.28,"hdop":1.40,"gdop":2.31,"pdop":1.92,"nSat":43,"uSat":14,"satellites":[{"PRN":4,"el":6.0,"az":50.0,"ss":0.0,"used":false,"gnssid":0,"svid":4,"health":1},{"PRN":5,"el":11.0,"az":199.0,"ss":28.0,"used":true,"gnssid":0,"svid":5,"health":1},{"PRN":6,"el":59.0,"az":42.0,"ss":0.0,"used":false,"gnssid":0,"svid":6,"health":1},{"PRN":9,"el":12.0,"az":83.0,"ss":0.0,"used":false,"gnssid":0,"svid":9,"health":1},{"PRN":11,"el":76.0,"az":291.0,"ss":16.0,"used":true,"gnssid":0,"svid":11,"health":1},{"PRN":12,"el":55.0,"az":285.0,"ss":27.0,"used":true,"gnssid":0,"svid":12,"health":1},{"PRN":17,"el":16.0,"az":107.0,"ss":10.0,"used":false,"gnssid":0,"svid":17,"health":1},{"PRN":19,"el":41.0,"az":97.0,"ss":8.0,"used":false,"gnssid":0,"svid":19,"health":1},{"PRN":20,"el":46.0,"az":189.0,"ss":28.0,"used":true,"gnssid":0,"svid":20,"health":1},{"PRN":22,"el":9.0,"az":158.0,"ss":19.0,"used":false,"gnssid":0,"svid":22,"health":1},{"PRN":24,"el":1.0,"az":237.0,"ss":9.0,"used":false,"gnssid":0,"svid":24,"health":1},{"PRN":25,"el":26.0,"az":312.0,"ss":0.0,"used":false,"gnssid":0,"svid":25,"health":1},{"PRN":302,"el":11.0,"az":157.0,"ss":16.0,"used":true,"gnssid":2,"svid":2,"health":1},{"PRN":305,"el":7.0,"az":94.0,"ss":0.0,"used":false,"gnssid":2,"svid":5,"health":1},{"PRN":306,"el":0.0,"az":24.0,"ss":0.0,"used":false,"gnssid":2,"svid":6,"health":1},{"PRN":309,"el":5.0,"az":45.0,"ss":0.0,"used":false,"gnssid":2,"svid":9,"health":1},{"PRN":313,"el":10.0,"az":243.0,"ss":21.0,"used":true,"gnssid":2,"svid":13,"health":1},{"PRN":315,"el":61.0,"az":260.0,"ss":25.0,"used":true,"gnssid":2,"svid":15,"health":1},{"PRN":321,"el":7.0,"az":323.0,"ss":0.0,"used":false,"gnssid":2,"svid":21,"health":1},{"PRN":327,"el":53.0,"az":294.0,"ss":19.0,"used":false,"gnssid":2,"svid":27,"health":1},{"PRN":330,"el":56.0,"az":189.0,"ss":27.0,"used":true,"gnssid":2,"svid":30,"health":1},{"PRN":334,"el":60.0,"az":41.0,"ss":9.0,"used":true,"gnssid":2,"svid":34,"health":1},{"PRN":336,"el":10.0,"az":56.0,"ss":8.0,"used":false,"gnssid":2,"svid":36,"health":1},{"PRN":411,"el":10.0,"az":274.0,"ss":0.0,"used":false,"gnssid":3,"svid":11,"health":1},{"PRN":412,"el":58.0,"az":301.0,"ss":12.0,"used":false,"gnssid":3,"svid":12,"health":1},{"PRN":419,"el":27.0,"az":59.0,"ss":0.0,"used":false,"gnssid":3,"svid":19,"health":1},{"PRN":420,"el":0.0,"az":23.0,"ss":0.0,"used":false,"gnssid":3,"svid":20,"health":1},{"PRN":421,"el":8.0,"az":168.0,"ss":24.0,"used":false,"gnssid":3,"svid":21,"health":1},{"PRN":422,"el":34.0,"az":122.0,"ss":0.0,"used":false,"gnssid":3,"svid":22,"health":1},{"PRN":424,"el":33.0,"az":235.0,"ss":25.0,"used":true,"gnssid":3,"svid":24,"health":1},{"PRN":425,"el":25.0,"az":299.0,"ss":18.0,"used":false,"gnssid":3,"svid":25,"health":1},{"PRN":426,"el":9.0,"az":191.0,"ss":25.0,"used":false,"gnssid":3,"svid":26,"health":1},{"PRN":434,"el":31.0,"az":283.0,"ss":21.0,"used":true,"gnssid":3,"svid":34,"health":1},{"PRN":435,"el":37.0,"az":77.0,"ss":0.0,"used":false,"gnssid":3,"svid":35,"health":1},{"PRN":66,"el":19.0,"az":35.0,"ss":0.0,"used":false,"gnssid":6,"svid":2,"health":1},{"PRN":68,"el":12.0,"az":142.0,"ss":18.0,"used":false,"gnssid":6,"svid":4,"health":1},{"PRN":73,"el":46.0,"az":281.0,"ss":30.0,"used":true,"gnssid":6,"svid":9,"health":1},{"PRN":74,"el":20.0,"az":328.0,"ss":0.0,"used":false,"gnssid":6,"svid":10,"health":1},{"PRN":80,"el":31.0,"az":207.0,"ss":35.0,"used":true,"gnssid":6,"svid":16,"health":1},{"PRN":81,"el":7.0,"az":70.0,"ss":0.0,"used":false,"gnssid":6,"svid":17,"health":1}]}
{"class":"PPS","device":"/dev/pps0","real_sec":1747760406,"real_nsec":0,"clock_sec":1747760405,"clock_nsec":999999651,"precision":-20}
{"class":"TPV","device":"/dev/ttyACM0","mode":3,"time":"2025-05-20T17:00:06.000Z","leapseconds":18,"ept":0.005,"lat":41.880661500,"lon":-87.643952800,"altHAE":269.2670,"altMSL":303.0560,"alt":303.0560,"epx":11.756,"epy":12.726,"epv":5.913,"track":246.8936,"magtrack":242.8388,"magvar":-4.1,"speed":0.017,"climb":-0.017,"eps":0.02,"epc":11.82,"ecefx":195517.70,"ecefy":-4752038.19,"ecefz":4235923.83,"ecefvx":-0.01,"ecefvy":0.01,"ecefvz":0.01,"ecefpAcc":8.95,"ecefvAcc":0.02,"geoidSep":-33.900,"eph":6.724,"sep":23.940}
{"class":"SKY","device":"/dev/ttyACM0","time":"2025-05-20T17:00:06.000Z","xdop":1.10,"ydop":1.08,"vdop":1.28,"tdop":1.07,"hdop":1.05,"gdop":1.97,"pdop":1.66,"nSat":43,"uSat":13,"satellites":[{"PRN":4,"el":6.0,"az":50.0,"ss":0.0,"used":false,"gnssid":0,"svid":4,"health":1},{"PRN":5,"el":11.0,"az":199.0,"ss":28.0,"used":true,"gnssid":0,"svid":5,"health":1},{"PRN":6,"el":59.0,"az":42.0,"ss":0.0,"used":false,"gnssid":0,"svid":6,"health":1},{"PRN":9,"el":12.0,"az":83.0,"ss":0.0,"used":false,"gnssid":0,"svid":9,"health":1},{"PRN":11,"el":76.0,"az":291.0,"ss":16.0,"used":true,"gnssid":0,"svid":11,"health":1},{"PRN":12,"el":55.0,"az":285.0,"ss":27.0,"used":true,"gnssid":0,"svid":12,"health":1},{"PRN":17,"el":16.0,"az":107.0,"ss":9.0,"used":false,"gnssid":0,"svid":17,"health":1},{"PRN":19,"el":41.0,"az":97.0,"ss":9.0,"used":false,"gnssid":0,"svid":19,"health":1},{"PRN":20,"el":46.0,"az":189.0,"ss":28.0,"used":true,"gnssid":0,"svid":20,"health":1},{"PRN":22,"el":9.0,"az":158.0,"ss":20.0,"used":false,"gnssid":0,"svid":22,"health":1},{"PRN":24,"el":1.0,"az":237.0,"ss":7.0,"used":false,"gnssid":0,"svid":24,"health":1},{"PRN":25,"el":26.0,"az":312.0,"ss":0.0,"used":false,"gnssid":0,"svid":25,"health":1},{"PRN":302,"el":11.0,"az":157.0,"ss":16.0,"used":true,"gnssid":2,"svid":2,"health":1},{"PRN":305,"el":7.0,"az":94.0,"ss":0.0,"used":false,"gnssid":2,"svid":5,"health":1},{"PRN":306,"el":0.0,"az":24.0,"ss":0.0,"used":false,"gnssid":2,"svid":6,"health":1},{"PRN":309,"el":5.0,"az":45.0,"ss":0.0,"used":false,"gnssid":2,"svid":9,"health":1},{"PRN":313,"el":10.0,"az":243.0,"ss":21.0,"used":true,"gnssid":2,"svid":13,"health":1},{"PRN":315,"el":61.0,"az":260.0,"ss":25.0,"used":true,"gnssid":2,"svid":15,"health":1},{"PRN":321,"el":7.0,"az":323.0,"ss":0.0,"used":false,"gnssid":2,"svid":21,"health":1},{"PRN":327,"el":53.0,"az":294.0,"ss":19.0,"used":false,"gnssid":2,"svid":27,"health":1},{"PRN":330,"el":56.0,"az":189.0,"ss":28.0,"used":true,"gnssid":2,"svid":30,"health":1},{"PRN":334,"el":59.0,"az":41.0,"ss":7.0,"used":false,"gnssid":2,"svid":34,"health":1},{"PRN":336,"el":10.0,"az":56.0,"ss":7.0,"used":false,"gnssid":2,"svid":36,"health":1},{"PRN":411,"el":10.0,"az":274.0,"ss":0.0,"used":false,"gnssid":3,"svid":11,"health":1},{"PRN":412,"el":58.0,"az":301.0,"ss":13.0,"used":false,"gnssid":3,"svid":12,"health":1},{"PRN":419,"el":27.0,"az":59.0,"ss":0.0,"used":false,"gnssid":3,"svid":19,"health":1},{"PRN":420,"el":0.0,"az":23.0,"ss":0.0,"used":false,"gnssid":3,"svid":20,"health":1},{"PRN":421,"el":8.0,"az":168.0,"ss":24.0,"used":false,"gnssid":3,"svid":21,"health":1},{"PRN":422,"el":34.0,"az":122.0,"ss":0.0,"used":false,"gnssid":3,"svid":22,"health":1},{"PRN":424,"el":33.0,"az":235.0,"ss":25.0,"used":true,"gnssid":3,"svid":24,"health":1},{"PRN":425,"el":25.0,"az":299.0,"ss":18.0,"used":false,"gnssid":3,"svid":25,"health":1},{"PRN":426,"el":9.0,"az":191.0,"ss":25.0,"used":false,"gnssid":3,"svid":26,"health":1},{"PRN":434,"el":31.0,"az":283.0,"ss":21.0,"used":true,"gnssid":3,"svid":34,"health":1},{"PRN":435,"el":37.0,"az":77.0,"ss":0.0,"used":false,"gnssid":3,"svid":35,"health":1},{"PRN":66,"el":19.0,"az":35.0,"ss":0.0,"used":false,"gnssid":6,"svid":2,"health":1},{"PRN":68,"el":12.0,"az":142.0,"ss":19.0,"used":false,"gnssid":6,"svid":4,"health":1},{"PRN":73,"el":46.0,"az":281.0,"ss":30.0,"used":true,"gnssid":6,"svid":9,"health":1},{"PRN":74,"el":20.0,"az":328.0,"ss":0.0,"used":false,"gnssid":6,"svid":10,"health":1},{"PRN":80,"el":31.0,"az":207.0,"ss":35.0,"used":true,"gnssid":6,"svid":16,"health":1},{"PRN":81,"el":7.0,"az":70.0,"ss":0.0,"used":false,"gnssid":6,"svid":17,"health":1}]}
{"class":"PPS","device":"/dev/pps0","real_sec":1747760407,"real_nsec":0,"clock_sec":1747760406,"clock_nsec":999997346,"precision":-20}
{"class":"TPV","device":"/dev/ttyACM0","mode":3,"time":"2025-05-20T17:00:07.000Z","leapseconds":18,"ept":0.005,"lat":41.880661600,"lon":-87.643952700,"altHAE":269.2860,"altMSL":303.0750,"alt":303.0750,"epx":16.524,"epy":16.210,"epv":5.923,"track":246.8936,"magtrack":242.8388,"magvar":-4.1,"speed":0.017,"climb":-0.017,"eps":0.02,"epc":11.84,"ecefx":195517.74,"ecefy":-4752038.14,"ecefz":4235923.85,"ecefvx":-0.01,"ecefvy":0.01,"ecefvz":0.01,"ecefpAcc":8.95,"ecefvAcc":0.02,"geoidSep":-33.900,"eph":6.730,"sep":23.940}
