{"class":"VERSION","release":"3.22","rev":"3.22","proto_major":3,"proto_minor":14}
{"class":"DEVICES","devices":[{"class":"DEVICE","path":"/dev/ttyACM0","driver":"u-blox","subtype":"SW EXT CORE 1.00 (3fda8e),HW 00190000","subtype1":"ROM BASE 0x118B2060,FWVER=TIM 2.20,PROTVER=29.20,MOD=ZED-F9T,GPS;GLO;GAL;BDS,SBAS;QZSS,NAVIC","activated":"2025-05-16T17:00:01.077Z","flags":1,"native":1,"bps":9600,"parity":"N","stopbits":1,"cycle":1.00,"mincycle":0.02},{"class":"DEVICE","path":"/dev/pps0","driver":"PPS","activated":"2025-05-16T17:00:01.001Z"}]}
{"class":"WATCH","enable":true,"json":true,"nmea":false,"raw":0,"scaled":false,"timing":false,"split24":false,"pps":false}
{"class":"PPS","device":"/dev/pps0","real_sec":1747414802,"real_nsec":0,"clock_sec":1747414802,"clock_nsec":1065,"precision":-20}
{"class":"TPV","device":"/dev/ttyACM0","mode":3,"time":"2025-05-16T17:00:02.000Z","leapseconds":18,"ept":0.005,"lat":41.880708000,"lon":-87.643864800,"altHAE":253.3370,"altMSL":287.1260,"alt":287.1260,"epx":8.304,"epy":10.200,"epv":1.514,"track":285.2312,"magtrack":20.3877,"magvar":-4.1,"speed":0.001,"climb":0.000,"eps":0.01,"epc":3.03,"ecefx":195524.40,"ecefy":-4752022.54,"ecefz":4235917.06,"ecefvx":0.00,"ecefvy":0.00,"ecefvz":0.00,"ecefpAcc":1.96,"ecefvAcc":0.01,"geoidSep":-33.900,"eph":1.242,"sep":19.974}
{"class":"SKY","device":"/dev/ttyACM0","time":"2025-05-16T17:00:02.000Z","xdop":0.52,"ydop":0.66,"vdop":1.49,"tdop":1.17,"hdop":1.17,"gdop":2.23,"pdop":1.90,"nSat":37,"uSat":18,"satellites":[{"PRN":4,"el":5.0,"az":58.0,"ss":8.0,"used":false,"gnssid":0,"svid":4,"health":1},{"PRN":5,"el":4.0,"az":198.0,"ss":46.0,"used":false,"gnssid":0,"svid":5,"health":1},{"PRN":6,"el":66.0,"az":35.0,"ss":11.0,"used":true,"gnssid":0,"svid":6,"health":1},{"PRN":9,"el":8.0,"az":90.0,"ss":0.0,"used":false,"gnssid":0,"svid":9,"health":1},{"PRN":11,"el":71.0,"az":266.0,"ss":42.0,"used":true,"gnssid":0,"svid":11,"health":1},{"PRN":12,"el":51.0,"az":297.0,"ss":37.0,"used":true,"gnssid":0,"svid":12,"health":1},{"PRN":17,"el":22.0,"az":101.0,"ss":19.0,"used":false,"gnssid":0,"svid":17,"health":1},{"PRN":19,"el":47.0,"az":89.0,"ss":12.0,"used":true,"gnssid":0,"svid":19,"health":1},{"PRN":20,"el":37.0,"az":189.0,"ss":46.0,"used":true,"gnssid":0,"svid":20,"health":1},{"PRN":22,"el":16.0,"az":157.0,"ss":35.0,"used":true,"gnssid":0,"svid":22,"health":1},{"PRN":24,"el":6.0,"az":243.0,"ss":41.0,"used":false,"gnssid":0,"svid":24,"health":1},{"PRN":25,"el":20.0,"az":316.0,"ss":26.0,"used":false,"gnssid":0,"svid":25,"health":1},{"PRN":303,"el":4.0,"az":70.0,"ss":0.0,"used":false,"gnssid":2,"svid":3,"health":1},{"PRN":308,"el":0.0,"az":116.0,"ss":0.0,"used":false,"gnssid":2,"svid":8,"health":1},{"PRN":313,"el":82.0,"az":328.0,"ss":18.0,"used":true,"gnssid":2,"svid":13,"health":1},{"PRN":315,"el":33.0,"az":50.0,"ss":8.0,"used":false,"gnssid":2,"svid":15,"health":1},{"PRN":321,"el":70.0,"az":250.0,"ss":39.0,"used":true,"gnssid":2,"svid":21,"health":1},{"PRN":323,"el":29.0,"az":314.0,"ss":31.0,"used":true,"gnssid":2,"svid":23,"health":1},{"PRN":326,"el":34.0,"az":243.0,"ss":38.0,"used":true,"gnssid":2,"svid":26,"health":1},{"PRN":327,"el":35.0,"az":163.0,"ss":45.0,"used":true,"gnssid":2,"svid":27,"health":1},{"PRN":427,"el":57.0,"az":59.0,"ss":0.0,"used":false,"gnssid":3,"svid":27,"health":1},{"PRN":428,"el":15.0,"az":79.0,"ss":23.0,"used":false,"gnssid":3,"svid":28,"health":1},{"PRN":429,"el":9.0,"az":274.0,"ss":44.0,"used":false,"gnssid":3,"svid":29,"health":1},{"PRN":430,"el":58.0,"az":297.0,"ss":38.0,"used":true,"gnssid":3,"svid":30,"health":1},{"PRN":432,"el":20.0,"az":148.0,"ss":35.0,"used":true,"gnssid":3,"svid":32,"health":1},{"PRN":433,"el":14.0,"az":39.0,"ss":0.0,"used":false,"gnssid":3,"svid":33,"health":1},{"PRN":436,"el":37.0,"az":274.0,"ss":45.0,"used":true,"gnssid":3,"svid":36,"health":1},{"PRN":70,"el":24.0,"az":50.0,"ss":0.0,"used":false,"gnssid":6,"svid":6,"health":1},{"PRN":71,"el":26.0,"az":102.0,"ss":13.0,"used":true,"gnssid":6,"svid":7,"health":1},{"PRN":72,"el":5.0,"az":146.0,"ss":29.0,"used":false,"gnssid":6,"svid":8,"health":1},{"PRN":76,"el":39.0,"az":211.0,"ss":48.0,"used":true,"gnssid":6,"svid":12,"health":1},{"PRN":77,"el":50.0,"az":282.0,"ss":35.0,"used":true,"gnssid":6,"svid":13,"health":1},{"PRN":78,"el":11.0,"az":335.0,"ss":32.0,"used":false,"gnssid":6,"svid":14,"health":1}]}
{"class":"PPS","device":"/dev/pps0","real_sec":1747414803,"real_nsec":0,"clock_sec":1747414802,"clock_nsec":999999623,"precision":-20}
{"class":"TPV","device":"/dev/ttyACM0","mode":3,"time":"2025-05-16T17:00:03.000Z","leapseconds":18,"ept":0.005,"lat":41.880708000,"lon":-87.643864900,"altHAE":253.3380,"altMSL":287.1270,"alt":287.1270,"epx":7.762,"epy":9.935,"epv":1.512,"track":285.2312,"magtrack":20.3877,"magvar":-4.1,"speed":0.001,"climb":0.000,"eps":0.01,"epc":3.03,"ecefx":195524.40,"ecefy":-4752022.54,"ecefz":4235917.06,"ecefvx":0.00,"ecefvy":0.00,"ecefvz":0.00,"ecefpAcc":1.96,"ecefvAcc":0.01,"geoidSep":-33.900,"eph":1.239,"sep":19.974}
{"class":"SKY","device":"/dev/ttyACM0","time":"2025-05-16T17:00:03.000Z","xdop":0.55,"ydop":0.68,"vdop":1.41,"tdop":1.03,"hdop":0.81,"gdop":1.92,"pdop":1.63,"nSat":37,"uSat":17,"satellites":[{"PRN":4,"el":5.0,"az":58.0,"ss":7.0,"used":false,"gnssid":0,"svid":4,"health":1},{"PRN":5,"el":4.0,"az":198.0,"ss":46.0,"used":false,"gnssid":0,"svid":5,"health":1},{"PRN":6,"el":66.0,"az":35.0,"ss":8.0,"used":false,"gnssid":0,"svid":6,"health":1},{"PRN":9,"el":8.0,"az":90.0,"ss":0.0,"used":false,"gnssid":0,"svid":9,"health":1},{"PRN":11,"el":71.0,"az":266.0,"ss":42.0,"used":true,"gnssid":0,"svid":11,"health":1},{"PRN":12,"el":51.0,"az":297.0,"ss":37.0,"used":true,"gnssid":0,"svid":12,"health":1},{"PRN":17,"el":22.0,"az":101.0,"ss":21.0,"used":false,"gnssid":0,"svid":17,"health":1},{"PRN":19,"el":47.0,"az":89.0,"ss":9.0,"used":true,"gnssid":0,"svid":19,"health":1},{"PRN":20,"el":37.0,"az":189.0,"ss":46.0,"used":true,"gnssid":0,"svid":20,"health":1},{"PRN":22,"el":16.0,"az":157.0,"ss":35.0,"used":true,"gnssid":0,"svid":22,"health":1},{"PRN":24,"el":6.0,"az":243.0,"ss":41.0,"used":false,"gnssid":0,"svid":24,"health":1},{"PRN":25,"el":20.0,"az":316.0,"ss":26.0,"used":false,"gnssid":0,"svid":25,"health":1},{"PRN":303,"el":4.0,"az":70.0,"ss":0.0,"used":false,"gnssid":2,"svid":3,"health":1},{"PRN":308,"el":0.0,"az":116.0,"ss":0.0,"used":false,"gnssid":2,"svid":8,"health":1},{"PRN":313,"el":82.0,"az":328.0,"ss":18.0,"used":true,"gnssid":2,"svid":13,"health":1},{"PRN":315,"el":33.0,"az":50.0,"ss":8.0,"used":false,"gnssid":2,"svid":15,"health":1},{"PRN":321,"el":70.0,"az":250.0,"ss":39.0,"used":true,"gnssid":2,"svid":21,"health":1},{"PRN":323,"el":29.0,"az":314.0,"ss":31.0,"used":true,"gnssid":2,"svid":23,"health":1},{"PRN":326,"el":34.0,"az":243.0,"ss":38.0,"used":true,"gnssid":2,"svid":26,"health":1},{"PRN":327,"el":35.0,"az":163.0,"ss":45.0,"used":true,"gnssid":2,"svid":27,"health":1},{"PRN":427,"el":57.0,"az":59.0,"ss":0.0,"used":false,"gnssid":3,"svid":27,"health":1},{"PRN":428,"el":15.0,"az":79.0,"ss":21.0,"used":false,"gnssid":3,"svid":28,"health":1},{"PRN":429,"el":9.0,"az":274.0,"ss":44.0,"used":false,"gnssid":3,"svid":29,"health":1},{"PRN":430,"el":58.0,"az":297.0,"ss":38.0,"used":true,"gnssid":3,"svid":30,"health":1},{"PRN":432,"el":20.0,"az":148.0,"ss":35.0,"used":true,"gnssid":3,"svid":32,"health":1},{"PRN":433,"el":14.0,"az":39.0,"ss":0.0,"used":false,"gnssid":3,"svid":33,"health":1},{"PRN":436,"el":37.0,"az":274.0,"ss":45.0,"used":true,"gnssid":3,"svid":36,"health":1},{"PRN":70,"el":24.0,"az":50.0,"ss":0.0,"used":false,"gnssid":6,"svid":6,"health":1},{"PRN":71,"el":26.0,"az":102.0,"ss":11.0,"used":true,"gnssid":6,"svid":7,"health":1},{"PRN":72,"el":5.0,"az":146.0,"ss":28.0,"used":false,"gnssid":6,"svid":8,"health":1},{"PRN":76,"el":39.0,"az":211.0,"ss":49.0,"used":true,"gnssid":6,"svid":12,"health":1},{"PRN":77,"el":50.0,"az":282.0,"ss":35.0,"used":true,"gnssid":6,"svid":13,"health":1},{"PRN":78,"el":11.0,"az":335.0,"ss":32.0,"used":false,"gnssid":6,"svid":14,"health":1}]}
{"class":"PPS","device":"/dev/pps0","real_sec":1747414804,"real_nsec":0,"clock_sec":1747414803,"clock_nsec":999999571,"precision":-20}
{"class":"TPV","device":"/dev/ttyACM0","mode":3,"time":"2025-05-16T17:00:04.000Z","leapseconds":18,"ept":0.005,"lat":41.880708000,"lon":-87.643864900,"altHAE":253.3390,"altMSL":287.1280,"alt":287.1280,"epx":8.310,"epy":10.172,"epv":1.510,"track":285.2312,"magtrack":20.3877,"magvar":-4.1,"speed":0.001,"climb":0.000,"eps":0.01,"epc":3.02,"ecefx":195524.40,"ecefy":-4752022.55,"ecefz":4235917.06,"ecefvx":0.00,"ecefvy":0.00,"ecefvz":0.00,"ecefpAcc":1.95,"ecefvAcc":0.01,"geoidSep":-33.900,"eph":1.237,"sep":19.974}
{"class":"SKY","device":"/dev/ttyACM0","time":"2025-05-16T17:00:04.000Z","xdop":0.67,"ydop":0.71,"vdop":1.44,"tdop":1.03,"hdop":0.84,"gdop":1.96,"pdop":1.67,"nSat":37,"uSat":16,"satellites":[{"PRN":4,"el":5.0,"az":58.0,"ss":7.0,"used":false,"gnssid":0,"svid":4,"health":1},{"PRN":5,"el":4.0,"az":198.0,"ss":45.0,"used":false,"gnssid":0,"svid":5,"health":1},{"PRN":6,"el":66.0,"az":35.0,"ss":6.0,"used":false,"gnssid":0,"svid":6,"health":1},{"PRN":9,"el":8.0,"az":90.0,"ss":0.0,"used":false,"gnssid":0,"svid":9,"health":1},{"PRN":11,"el":71.0,"az":266.0,"ss":42.0,"used":true,"gnssid":0,"svid":11,"health":1},{"PRN":12,"el":51.0,"az":297.0,"ss":37.0,"used":true,"gnssid":0,"svid":12,"health":1},{"PRN":17,"el":22.0,"az":101.0,"ss":18.0,"used":false,"gnssid":0,"svid":17,"health":1},{"PRN":19,"el":47.0,"az":89.0,"ss":9.0,"used":false,"gnssid":0,"svid":19,"health":1},{"PRN":20,"el":37.0,"az":189.0,"ss":46.0,"used":true,"gnssid":0,"svid":20,"health":1},{"PRN":22,"el":16.0,"az":157.0,"ss":34.0,"used":true,"gnssid":0,"svid":22,"health":1},{"PRN":24,"el":6.0,"az":243.0,"ss":40.0,"used":false,"gnssid":0,"svid":24,"health":1},{"PRN":25,"el":20.0,"az":316.0,"ss":25.0,"used":false,"gnssid":0,"svid":25,"health":1},{"PRN":303,"el":4.0,"az":70.0,"ss":0.0,"used":false,"gnssid":2,"svid":3,"health":1},{"PRN":308,"el":0.0,"az":116.0,"ss":0.0,"used":false,"gnssid":2,"svid":8,"health":1},{"PRN":313,"el":82.0,"az":328.0,"ss":18.0,"used":true,"gnssid":2,"svid":13,"health":1},{"PRN":315,"el":33.0,"az":50.0,"ss":5.0,"used":false,"gnssid":2,"svid":15,"health":1},{"PRN":321,"el":70.0,"az":250.0,"ss":39.0,"used":true,"gnssid":2,"svid":21,"health":1},{"PRN":323,"el":29.0,"az":314.0,"ss":31.0,"used":true,"gnssid":2,"svid":23,"health":1},{"PRN":326,"el":34.0,"az":243.0,"ss":38.0,"used":true,"gnssid":2,"svid":26,"health":1},{"PRN":327,"el":35.0,"az":163.0,"ss":45.0,"used":true,"gnssid":2,"svid":27,"health":1},{"PRN":427,"el":57.0,"az":59.0,"ss":0.0,"used":false,"gnssid":3,"svid":27,"health":1},{"PRN":428,"el":15.0,"az":79.0,"ss":21.0,"used":false,"gnssid":3,"svid":28,"health":1},{"PRN":429,"el":9.0,"az":274.0,"ss":43.0,"used":false,"gnssid":3,"svid":29,"health":1},{"PRN":430,"el":58.0,"az":297.0,"ss":38.0,"used":true,"gnssid":3,"svid":30,"health":1},{"PRN":432,"el":20.0,"az":148.0,"ss":35.0,"used":true,"gnssid":3,"svid":32,"health":1},{"PRN":433,"el":14.0,"az":39.0,"ss":0.0,"used":false,"gnssid":3,"svid":33,"health":1},{"PRN":436,"el":37.0,"az":274.0,"ss":46.0,"used":true,"gnssid":3,"svid":36,"health":1},{"PRN":70,"el":24.0,"az":50.0,"ss":0.0,"used":false,"gnssid":6,"svid":6,"health":1},{"PRN":71,"el":26.0,"az":102.0,"ss":11.0,"used":true,"gnssid":6,"svid":7,"health":1},{"PRN":72,"el":5.0,"az":146.0,"ss":28.0,"used":false,"gnssid":6,"svid":8,"health":1},{"PRN":76,"el":39.0,"az":211.0,"ss":49.0,"used":true,"gnssid":6,"svid":12,"health":1},{"PRN":77,"el":50.0,"az":282.0,"ss":35.0,"used":true,"gnssid":6,"svid":13,"health":1},{"PRN":78,"el":11.0,"az":335.0,"ss":32.0,"used":false,"gnssid":6,"svid":14,"health":1}]}
{"class":"PPS","device":"/dev/pps0","real_sec":1747414805,"real_nsec":0,"clock_sec":1747414804,"clock_nsec":999999908,"precision":-20}
{"class":"TPV","device":"/dev/ttyACM0","mode":3,"time":"2025-05-16T17:00:05.000Z","leapseconds":18,"ept":0.005,"lat":41.880707900,"lon":-87.643864900,"altHAE":253.3420,"altMSL":287.1310,"alt":287.1310,"epx":9.975,"epy":10.611,"epv":1.508,"track":285.2312,"magtrack":20.3877,"magvar":-4.1,"speed":0.001,"climb":0.000,"eps":0.01,"epc":3.02,"ecefx":195524.40,"ecefy":-4752022.55,"ecefz":4235917.05,"ecefvx":0.00,"ecefvy":0.00,"ecefvz":0.00,"ecefpAcc":1.95,"ecefvAcc":0.01,"geoidSep":-33.900,"eph":1.234,"sep":19.974}
{"class":"SKY","device":"/dev/ttyACM0","time":"2025-05-16T17:00:05.000Z","xdop":0.67,"ydop":0.71,"vdop":1.50,"tdop":1.17,"hdop":1.17,"gdop":2.23,"pdop":1.90,"nSat":37,"uSat":16,"satellites":[{"PRN":4,"el":5.0,"az":58.0,"ss":0.0,"used":false,"gnssid":0,"svid":4,"health":1},{"PRN":5,"el":4.0,"az":198.0,"ss":45.0,"used":false,"gnssid":0,"svid":5,"health":1},{"PRN":6,"el":66.0,"az":35.0,"ss":11.0,"used":false,"gnssid":0,"svid":6,"health":1},{"PRN":9,"el":8.0,"az":90.0,"ss":0.0,"used":false,"gnssid":0,"svid":9,"health":1},{"PRN":11,"el":71.0,"az":266.0,"ss":42.0,"used":true,"gnssid":0,"svid":11,"health":1},{"PRN":12,"el":51.0,"az":297.0,"ss":36.0,"used":true,"gnssid":0,"svid":12,"health":1},{"PRN":17,"el":22.0,"az":101.0,"ss":14.0,"used":false,"gnssid":0,"svid":17,"health":1},{"PRN":19,"el":47.0,"az":89.0,"ss":8.0,"used":false,"gnssid":0,"svid":19,"health":1},{"PRN":20,"el":37.0,"az":189.0,"ss":46.0,"used":true,"gnssid":0,"svid":20,"health":1},{"PRN":22,"el":16.0,"az":157.0,"ss":36.0,"used":true,"gnssid":0,"svid":22,"health":1},{"PRN":24,"el":6.0,"az":243.0,"ss":40.0,"used":false,"gnssid":0,"svid":24,"health":1},{"PRN":25,"el":20.0,"az":316.0,"ss":25.0,"used":false,"gnssid":0,"svid":25,"health":1},{"PRN":303,"el":4.0,"az":70.0,"ss":0.0,"used":false,"gnssid":2,"svid":3,"health":1},{"PRN":308,"el":0.0,"az":116.0,"ss":0.0,"used":false,"gnssid":2,"svid":8,"health":1},{"PRN":313,"el":82.0,"az":328.0,"ss":19.0,"used":true,"gnssid":2,"svid":13,"health":1},{"PRN":315,"el":33.0,"az":50.0,"ss":8.0,"used":false,"gnssid":2,"svid":15,"health":1},{"PRN":321,"el":70.0,"az":250.0,"ss":39.0,"used":true,"gnssid":2,"svid":21,"health":1},{"PRN":323,"el":29.0,"az":314.0,"ss":30.0,"used":true,"gnssid":2,"svid":23,"health":1},{"PRN":326,"el":34.0,"az":243.0,"ss":37.0,"used":true,"gnssid":2,"svid":26,"health":1},{"PRN":327,"el":35.0,"az":163.0,"ss":45.0,"used":true,"gnssid":2,"svid":27,"health":1},{"PRN":427,"el":57.0,"az":59.0,"ss":0.0,"used":false,"gnssid":3,"svid":27,"health":1},{"PRN":428,"el":15.0,"az":79.0,"ss":20.0,"used":false,"gnssid":3,"svid":28,"health":1},{"PRN":429,"el":9.0,"az":274.0,"ss":44.0,"used":false,"gnssid":3,"svid":29,"health":1},{"PRN":430,"el":58.0,"az":297.0,"ss":38.0,"used":true,"gnssid":3,"svid":30,"health":1},{"PRN":432,"el":20.0,"az":148.0,"ss":35.0,"used":true,"gnssid":3,"svid":32,"health":1},{"PRN":433,"el":14.0,"az":39.0,"ss":0.0,"used":false,"gnssid":3,"svid":33,"health":1},{"PRN":436,"el":37.0,"az":274.0,"ss":45.0,"used":true,"gnssid":3,"svid":36,"health":1},{"PRN":70,"el":24.0,"az":50.0,"ss":0.0,"used":false,"gnssid":6,"svid":6,"health":1},{"PRN":71,"el":26.0,"az":102.0,"ss":11.0,"used":true,"gnssid":6,"svid":7,"health":1},{"PRN":72,"el":5.0,"az":146.0,"ss":29.0,"used":false,"gnssid":6,"svid":8,"health":1},{"PRN":76,"el":39.0,"az":211.0,"ss":49.0,"used":true,"gnssid":6,"svid":12,"health":1},{"PRN":77,"el":50.0,"az":282.0,"ss":35.0,"used":true,"gnssid":6,"svid":13,"health":1},{"PRN":78,"el":11.0,"az":335.0,"ss":33.0,"used":false,"gnssid":6,"svid":14,"health":1}]}
{"class":"PPS","device":"/dev/pps0","real_sec":1747414806,"real_nsec":0,"clock_sec":1747414806,"clock_nsec":2263,"precision":-20}
{"class":"TPV","device":"/dev/ttyACM0","mode":3,"time":"2025-05-16T17:00:06.000Z","leapseconds":18,"ept":0.005,"lat":41.880707900,"lon":-87.643864900,"altHAE":253.3430,"altMSL":287.1320,"alt":287.1320,"epx":9.975,"epy":10.611,"epv":1.507,"track":285.2312,"magtrack":20.3877,"magvar":-4.1,"speed":0.001,"climb":0.000,"eps":0.01,"epc":3.02,"ecefx":195524.40,"ecefy":-4752022.56,"ecefz":4235917.05,"ecefvx":0.00,"ecefvy":0.00,"ecefvz":0.00,"ecefpAcc":1.95,"ecefvAcc":0.01,"geoidSep":-33.900,"eph":1.232,"sep":19.974}
{"class":"SKY","device":"/dev/ttyACM0","time":"2025-05-16T17:00:06.000Z","xdop":0.67,"ydop":0.71,"vdop":1.45,"tdop":1.03,"hdop":0.92,"gdop":2.01,"pdop":1.72,"nSat":37,"uSat":16,"satellites":[{"PRN":4,"el":5.0,"az":58.0,"ss":0.0,"used":false,"gnssid":0,"svid":4,"health":1},{"PRN":5,"el":4.0,"az":198.0,"ss":45.0,"used":false,"gnssid":0,"svid":5,"health":1},{"PRN":6,"el":66.0,"az":35.0,"ss":11.0,"used":false,"gnssid":0,"svid":6,"health":1},{"PRN":9,"el":8.0,"az":90.0,"ss":0.0,"used":false,"gnssid":0,"svid":9,"health":1},{"PRN":11,"el":71.0,"az":266.0,"ss":42.0,"used":true,"gnssid":0,"svid":11,"health":1},{"PRN":12,"el":51.0,"az":297.0,"ss":37.0,"used":true,"gnssid":0,"svid":12,"health":1},{"PRN":17,"el":22.0,"az":101.0,"ss":23.0,"used":false,"gnssid":0,"svid":17,"health":1},{"PRN":19,"el":47.0,"az":89.0,"ss":7.0,"used":false,"gnssid":0,"svid":19,"health":1},{"PRN":20,"el":37.0,"az":189.0,"ss":46.0,"used":true,"gnssid":0,"svid":20,"health":1},{"PRN":22,"el":16.0,"az":157.0,"ss":35.0,"used":true,"gnssid":0,"svid":22,"health":1},{"PRN":24,"el":6.0,"az":243.0,"ss":39.0,"used":false,"gnssid":0,"svid":24,"health":1},{"PRN":25,"el":20.0,"az":316.0,"ss":25.0,"used":false,"gnssid":0,"svid":25,"health":1},{"PRN":303,"el":4.0,"az":70.0,"ss":0.0,"used":false,"gnssid":2,"svid":3,"health":1},{"PRN":308,"el":0.0,"az":116.0,"ss":0.0,"used":false,"gnssid":2,"svid":8,"health":1},{"PRN":313,"el":82.0,"az":328.0,"ss":19.0,"used":true,"gnssid":2,"svid":13,"health":1},{"PRN":315,"el":33.0,"az":50.0,"ss":9.0,"used":false,"gnssid":2,"svid":15,"health":1},{"PRN":321,"el":70.0,"az":250.0,"ss":39.0,"used":true,"gnssid":2,"svid":21,"health":1},{"PRN":323,"el":29.0,"az":314.0,"ss":30.0,"used":true,"gnssid":2,"svid":23,"health":1},{"PRN":326,"el":34.0,"az":243.0,"ss":37.0,"used":true,"gnssid":2,"svid":26,"health":1},{"PRN":327,"el":35.0,"az":163.0,"ss":45.0,"used":true,"gnssid":2,"svid":27,"health":1},{"PRN":427,"el":57.0,"az":59.0,"ss":0.0,"used":false,"gnssid":3,"svid":27,"health":1},{"PRN":428,"el":15.0,"az":79.0,"ss":17.0,"used":false,"gnssid":3,"svid":28,"health":1},{"PRN":429,"el":9.0,"az":274.0,"ss":44.0,"used":false,"gnssid":3,"svid":29,"health":1},{"PRN":430,"el":58.0,"az":297.0,"ss":39.0,"used":true,"gnssid":3,"svid":30,"health":1},{"PRN":432,"el":20.0,"az":148.0,"ss":35.0,"used":true,"gnssid":3,"svid":32,"health":1},{"PRN":433,"el":14.0,"az":39.0,"ss":0.0,"used":false,"gnssid":3,"svid":33,"health":1},{"PRN":436,"el":37.0,"az":274.0,"ss":45.0,"used":true,"gnssid":3,"svid":36,"health":1},{"PRN":70,"el":24.0,"az":50.0,"ss":0.0,"used":false,"gnssid":6,"svid":6,"health":1},{"PRN":71,"el":26.0,"az":102.0,"ss":11.0,"used":true,"gnssid":6,"svid":7,"health":1},{"PRN":72,"el":5.0,"az":146.0,"ss":30.0,"used":false,"gnssid":6,"svid":8,"health":1},{"PRN":76,"el":39.0,"az":211.0,"ss":49.0,"used":true,"gnssid":6,"svid":12,"health":1},{"PRN":77,"el":50.0,"az":282.0,"ss":35.0,"used":true,"gnssid":6,"svid":13,"health":1},{"PRN":78,"el":11.0,"az":335.0,"ss":33.0,"used":false,"gnssid":6,"svid":14,"health":1}]}
{"class":"PPS","device":"/dev/pps0","real_sec":1747414807,"real_nsec":0,"clock_sec":1747414806,"clock_nsec":999997599,"precision":-20}
{"class":"TPV","device":"/dev/ttyACM0","mode":3,"time":"2025-05-16T17:00:07.000Z","leapseconds":18,"ept":0.005,"lat":41.880707800,"lon":-87.643865000,"altHAE":253.3480,"altMSL":287.1370,"alt":287.1370,"epx":9.975,"epy":10.611,"epv":1.505,"track":285.2312,"magtrack":20.3877,"magvar":-4.1,"speed":0.001,"climb":0.000,"eps":0.01,"epc":3.01,"ecefx":195524.39,"ecefy":-4752022.56,"ecefz":4235917.05,"ecefvx":0.00,"ecefvy":0.00,"ecefvz":0.00,"ecefpAcc":1.95,"ecefvAcc":0.01,"geoidSep":-33.900,"eph":1.230,"sep":19.974}
