{"class":"VERSION","release":"3.22","rev":"3.22","proto_major":3,"proto_minor":14}
{"class":"DEVICES","devices":[{"class":"DEVICE","path":"/dev/ttyACM0","driver":"u-blox","subtype":"SW EXT CORE 1.00 (3fda8e),HW 00190000","subtype1":"ROM BASE 0x118B2060,FWVER=TIM 2.20,PROTVER=29.20,MOD=ZED-F9T,GPS;GLO;GAL;BDS,SBAS;QZSS,NAVIC","activated":"2025-05-19T17:00:01.082Z","flags":1,"native":1,"bps":9600,"parity":"N","stopbits":1,"cycle":1.00,"mincycle":0.02},{"class":"DEVICE","path":"/dev/pps0","driver":"PPS","activated":"2025-05-19T17:00:01.001Z"}]}
{"class":"WATCH","enable":true,"json":true,"nmea":false,"raw":0,"scaled":false,"timing":false,"split24":false,"pps":false}
{"class":"PPS","device":"/dev/pps0","real_sec":1747674002,"real_nsec":0,"clock_sec":1747674002,"clock_nsec":689,"precision":-20}
{"class":"TPV","device":"/dev/ttyACM0","mode":3,"time":"2025-05-19T17:00:02.000Z","leapseconds":18,"ept":0.005,"lat":41.880688900,"lon":-87.643852900,"altHAE":261.5020,"altMSL":295.2910,"alt":295.2910,"epx":9.409,"epy":7.850,"epv":1.591,"track":246.8936,"magtrack":242.8388,"magvar":-4.1,"speed":0.004,"climb":-0.017,"eps":0.02,"epc":3.18,"ecefx":195525.67,"ecefy":-4752030.04,"ecefz":4235920.95,"ecefvx":0.00,"ecefvy":0.01,"ecefvz":0.00,"ecefpAcc":2.05,"ecefvAcc":0.02,"geoidSep":-33.900,"eph":1.299,"sep":23.940}
{"class":"SKY","device":"/dev/ttyACM0","time":"2025-05-19T17:00:02.000Z","xdop":0.75,"ydop":0.58,"vdop":0.99,"tdop":0.73,"hdop":0.78,"gdop":1.46,"pdop":1.26,"nSat":39,"uSat":18,"satellites":[{"PRN":4,"el":6.0,"az":52.0,"ss":0.0,"used":false,"gnssid":0,"svid":4,"health":1},{"PRN":5,"el":9.0,"az":198.0,"ss":43.0,"used":false,"gnssid":0,"svid":5,"health":1},{"PRN":6,"el":60.0,"az":40.0,"ss":9.0,"used":true,"gnssid":0,"svid":6,"health":1},{"PRN":9,"el":11.0,"az":85.0,"ss":0.0,"used":false,"gnssid":0,"svid":9,"health":1},{"PRN":11,"el":75.0,"az":283.0,"ss":37.0,"used":true,"gnssid":0,"svid":11,"health":1},{"PRN":12,"el":54.0,"az":288.0,"ss":42.0,"used":true,"gnssid":0,"svid":12,"health":1},{"PRN":17,"el":18.0,"az":105.0,"ss":0.0,"used":false,"gnssid":0,"svid":17,"health":1},{"PRN":19,"el":42.0,"az":95.0,"ss":0.0,"used":false,"gnssid":0,"svid":19,"health":1},{"PRN":20,"el":43.0,"az":189.0,"ss":44.0,"used":true,"gnssid":0,"svid":20,"health":1},{"PRN":22,"el":11.0,"az":158.0,"ss":35.0,"used":true,"gnssid":0,"svid":22,"health":1},{"PRN":24,"el":2.0,"az":239.0,"ss":37.0,"used":false,"gnssid":0,"svid":24,"health":1},{"PRN":25,"el":24.0,"az":313.0,"ss":22.0,"used":true,"gnssid":0,"svid":25,"health":1},{"PRN":303,"el":1.0,"az":29.0,"ss":0.0,"used":false,"gnssid":2,"svid":3,"health":1},{"PRN":307,"el":1.0,"az":122.0,"ss":0.0,"used":false,"gnssid":2,"svid":7,"health":1},{"PRN":308,"el":7.0,"az":75.0,"ss":0.0,"used":false,"gnssid":2,"svid":8,"health":1},{"PRN":313,"el":40.0,"az":49.0,"ss":7.0,"used":false,"gnssid":2,"svid":13,"health":1},{"PRN":321,"el":40.0,"az":171.0,"ss":46.0,"used":true,"gnssid":2,"svid":21,"health":1},{"PRN":323,"el":66.0,"az":264.0,"ss":44.0,"used":true,"gnssid":2,"svid":23,"health":1},{"PRN":326,"el":78.0,"az":291.0,"ss":31.0,"used":true,"gnssid":2,"svid":26,"health":1},{"PRN":331,"el":24.0,"az":316.0,"ss":26.0,"used":true,"gnssid":2,"svid":31,"health":1},{"PRN":333,"el":30.0,"az":246.0,"ss":41.0,"used":true,"gnssid":2,"svid":33,"health":1},{"PRN":411,"el":63.0,"az":309.0,"ss":32.0,"used":true,"gnssid":3,"svid":11,"health":1},{"PRN":421,"el":35.0,"az":113.0,"ss":0.0,"used":false,"gnssid":3,"svid":21,"health":1},{"PRN":422,"el":24.0,"az":54.0,"ss":0.0,"used":false,"gnssid":3,"svid":22,"health":1},{"PRN":423,"el":29.0,"az":292.0,"ss":43.0,"used":true,"gnssid":3,"svid":23,"health":1},{"PRN":424,"el":5.0,"az":184.0,"ss":43.0,"used":false,"gnssid":3,"svid":24,"health":1},{"PRN":425,"el":32.0,"az":233.0,"ss":45.0,"used":true,"gnssid":3,"svid":25,"health":1},{"PRN":434,"el":73.0,"az":19.0,"ss":0.0,"used":false,"gnssid":3,"svid":34,"health":1},{"PRN":437,"el":1.0,"az":333.0,"ss":0.0,"used":false,"gnssid":3,"svid":37,"health":1},{"PRN":65,"el":21.0,"az":40.0,"ss":24.0,"used":false,"gnssid":6,"svid":1,"health":1},{"PRN":66,"el":30.0,"az":94.0,"ss":14.0,"used":false,"gnssid":6,"svid":2,"health":1},{"PRN":67,"el":9.0,"az":146.0,"ss":37.0,"used":false,"gnssid":6,"svid":3,"health":1},{"PRN":73,"el":13.0,"az":333.0,"ss":21.0,"used":false,"gnssid":6,"svid":9,"health":1},{"PRN":79,"el":33.0,"az":207.0,"ss":40.0,"used":true,"gnssid":6,"svid":15,"health":1}]}
{"class":"PPS","device":"/dev/pps0","real_sec":1747674003,"real_nsec":0,"clock_sec":1747674003,"clock_nsec":883,"precision":-20}
{"class":"TPV","device":"/dev/ttyACM0","mode":3,"time":"2025-05-19T17:00:03.000Z","leapseconds":18,"ept":0.005,"lat":41.880689000,"lon":-87.643852500,"altHAE":261.4530,"altMSL":295.2420,"alt":295.2420,"epx":11.236,"epy":8.666,"epv":1.590,"track":246.8936,"magtrack":242.8388,"magvar":-4.1,"speed":0.005,"climb":-0.017,"eps":0.02,"epc":3.18,"ecefx":195525.70,"ecefy":-4752029.99,"ecefz":4235920.93,"ecefvx":0.00,"ecefvy":0.01,"ecefvz":0.00,"ecefpAcc":2.05,"ecefvAcc":0.02,"geoidSep":-33.900,"eph":1.298,"sep":23.940}
{"class":"SKY","device":"/dev/ttyACM0","time":"2025-05-19T17:00:03.000Z","xdop":0.94,"ydop":0.66,"vdop":1.02,"tdop":0.81,"hdop":0.90,"gdop":1.58,"pdop":1.36,"nSat":39,"uSat":17,"satellites":[{"PRN":4,"el":6.0,"az":52.0,"ss":0.0,"used":false,"gnssid":0,"svid":4,"health":1},{"PRN":5,"el":9.0,"az":198.0,"ss":43.0,"used":false,"gnssid":0,"svid":5,"health":1},{"PRN":6,"el":60.0,"az":40.0,"ss":12.0,"used":false,"gnssid":0,"svid":6,"health":1},{"PRN":9,"el":11.0,"az":85.0,"ss":0.0,"used":false,"gnssid":0,"svid":9,"health":1},{"PRN":11,"el":75.0,"az":283.0,"ss":37.0,"used":true,"gnssid":0,"svid":11,"health":1},{"PRN":12,"el":54.0,"az":288.0,"ss":42.0,"used":true,"gnssid":0,"svid":12,"health":1},{"PRN":17,"el":18.0,"az":105.0,"ss":23.0,"used":false,"gnssid":0,"svid":17,"health":1},{"PRN":19,"el":42.0,"az":95.0,"ss":0.0,"used":false,"gnssid":0,"svid":19,"health":1},{"PRN":20,"el":43.0,"az":189.0,"ss":45.0,"used":true,"gnssid":0,"svid":20,"health":1},{"PRN":22,"el":11.0,"az":158.0,"ss":36.0,"used":true,"gnssid":0,"svid":22,"health":1},{"PRN":24,"el":2.0,"az":239.0,"ss":37.0,"used":false,"gnssid":0,"svid":24,"health":1},{"PRN":25,"el":24.0,"az":313.0,"ss":22.0,"used":true,"gnssid":0,"svid":25,"health":1},{"PRN":303,"el":1.0,"az":29.0,"ss":0.0,"used":false,"gnssid":2,"svid":3,"health":1},{"PRN":307,"el":1.0,"az":122.0,"ss":0.0,"used":false,"gnssid":2,"svid":7,"health":1},{"PRN":308,"el":7.0,"az":75.0,"ss":0.0,"used":false,"gnssid":2,"svid":8,"health":1},{"PRN":313,"el":40.0,"az":49.0,"ss":7.0,"used":false,"gnssid":2,"svid":13,"health":1},{"PRN":321,"el":40.0,"az":171.0,"ss":46.0,"used":true,"gnssid":2,"svid":21,"health":1},{"PRN":323,"el":66.0,"az":264.0,"ss":44.0,"used":true,"gnssid":2,"svid":23,"health":1},{"PRN":326,"el":78.0,"az":291.0,"ss":31.0,"used":true,"gnssid":2,"svid":26,"health":1},{"PRN":331,"el":24.0,"az":316.0,"ss":26.0,"used":true,"gnssid":2,"svid":31,"health":1},{"PRN":333,"el":30.0,"az":246.0,"ss":41.0,"used":true,"gnssid":2,"svid":33,"health":1},{"PRN":411,"el":63.0,"az":309.0,"ss":32.0,"used":true,"gnssid":3,"svid":11,"health":1},{"PRN":421,"el":35.0,"az":113.0,"ss":0.0,"used":false,"gnssid":3,"svid":21,"health":1},{"PRN":422,"el":24.0,"az":54.0,"ss":15.0,"used":false,"gnssid":3,"svid":22,"health":1},{"PRN":423,"el":29.0,"az":292.0,"ss":43.0,"used":true,"gnssid":3,"svid":23,"health":1},{"PRN":424,"el":5.0,"az":184.0,"ss":42.0,"used":false,"gnssid":3,"svid":24,"health":1},{"PRN":425,"el":32.0,"az":232.0,"ss":45.0,"used":true,"gnssid":3,"svid":25,"health":1},{"PRN":434,"el":73.0,"az":19.0,"ss":0.0,"used":false,"gnssid":3,"svid":34,"health":1},{"PRN":437,"el":1.0,"az":333.0,"ss":0.0,"used":false,"gnssid":3,"svid":37,"health":1},{"PRN":65,"el":21.0,"az":40.0,"ss":22.0,"used":false,"gnssid":6,"svid":1,"health":1},{"PRN":66,"el":30.0,"az":94.0,"ss":0.0,"used":false,"gnssid":6,"svid":2,"health":1},{"PRN":67,"el":9.0,"az":146.0,"ss":36.0,"used":false,"gnssid":6,"svid":3,"health":1},{"PRN":73,"el":13.0,"az":333.0,"ss":21.0,"used":false,"gnssid":6,"svid":9,"health":1},{"PRN":79,"el":33.0,"az":207.0,"ss":40.0,"used":true,"gnssid":6,"svid":15,"health":1}]}
{"class":"PPS","device":"/dev/pps0","real_sec":1747674004,"real_nsec":0,"clock_sec":1747674004,"clock_nsec":1318,"precision":-20}
{"class":"TPV","device":"/dev/ttyACM0","mode":3,"time":"2025-05-19T17:00:04.000Z","leapseconds":18,"ept":0.005,"lat":41.880689100,"lon":-87.643852100,"altHAE":261.3970,"altMSL":295.1860,"alt":295.1860,"epx":14.131,"epy":9.940,"epv":1.589,"track":246.8936,"magtrack":242.8388,"magvar":-4.1,"speed":0.005,"climb":-0.017,"eps":0.02,"epc":3.18,"ecefx":195525.73,"ecefy":-4752029.95,"ecefz":4235920.91,"ecefvx":0.00,"ecefvy":0.01,"ecefvz":0.00,"ecefpAcc":2.05,"ecefvAcc":0.02,"geoidSep":-33.900,"eph":1.297,"sep":23.940}
{"class":"SKY","device":"/dev/ttyACM0","time":"2025-05-19T17:00:04.000Z","xdop":0.94,"ydop":0.66,"vdop":1.02,"tdop":0.87,"hdop":1.08,"gdop":1.72,"pdop":1.48,"nSat":39,"uSat":17,"satellites":[{"PRN":4,"el":6.0,"az":52.0,"ss":0.0,"used":false,"gnssid":0,"svid":4,"health":1},{"PRN":5,"el":9.0,"az":198.0,"ss":45.0,"used":false,"gnssid":0,"svid":5,"health":1},{"PRN":6,"el":60.0,"az":40.0,"ss":10.0,"used":false,"gnssid":0,"svid":6,"health":1},{"PRN":9,"el":11.0,"az":85.0,"ss":0.0,"used":false,"gnssid":0,"svid":9,"health":1},{"PRN":11,"el":75.0,"az":283.0,"ss":37.0,"used":true,"gnssid":0,"svid":11,"health":1},{"PRN":12,"el":54.0,"az":288.0,"ss":42.0,"used":true,"gnssid":0,"svid":12,"health":1},{"PRN":17,"el":18.0,"az":105.0,"ss":21.0,"used":false,"gnssid":0,"svid":17,"health":1},{"PRN":19,"el":42.0,"az":95.0,"ss":0.0,"used":false,"gnssid":0,"svid":19,"health":1},{"PRN":20,"el":43.0,"az":189.0,"ss":45.0,"used":true,"gnssid":0,"svid":20,"health":1},{"PRN":22,"el":11.0,"az":158.0,"ss":36.0,"used":true,"gnssid":0,"svid":22,"health":1},{"PRN":24,"el":2.0,"az":239.0,"ss":37.0,"used":false,"gnssid":0,"svid":24,"health":1},{"PRN":25,"el":24.0,"az":313.0,"ss":22.0,"used":true,"gnssid":0,"svid":25,"health":1},{"PRN":303,"el":1.0,"az":29.0,"ss":0.0,"used":false,"gnssid":2,"svid":3,"health":1},{"PRN":307,"el":1.0,"az":122.0,"ss":0.0,"used":false,"gnssid":2,"svid":7,"health":1},{"PRN":308,"el":7.0,"az":75.0,"ss":0.0,"used":false,"gnssid":2,"svid":8,"health":1},{"PRN":313,"el":40.0,"az":49.0,"ss":8.0,"used":false,"gnssid":2,"svid":13,"health":1},{"PRN":321,"el":40.0,"az":171.0,"ss":46.0,"used":true,"gnssid":2,"svid":21,"health":1},{"PRN":323,"el":66.0,"az":264.0,"ss":44.0,"used":true,"gnssid":2,"svid":23,"health":1},{"PRN":326,"el":78.0,"az":291.0,"ss":31.0,"used":true,"gnssid":2,"svid":26,"health":1},{"PRN":331,"el":24.0,"az":316.0,"ss":25.0,"used":true,"gnssid":2,"svid":31,"health":1},{"PRN":333,"el":30.0,"az":246.0,"ss":40.0,"used":true,"gnssid":2,"svid":33,"health":1},{"PRN":411,"el":63.0,"az":309.0,"ss":32.0,"used":true,"gnssid":3,"svid":11,"health":1},{"PRN":421,"el":35.0,"az":113.0,"ss":0.0,"used":false,"gnssid":3,"svid":21,"health":1},{"PRN":422,"el":24.0,"az":54.0,"ss":14.0,"used":false,"gnssid":3,"svid":22,"health":1},{"PRN":423,"el":29.0,"az":292.0,"ss":43.0,"used":true,"gnssid":3,"svid":23,"health":1},{"PRN":424,"el":5.0,"az":184.0,"ss":40.0,"used":false,"gnssid":3,"svid":24,"health":1},{"PRN":425,"el":32.0,"az":232.0,"ss":45.0,"used":true,"gnssid":3,"svid":25,"health":1},{"PRN":434,"el":73.0,"az":19.0,"ss":0.0,"used":false,"gnssid":3,"svid":34,"health":1},{"PRN":437,"el":1.0,"az":333.0,"ss":0.0,"used":false,"gnssid":3,"svid":37,"health":1},{"PRN":65,"el":21.0,"az":40.0,"ss":21.0,"used":false,"gnssid":6,"svid":1,"health":1},{"PRN":66,"el":30.0,"az":94.0,"ss":0.0,"used":false,"gnssid":6,"svid":2,"health":1},{"PRN":67,"el":9.0,"az":146.0,"ss":36.0,"used":false,"gnssid":6,"svid":3,"health":1},{"PRN":73,"el":13.0,"az":333.0,"ss":20.0,"used":false,"gnssid":6,"svid":9,"health":1},{"PRN":79,"el":33.0,"az":207.0,"ss":40.0,"used":true,"gnssid":6,"svid":15,"health":1}]}
{"class":"PPS","device":"/dev/pps0","real_sec":1747674005,"real_nsec":0,"clock_sec":1747674005,"clock_nsec":1197,"precision":-20}
{"class":"TPV","device":"/dev/ttyACM0","mode":3,"time":"2025-05-19T17:00:05.000Z","leapseconds":18,"ept":0.005,"lat":41.880689300,"lon":-87.643851700,"altHAE":261.3470,"altMSL":295.1360,"alt":295.1360,"epx":14.131,"epy":9.940,"epv":1.588,"track":246.8936,"magtrack":242.8388,"magvar":-4.1,"speed":0.006,"climb":-0.017,"eps":0.02,"epc":3.18,"ecefx":195525.76,"ecefy":-4752029.90,"ecefz":4235920.88,"ecefvx":0.00,"ecefvy":0.01,"ecefvz":0.00,"ecefpAcc":2.05,"ecefvAcc":0.02,"geoidSep":-33.900,"eph":1.296,"sep":23.940}
{"class":"SKY","device":"/dev/ttyACM0","time":"2025-05-19T17:00:05.000Z","xdop":0.63,"ydop":0.52,"vdop":1.02,"tdop":0.87,"hdop":1.08,"gdop":1.72,"pdop":1.48,"nSat":39,"uSat":18,"satellites":[{"PRN":4,"el":6.0,"az":52.0,"ss":0.0,"used":false,"gnssid":0,"svid":4,"health":1},{"PRN":5,"el":9.0,"az":198.0,"ss":45.0,"used":false,"gnssid":0,"svid":5,"health":1},{"PRN":6,"el":60.0,"az":40.0,"ss":8.0,"used":false,"gnssid":0,"svid":6,"health":1},{"PRN":9,"el":11.0,"az":85.0,"ss":0.0,"used":false,"gnssid":0,"svid":9,"health":1},{"PRN":11,"el":75.0,"az":283.0,"ss":37.0,"used":true,"gnssid":0,"svid":11,"health":1},{"PRN":12,"el":54.0,"az":288.0,"ss":42.0,"used":true,"gnssid":0,"svid":12,"health":1},{"PRN":17,"el":18.0,"az":105.0,"ss":19.0,"used":false,"gnssid":0,"svid":17,"health":1},{"PRN":19,"el":42.0,"az":95.0,"ss":0.0,"used":false,"gnssid":0,"svid":19,"health":1},{"PRN":20,"el":43.0,"az":189.0,"ss":45.0,"used":true,"gnssid":0,"svid":20,"health":1},{"PRN":22,"el":11.0,"az":158.0,"ss":37.0,"used":true,"gnssid":0,"svid":22,"health":1},{"PRN":24,"el":2.0,"az":239.0,"ss":37.0,"used":false,"gnssid":0,"svid":24,"health":1},{"PRN":25,"el":24.0,"az":313.0,"ss":22.0,"used":true,"gnssid":0,"svid":25,"health":1},{"PRN":303,"el":1.0,"az":29.0,"ss":0.0,"used":false,"gnssid":2,"svid":3,"health":1},{"PRN":307,"el":1.0,"az":122.0,"ss":0.0,"used":false,"gnssid":2,"svid":7,"health":1},{"PRN":308,"el":7.0,"az":75.0,"ss":0.0,"used":false,"gnssid":2,"svid":8,"health":1},{"PRN":313,"el":40.0,"az":49.0,"ss":10.0,"used":true,"gnssid":2,"svid":13,"health":1},{"PRN":321,"el":40.0,"az":171.0,"ss":46.0,"used":true,"gnssid":2,"svid":21,"health":1},{"PRN":323,"el":66.0,"az":264.0,"ss":44.0,"used":true,"gnssid":2,"svid":23,"health":1},{"PRN":326,"el":78.0,"az":291.0,"ss":31.0,"used":true,"gnssid":2,"svid":26,"health":1},{"PRN":331,"el":24.0,"az":316.0,"ss":25.0,"used":true,"gnssid":2,"svid":31,"health":1},{"PRN":333,"el":30.0,"az":246.0,"ss":41.0,"used":true,"gnssid":2,"svid":33,"health":1},{"PRN":411,"el":63.0,"az":309.0,"ss":32.0,"used":true,"gnssid":3,"svid":11,"health":1},{"PRN":421,"el":35.0,"az":113.0,"ss":0.0,"used":false,"gnssid":3,"svid":21,"health":1},{"PRN":422,"el":24.0,"az":54.0,"ss":13.0,"used":false,"gnssid":3,"svid":22,"health":1},{"PRN":423,"el":29.0,"az":292.0,"ss":43.0,"used":true,"gnssid":3,"svid":23,"health":1},{"PRN":424,"el":5.0,"az":184.0,"ss":40.0,"used":false,"gnssid":3,"svid":24,"health":1},{"PRN":425,"el":32.0,"az":232.0,"ss":45.0,"used":true,"gnssid":3,"svid":25,"health":1},{"PRN":434,"el":73.0,"az":19.0,"ss":0.0,"used":false,"gnssid":3,"svid":34,"health":1},{"PRN":437,"el":1.0,"az":333.0,"ss":0.0,"used":false,"gnssid":3,"svid":37,"health":1},{"PRN":65,"el":21.0,"az":40.0,"ss":21.0,"used":false,"gnssid":6,"svid":1,"health":1},{"PRN":66,"el":30.0,"az":94.0,"ss":0.0,"used":false,"gnssid":6,"svid":2,"health":1},{"PRN":67,"el":9.0,"az":146.0,"ss":37.0,"used":false,"gnssid":6,"svid":3,"health":1},{"PRN":73,"el":13.0,"az":333.0,"ss":17.0,"used":false,"gnssid":6,"svid":9,"health":1},{"PRN":79,"el":33.0,"az":207.0,"ss":40.0,"used":true,"gnssid":6,"svid":15,"health":1}]}
{"class":"PPS","device":"/dev/pps0","real_sec":1747674006,"real_nsec":0,"clock_sec":1747674006,"clock_nsec":1447,"precision":-20}
{"class":"TPV","device":"/dev/ttyACM0","mode":3,"time":"2025-05-19T17:00:06.000Z","leapseconds":18,"ept":0.005,"lat":41.880689300,"lon":-87.643851400,"altHAE":261.3070,"altMSL":295.0960,"alt":295.0960,"epx":9.417,"epy":7.841,"epv":1.588,"track":246.8936,"magtrack":242.8388,"magvar":-4.1,"speed":0.006,"climb":-0.017,"eps":0.02,"epc":3.18,"ecefx":195525.79,"ecefy":-4752029.85,"ecefz":4235920.85,"ecefvx":0.00,"ecefvy":0.01,"ecefvz":0.00,"ecefpAcc":2.05,"ecefvAcc":0.02,"geoidSep":-33.900,"eph":1.296,"sep":23.940}
{"class":"SKY","device":"/dev/ttyACM0","time":"2025-05-19T17:00:06.000Z","xdop":0.63,"ydop":0.52,"vdop":0.99,"tdop":0.73,"hdop":0.78,"gdop":1.46,"pdop":1.26,"nSat":39,"uSat":18,"satellites":[{"PRN":4,"el":6.0,"az":52.0,"ss":0.0,"used":false,"gnssid":0,"svid":4,"health":1},{"PRN":5,"el":9.0,"az":198.0,"ss":44.0,"used":false,"gnssid":0,"svid":5,"health":1},{"PRN":6,"el":60.0,"az":40.0,"ss":10.0,"used":false,"gnssid":0,"svid":6,"health":1},{"PRN":9,"el":11.0,"az":85.0,"ss":0.0,"used":false,"gnssid":0,"svid":9,"health":1},{"PRN":11,"el":75.0,"az":283.0,"ss":37.0,"used":true,"gnssid":0,"svid":11,"health":1},{"PRN":12,"el":54.0,"az":288.0,"ss":42.0,"used":true,"gnssid":0,"svid":12,"health":1},{"PRN":17,"el":18.0,"az":105.0,"ss":18.0,"used":false,"gnssid":0,"svid":17,"health":1},{"PRN":19,"el":42.0,"az":95.0,"ss":0.0,"used":false,"gnssid":0,"svid":19,"health":1},{"PRN":20,"el":43.0,"az":189.0,"ss":45.0,"used":true,"gnssid":0,"svid":20,"health":1},{"PRN":22,"el":11.0,"az":158.0,"ss":36.0,"used":true,"gnssid":0,"svid":22,"health":1},{"PRN":24,"el":2.0,"az":239.0,"ss":37.0,"used":false,"gnssid":0,"svid":24,"health":1},{"PRN":25,"el":24.0,"az":313.0,"ss":23.0,"used":true,"gnssid":0,"svid":25,"health":1},{"PRN":303,"el":1.0,"az":29.0,"ss":0.0,"used":false,"gnssid":2,"svid":3,"health":1},{"PRN":307,"el":1.0,"az":122.0,"ss":0.0,"used":false,"gnssid":2,"svid":7,"health":1},{"PRN":308,"el":7.0,"az":75.0,"ss":0.0,"used":false,"gnssid":2,"svid":8,"health":1},{"PRN":313,"el":40.0,"az":49.0,"ss":10.0,"used":true,"gnssid":2,"svid":13,"health":1},{"PRN":321,"el":40.0,"az":171.0,"ss":46.0,"used":true,"gnssid":2,"svid":21,"health":1},{"PRN":323,"el":66.0,"az":264.0,"ss":44.0,"used":true,"gnssid":2,"svid":23,"health":1},{"PRN":326,"el":78.0,"az":291.0,"ss":31.0,"used":true,"gnssid":2,"svid":26,"health":1},{"PRN":331,"el":24.0,"az":316.0,"ss":25.0,"used":true,"gnssid":2,"svid":31,"health":1},{"PRN":333,"el":30.0,"az":246.0,"ss":41.0,"used":true,"gnssid":2,"svid":33,"health":1},{"PRN":411,"el":63.0,"az":309.0,"ss":32.0,"used":true,"gnssid":3,"svid":11,"health":1},{"PRN":421,"el":35.0,"az":113.0,"ss":0.0,"used":false,"gnssid":3,"svid":21,"health":1},{"PRN":422,"el":24.0,"az":54.0,"ss":13.0,"used":false,"gnssid":3,"svid":22,"health":1},{"PRN":423,"el":29.0,"az":292.0,"ss":43.0,"used":true,"gnssid":3,"svid":23,"health":1},{"PRN":424,"el":5.0,"az":184.0,"ss":37.0,"used":false,"gnssid":3,"svid":24,"health":1},{"PRN":425,"el":32.0,"az":232.0,"ss":45.0,"used":true,"gnssid":3,"svid":25,"health":1},{"PRN":434,"el":73.0,"az":19.0,"ss":0.0,"used":false,"gnssid":3,"svid":34,"health":1},{"PRN":437,"el":1.0,"az":333.0,"ss":0.0,"used":false,"gnssid":3,"svid":37,"health":1},{"PRN":65,"el":21.0,"az":40.0,"ss":19.0,"used":false,"gnssid":6,"svid":1,"health":1},{"PRN":66,"el":30.0,"az":94.0,"ss":0.0,"used":false,"gnssid":6,"svid":2,"health":1},{"PRN":67,"el":9.0,"az":146.0,"ss":37.0,"used":false,"gnssid":6,"svid":3,"health":1},{"PRN":73,"el":13.0,"az":333.0,"ss":15.0,"used":false,"gnssid":6,"svid":9,"health":1},{"PRN":79,"el":33.0,"az":207.0,"ss":41.0,"used":true,"gnssid":6,"svid":15,"health":1}]}
{"class":"PPS","device":"/dev/pps0","real_sec":1747674007,"real_nsec":0,"clock_sec":1747674006,"clock_nsec":999999696,"precision":-20}
{"class":"TPV","device":"/dev/ttyACM0","mode":3,"time":"2025-05-19T17:00:07.000Z","leapseconds":18,"ept":0.005,"lat":41.880689400,"lon":-87.643851300,"altHAE":261.2900,"altMSL":295.0790,"alt":295.0790,"epx":9.417,"epy":7.841,"epv":1.588,"track":246.8936,"magtrack":242.8388,"magvar":-4.1,"speed":0.006,"climb":-0.017,"eps":0.02,"epc":3.18,"ecefx":195525.81,"ecefy":-4752029.81,"ecefz":4235920.83,"ecefvx":0.01,"ecefvy":0.01,"ecefvz":0.00,"ecefpAcc":2.05,"ecefvAcc":0.02,"geoidSep":-33.900,"eph":1.295,"sep":23.940}
