{"class":"VERSION","release":"3.22","rev":"3.22","proto_major":3,"proto_minor":14}
{"class":"DEVICES","devices":[{"class":"DEVICE","path":"/dev/ttyACM0","driver":"u-blox","subtype":"SW EXT CORE 1.00 (3fda8e),HW 00190000","subtype1":"ROM BASE 0x118B2060,FWVER=TIM 2.20,PROTVER=29.20,MOD=ZED-F9T,GPS;GLO;GAL;BDS,SBAS;QZSS,NAVIC","activated":"2025-05-20T05:00:01.060Z","flags":1,"native":1,"bps":9600,"parity":"N","stopbits":1,"cycle":1.00,"mincycle":0.02},{"class":"DEVICE","path":"/dev/pps0","driver":"PPS","activated":"2025-05-20T05:00:01.001Z"}]}
{"class":"WATCH","enable":true,"json":true,"nmea":false,"raw":0,"scaled":false,"timing":false,"split24":false,"pps":false}
{"class":"PPS","device":"/dev/pps0","real_sec":1747717202,"real_nsec":0,"clock_sec":1747717201,"clock_nsec":999997188,"precision":-20}
{"class":"TPV","device":"/dev/ttyACM0","mode":3,"time":"2025-05-20T05:00:02.000Z","leapseconds":18,"ept":0.005,"lat":41.880696500,"lon":-87.643862400,"altHAE":263.9450,"altMSL":297.7340,"alt":297.7340,"epx":19.337,"epy":15.381,"epv":9.001,"track":246.8936,"magtrack":242.8388,"magvar":-4.1,"speed":0.000,"climb":-0.017,"eps":0.03,"epc":18.00,"ecefx":195524.99,"ecefy":-4752031.26,"ecefz":4235923.18,"ecefvx":0.00,"ecefvy":0.00,"ecefvz":0.00,"ecefpAcc":13.65,"ecefvAcc":0.03,"geoidSep":-33.900,"eph":10.287,"sep":23.940}
{"class":"SKY","device":"/dev/ttyACM0","time":"2025-05-20T05:00:02.000Z","xdop":1.29,"ydop":1.05,"vdop":1.87,"tdop":1.53,"hdop":1.42,"gdop":2.81,"pdop":2.35,"nSat":37,"uSat":7,"satellites":[{"PRN":1,"el":13.0,"az":251.0,"ss":20.0,"used":true,"gnssid":0,"svid":1,"health":1},{"PRN":2,"el":0.0,"az":229.0,"ss":14.0,"used":false,"gnssid":0,"svid":2,"health":1},{"PRN":3,"el":52.0,"az":291.0,"ss":23.0,"used":false,"gnssid":0,"svid":3,"health":1},{"PRN":4,"el":20.0,"az":299.0,"ss":0.0,"used":false,"gnssid":0,"svid":4,"health":1},{"PRN":16,"el":23.0,"az":184.0,"ss":20.0,"used":true,"gnssid":0,"svid":16,"health":1},{"PRN":25,"el":14.0,"az":41.0,"ss":0.0,"used":false,"gnssid":0,"svid":25,"health":1},{"PRN":26,"el":53.0,"az":168.0,"ss":25.0,"used":true,"gnssid":0,"svid":26,"health":1},{"PRN":28,"el":53.0,"az":50.0,"ss":10.0,"used":true,"gnssid":0,"svid":28,"health":1},{"PRN":29,"el":7.0,"az":78.0,"ss":0.0,"used":false,"gnssid":0,"svid":29,"health":1},{"PRN":31,"el":79.0,"az":4.0,"ss":11.0,"used":true,"gnssid":0,"svid":31,"health":1},{"PRN":32,"el":31.0,"az":107.0,"ss":9.0,"used":false,"gnssid":0,"svid":32,"health":1},{"PRN":304,"el":32.0,"az":99.0,"ss":13.0,"used":false,"gnssid":2,"svid":4,"health":1},{"PRN":305,"el":37.0,"az":300.0,"ss":10.0,"used":false,"gnssid":2,"svid":5,"health":1},{"PRN":306,"el":57.0,"az":88.0,"ss":6.0,"used":false,"gnssid":2,"svid":6,"health":1},{"PRN":309,"el":76.0,"az":36.0,"ss":8.0,"used":false,"gnssid":2,"svid":9,"health":1},{"PRN":315,"el":4.0,"az":336.0,"ss":0.0,"used":false,"gnssid":2,"svid":15,"health":1},{"PRN":316,"el":8.0,"az":193.0,"ss":21.0,"used":false,"gnssid":2,"svid":16,"health":1},{"PRN":323,"el":28.0,"az":48.0,"ss":0.0,"used":false,"gnssid":2,"svid":23,"health":1},{"PRN":324,"el":29.0,"az":179.0,"ss":22.0,"used":false,"gnssid":2,"svid":24,"health":1},{"PRN":331,"el":56.0,"az":111.0,"ss":9.0,"used":false,"gnssid":2,"svid":31,"health":1},{"PRN":334,"el":18.0,"az":289.0,"ss":0.0,"used":false,"gnssid":2,"svid":34,"health":1},{"PRN":336,"el":13.0,"az":238.0,"ss":20.0,"used":true,"gnssid":2,"svid":36,"health":1},{"PRN":419,"el":33.0,"az":313.0,"ss":0.0,"used":false,"gnssid":3,"svid":19,"health":1},{"PRN":420,"el":84.0,"az":277.0,"ss":20.0,"used":false,"gnssid":3,"svid":20,"health":1},{"PRN":423,"el":25.0,"az":49.0,"ss":0.0,"used":false,"gnssid":3,"svid":23,"health":1},{"PRN":432,"el":35.0,"az":139.0,"ss":23.0,"used":false,"gnssid":3,"svid":32,"health":1},{"PRN":437,"el":76.0,"az":74.0,"ss":0.0,"used":false,"gnssid":3,"svid":37,"health":1},{"PRN":65,"el":48.0,"az":328.0,"ss":8.0,"used":false,"gnssid":6,"svid":1,"health":1},{"PRN":66,"el":2.0,"az":317.0,"ss":8.0,"used":false,"gnssid":6,"svid":2,"health":1},{"PRN":71,"el":16.0,"az":129.0,"ss":8.0,"used":false,"gnssid":6,"svid":7,"health":1},{"PRN":72,"el":65.0,"az":105.0,"ss":0.0,"used":false,"gnssid":6,"svid":8,"health":1},{"PRN":73,"el":9.0,"az":35.0,"ss":0.0,"used":false,"gnssid":6,"svid":9,"health":1},{"PRN":74,"el":55.0,"az":39.0,"ss":10.0,"used":false,"gnssid":6,"svid":10,"health":1},{"PRN":75,"el":66.0,"az":200.0,"ss":32.0,"used":true,"gnssid":6,"svid":11,"health":1},{"PRN":76,"el":8.0,"az":210.0,"ss":29.0,"used":false,"gnssid":6,"svid":12,"health":1}]}
{"class":"PPS","device":"/dev/pps0","real_sec":1747717203,"real_nsec":0,"clock_sec":1747717202,"clock_nsec":999999150,"precision":-20}
{"class":"TPV","device":"/dev/ttyACM0","mode":3,"time":"2025-05-20T05:00:03.000Z","leapseconds":18,"ept":0.005,"lat":41.880695700,"lon":-87.643863500,"altHAE":264.0210,"altMSL":297.8100,"alt":297.8100,"epx":19.408,"epy":15.768,"epv":9.007,"track":246.8936,"magtrack":242.8388,"magvar":-4.1,"speed":0.001,"climb":-0.017,"eps":0.03,"epc":18.01,"ecefx":195524.96,"ecefy":-4752031.28,"ecefz":4235923.19,"ecefvx":0.00,"ecefvy":0.00,"ecefvz":0.00,"ecefpAcc":13.67,"ecefvAcc":0.03,"geoidSep":-33.900,"eph":10.306,"sep":23.940}
{"class":"SKY","device":"/dev/ttyACM0","time":"2025-05-20T05:00:03.000Z","xdop":2.65,"ydop":2.23,"vdop":1.90,"tdop":1.53,"hdop":1.44,"gdop":2.83,"pdop":2.38,"nSat":37,"uSat":6,"satellites":[{"PRN":1,"el":13.0,"az":251.0,"ss":19.0,"used":true,"gnssid":0,"svid":1,"health":1},{"PRN":2,"el":0.0,"az":229.0,"ss":9.0,"used":false,"gnssid":0,"svid":2,"health":1},{"PRN":3,"el":52.0,"az":291.0,"ss":23.0,"used":false,"gnssid":0,"svid":3,"health":1},{"PRN":4,"el":20.0,"az":299.0,"ss":0.0,"used":false,"gnssid":0,"svid":4,"health":1},{"PRN":16,"el":23.0,"az":184.0,"ss":20.0,"used":true,"gnssid":0,"svid":16,"health":1},{"PRN":25,"el":14.0,"az":41.0,"ss":0.0,"used":false,"gnssid":0,"svid":25,"health":1},{"PRN":26,"el":53.0,"az":168.0,"ss":26.0,"used":true,"gnssid":0,"svid":26,"health":1},{"PRN":28,"el":53.0,"az":50.0,"ss":7.0,"used":false,"gnssid":0,"svid":28,"health":1},{"PRN":29,"el":7.0,"az":78.0,"ss":0.0,"used":false,"gnssid":0,"svid":29,"health":1},{"PRN":31,"el":79.0,"az":4.0,"ss":9.0,"used":true,"gnssid":0,"svid":31,"health":1},{"PRN":32,"el":31.0,"az":107.0,"ss":9.0,"used":false,"gnssid":0,"svid":32,"health":1},{"PRN":304,"el":32.0,"az":99.0,"ss":11.0,"used":false,"gnssid":2,"svid":4,"health":1},{"PRN":305,"el":37.0,"az":300.0,"ss":14.0,"used":false,"gnssid":2,"svid":5,"health":1},{"PRN":306,"el":57.0,"az":88.0,"ss":8.0,"used":false,"gnssid":2,"svid":6,"health":1},{"PRN":309,"el":76.0,"az":36.0,"ss":7.0,"used":false,"gnssid":2,"svid":9,"health":1},{"PRN":315,"el":4.0,"az":336.0,"ss":0.0,"used":false,"gnssid":2,"svid":15,"health":1},{"PRN":316,"el":8.0,"az":193.0,"ss":21.0,"used":false,"gnssid":2,"svid":16,"health":1},{"PRN":323,"el":28.0,"az":48.0,"ss":0.0,"used":false,"gnssid":2,"svid":23,"health":1},{"PRN":324,"el":29.0,"az":179.0,"ss":22.0,"used":false,"gnssid":2,"svid":24,"health":1},{"PRN":331,"el":56.0,"az":111.0,"ss":10.0,"used":false,"gnssid":2,"svid":31,"health":1},{"PRN":334,"el":18.0,"az":289.0,"ss":0.0,"used":false,"gnssid":2,"svid":34,"health":1},{"PRN":336,"el":13.0,"az":238.0,"ss":20.0,"used":true,"gnssid":2,"svid":36,"health":1},{"PRN":419,"el":33.0,"az":313.0,"ss":0.0,"used":false,"gnssid":3,"svid":19,"health":1},{"PRN":420,"el":84.0,"az":277.0,"ss":20.0,"used":false,"gnssid":3,"svid":20,"health":1},{"PRN":423,"el":25.0,"az":49.0,"ss":0.0,"used":false,"gnssid":3,"svid":23,"health":1},{"PRN":432,"el":35.0,"az":139.0,"ss":23.0,"used":false,"gnssid":3,"svid":32,"health":1},{"PRN":437,"el":76.0,"az":74.0,"ss":0.0,"used":false,"gnssid":3,"svid":37,"health":1},{"PRN":65,"el":48.0,"az":328.0,"ss":7.0,"used":false,"gnssid":6,"svid":1,"health":1},{"PRN":66,"el":2.0,"az":317.0,"ss":8.0,"used":false,"gnssid":6,"svid":2,"health":1},{"PRN":71,"el":16.0,"az":129.0,"ss":9.0,"used":false,"gnssid":6,"svid":7,"health":1},{"PRN":72,"el":65.0,"az":105.0,"ss":0.0,"used":false,"gnssid":6,"svid":8,"health":1},{"PRN":73,"el":9.0,"az":35.0,"ss":0.0,"used":false,"gnssid":6,"svid":9,"health":1},{"PRN":74,"el":54.0,"az":38.0,"ss":8.0,"used":false,"gnssid":6,"svid":10,"health":1},{"PRN":75,"el":66.0,"az":200.0,"ss":32.0,"used":true,"gnssid":6,"svid":11,"health":1},{"PRN":76,"el":8.0,"az":210.0,"ss":30.0,"used":false,"gnssid":6,"svid":12,"health":1}]}
{"class":"PPS","device":"/dev/pps0","real_sec":1747717204,"real_nsec":0,"clock_sec":1747717203,"clock_nsec":999999482,"precision":-20}
{"class":"TPV","device":"/dev/ttyACM0","mode":3,"time":"2025-05-20T05:00:04.000Z","leapseconds":18,"ept":0.005,"lat":41.880695900,"lon":-87.643863900,"altHAE":264.0410,"altMSL":297.8300,"alt":297.8300,"epx":39.751,"epy":33.380,"epv":9.015,"track":246.8936,"magtrack":242.8388,"magvar":-4.1,"speed":0.001,"climb":-0.017,"eps":0.03,"epc":18.02,"ecefx":195524.88,"ecefy":-4752031.40,"ecefz":4235923.17,"ecefvx":0.00,"ecefvy":0.00,"ecefvz":0.00,"ecefpAcc":13.69,"ecefvAcc":0.03,"geoidSep":-33.900,"eph":10.326,"sep":23.940}
{"class":"SKY","device":"/dev/ttyACM0","time":"2025-05-20T05:00:04.000Z","xdop":1.28,"ydop":1.03,"vdop":2.77,"tdop":2.79,"hdop":2.47,"gdop":4.64,"pdop":3.71,"nSat":37,"uSat":8,"satellites":[{"PRN":1,"el":13.0,"az":251.0,"ss":20.0,"used":true,"gnssid":0,"svid":1,"health":1},{"PRN":2,"el":0.0,"az":229.0,"ss":9.0,"used":false,"gnssid":0,"svid":2,"health":1},{"PRN":3,"el":52.0,"az":291.0,"ss":23.0,"used":false,"gnssid":0,"svid":3,"health":1},{"PRN":4,"el":20.0,"az":299.0,"ss":0.0,"used":false,"gnssid":0,"svid":4,"health":1},{"PRN":16,"el":23.0,"az":184.0,"ss":19.0,"used":true,"gnssid":0,"svid":16,"health":1},{"PRN":25,"el":14.0,"az":41.0,"ss":0.0,"used":false,"gnssid":0,"svid":25,"health":1},{"PRN":26,"el":53.0,"az":168.0,"ss":25.0,"used":true,"gnssid":0,"svid":26,"health":1},{"PRN":28,"el":53.0,"az":50.0,"ss":10.0,"used":true,"gnssid":0,"svid":28,"health":1},{"PRN":29,"el":7.0,"az":78.0,"ss":0.0,"used":false,"gnssid":0,"svid":29,"health":1},{"PRN":31,"el":79.0,"az":4.0,"ss":10.0,"used":true,"gnssid":0,"svid":31,"health":1},{"PRN":32,"el":31.0,"az":107.0,"ss":9.0,"used":false,"gnssid":0,"svid":32,"health":1},{"PRN":304,"el":32.0,"az":99.0,"ss":10.0,"used":false,"gnssid":2,"svid":4,"health":1},{"PRN":305,"el":37.0,"az":300.0,"ss":11.0,"used":false,"gnssid":2,"svid":5,"health":1},{"PRN":306,"el":57.0,"az":88.0,"ss":10.0,"used":false,"gnssid":2,"svid":6,"health":1},{"PRN":309,"el":76.0,"az":36.0,"ss":10.0,"used":true,"gnssid":2,"svid":9,"health":1},{"PRN":315,"el":4.0,"az":336.0,"ss":0.0,"used":false,"gnssid":2,"svid":15,"health":1},{"PRN":316,"el":8.0,"az":193.0,"ss":21.0,"used":false,"gnssid":2,"svid":16,"health":1},{"PRN":323,"el":28.0,"az":48.0,"ss":0.0,"used":false,"gnssid":2,"svid":23,"health":1},{"PRN":324,"el":29.0,"az":179.0,"ss":22.0,"used":false,"gnssid":2,"svid":24,"health":1},{"PRN":331,"el":56.0,"az":111.0,"ss":11.0,"used":false,"gnssid":2,"svid":31,"health":1},{"PRN":334,"el":18.0,"az":289.0,"ss":0.0,"used":false,"gnssid":2,"svid":34,"health":1},{"PRN":336,"el":13.0,"az":238.0,"ss":20.0,"used":true,"gnssid":2,"svid":36,"health":1},{"PRN":419,"el":33.0,"az":313.0,"ss":0.0,"used":false,"gnssid":3,"svid":19,"health":1},{"PRN":420,"el":84.0,"az":277.0,"ss":20.0,"used":false,"gnssid":3,"svid":20,"health":1},{"PRN":423,"el":25.0,"az":49.0,"ss":0.0,"used":false,"gnssid":3,"svid":23,"health":1},{"PRN":432,"el":35.0,"az":139.0,"ss":23.0,"used":false,"gnssid":3,"svid":32,"health":1},{"PRN":437,"el":76.0,"az":74.0,"ss":0.0,"used":false,"gnssid":3,"svid":37,"health":1},{"PRN":65,"el":48.0,"az":328.0,"ss":8.0,"used":false,"gnssid":6,"svid":1,"health":1},{"PRN":66,"el":2.0,"az":317.0,"ss":9.0,"used":false,"gnssid":6,"svid":2,"health":1},{"PRN":71,"el":16.0,"az":129.0,"ss":11.0,"used":false,"gnssid":6,"svid":7,"health":1},{"PRN":72,"el":65.0,"az":105.0,"ss":0.0,"used":false,"gnssid":6,"svid":8,"health":1},{"PRN":73,"el":9.0,"az":35.0,"ss":0.0,"used":false,"gnssid":6,"svid":9,"health":1},{"PRN":74,"el":54.0,"az":38.0,"ss":10.0,"used":false,"gnssid":6,"svid":10,"health":1},{"PRN":75,"el":67.0,"az":201.0,"ss":31.0,"used":true,"gnssid":6,"svid":11,"health":1},{"PRN":76,"el":8.0,"az":210.0,"ss":30.0,"used":false,"gnssid":6,"svid":12,"health":1}]}
{"class":"PPS","device":"/dev/pps0","real_sec":1747717205,"real_nsec":0,"clock_sec":1747717204,"clock_nsec":999998499,"precision":-20}
{"class":"TPV","device":"/dev/ttyACM0","mode":3,"time":"2025-05-20T05:00:05.000Z","leapseconds":18,"ept":0.005,"lat":41.880696000,"lon":-87.643864100,"altHAE":264.0450,"altMSL":297.8340,"alt":297.8340,"epx":19.257,"epy":15.446,"epv":9.027,"track":246.8936,"magtrack":242.8388,"magvar":-4.1,"speed":0.001,"climb":-0.017,"eps":0.03,"epc":18.04,"ecefx":195524.84,"ecefy":-4752031.40,"ecefz":4235923.20,"ecefvx":0.00,"ecefvy":0.00,"ecefvz":0.00,"ecefpAcc":13.71,"ecefvAcc":0.03,"geoidSep":-33.900,"eph":10.348,"sep":23.940}
{"class":"SKY","device":"/dev/ttyACM0","time":"2025-05-20T05:00:05.000Z","xdop":1.29,"ydop":1.06,"vdop":1.87,"tdop":1.53,"hdop":1.42,"gdop":2.81,"pdop":2.35,"nSat":37,"uSat":7,"satellites":[{"PRN":1,"el":13.0,"az":251.0,"ss":20.0,"used":true,"gnssid":0,"svid":1,"health":1},{"PRN":2,"el":0.0,"az":229.0,"ss":10.0,"used":false,"gnssid":0,"svid":2,"health":1},{"PRN":3,"el":52.0,"az":291.0,"ss":22.0,"used":false,"gnssid":0,"svid":3,"health":1},{"PRN":4,"el":20.0,"az":299.0,"ss":0.0,"used":false,"gnssid":0,"svid":4,"health":1},{"PRN":16,"el":23.0,"az":184.0,"ss":17.0,"used":true,"gnssid":0,"svid":16,"health":1},{"PRN":25,"el":14.0,"az":41.0,"ss":0.0,"used":false,"gnssid":0,"svid":25,"health":1},{"PRN":26,"el":53.0,"az":168.0,"ss":26.0,"used":true,"gnssid":0,"svid":26,"health":1},{"PRN":28,"el":53.0,"az":50.0,"ss":11.0,"used":true,"gnssid":0,"svid":28,"health":1},{"PRN":29,"el":7.0,"az":78.0,"ss":0.0,"used":false,"gnssid":0,"svid":29,"health":1},{"PRN":31,"el":79.0,"az":4.0,"ss":9.0,"used":true,"gnssid":0,"svid":31,"health":1},{"PRN":32,"el":31.0,"az":107.0,"ss":11.0,"used":false,"gnssid":0,"svid":32,"health":1},{"PRN":304,"el":32.0,"az":99.0,"ss":10.0,"used":false,"gnssid":2,"svid":4,"health":1},{"PRN":305,"el":37.0,"az":300.0,"ss":11.0,"used":false,"gnssid":2,"svid":5,"health":1},{"PRN":306,"el":57.0,"az":88.0,"ss":9.0,"used":false,"gnssid":2,"svid":6,"health":1},{"PRN":309,"el":76.0,"az":36.0,"ss":8.0,"used":false,"gnssid":2,"svid":9,"health":1},{"PRN":315,"el":4.0,"az":336.0,"ss":0.0,"used":false,"gnssid":2,"svid":15,"health":1},{"PRN":316,"el":8.0,"az":193.0,"ss":21.0,"used":false,"gnssid":2,"svid":16,"health":1},{"PRN":323,"el":28.0,"az":48.0,"ss":0.0,"used":false,"gnssid":2,"svid":23,"health":1},{"PRN":324,"el":29.0,"az":179.0,"ss":22.0,"used":false,"gnssid":2,"svid":24,"health":1},{"PRN":331,"el":56.0,"az":111.0,"ss":10.0,"used":false,"gnssid":2,"svid":31,"health":1},{"PRN":334,"el":18.0,"az":289.0,"ss":0.0,"used":false,"gnssid":2,"svid":34,"health":1},{"PRN":336,"el":13.0,"az":238.0,"ss":20.0,"used":true,"gnssid":2,"svid":36,"health":1},{"PRN":419,"el":33.0,"az":313.0,"ss":0.0,"used":false,"gnssid":3,"svid":19,"health":1},{"PRN":420,"el":84.0,"az":277.0,"ss":20.0,"used":false,"gnssid":3,"svid":20,"health":1},{"PRN":423,"el":25.0,"az":49.0,"ss":0.0,"used":false,"gnssid":3,"svid":23,"health":1},{"PRN":432,"el":35.0,"az":139.0,"ss":23.0,"used":false,"gnssid":3,"svid":32,"health":1},{"PRN":437,"el":76.0,"az":74.0,"ss":0.0,"used":false,"gnssid":3,"svid":37,"health":1},{"PRN":65,"el":48.0,"az":328.0,"ss":0.0,"used":false,"gnssid":6,"svid":1,"health":1},{"PRN":66,"el":2.0,"az":317.0,"ss":8.0,"used":false,"gnssid":6,"svid":2,"health":1},{"PRN":71,"el":16.0,"az":129.0,"ss":13.0,"used":false,"gnssid":6,"svid":7,"health":1},{"PRN":72,"el":65.0,"az":105.0,"ss":0.0,"used":false,"gnssid":6,"svid":8,"health":1},{"PRN":73,"el":9.0,"az":35.0,"ss":0.0,"used":false,"gnssid":6,"svid":9,"health":1},{"PRN":74,"el":54.0,"az":38.0,"ss":5.0,"used":false,"gnssid":6,"svid":10,"health":1},{"PRN":75,"el":67.0,"az":201.0,"ss":31.0,"used":true,"gnssid":6,"svid":11,"health":1},{"PRN":76,"el":9.0,"az":210.0,"ss":30.0,"used":false,"gnssid":6,"svid":12,"health":1}]}
{"class":"PPS","device":"/dev/pps0","real_sec":1747717206,"real_nsec":0,"clock_sec":1747717205,"clock_nsec":999997609,"precision":-20}
{"class":"TPV","device":"/dev/ttyACM0","mode":3,"time":"2025-05-20T05:00:06.000Z","leapseconds":18,"ept":0.005,"lat":41.880697900,"lon":-87.643862300,"altHAE":263.8270,"altMSL":297.6160,"alt":297.6160,"epx":19.319,"epy":15.830,"epv":9.028,"track":246.8936,"magtrack":242.8388,"magvar":-4.1,"speed":0.001,"climb":-0.017,"eps":0.03,"epc":18.06,"ecefx":195524.83,"ecefy":-4752031.40,"ecefz":4235923.21,"ecefvx":0.00,"ecefvy":0.00,"ecefvz":0.00,"ecefpAcc":13.73,"ecefvAcc":0.03,"geoidSep":-33.900,"eph":10.353,"sep":23.940}
{"class":"SKY","device":"/dev/ttyACM0","time":"2025-05-20T05:00:06.000Z","xdop":1.34,"ydop":1.05,"vdop":1.90,"tdop":1.53,"hdop":1.44,"gdop":2.83,"pdop":2.38,"nSat":37,"uSat":7,"satellites":[{"PRN":1,"el":13.0,"az":251.0,"ss":20.0,"used":true,"gnssid":0,"svid":1,"health":1},{"PRN":2,"el":0.0,"az":229.0,"ss":11.0,"used":false,"gnssid":0,"svid":2,"health":1},{"PRN":3,"el":52.0,"az":291.0,"ss":22.0,"used":false,"gnssid":0,"svid":3,"health":1},{"PRN":4,"el":20.0,"az":299.0,"ss":0.0,"used":false,"gnssid":0,"svid":4,"health":1},{"PRN":16,"el":23.0,"az":184.0,"ss":16.0,"used":true,"gnssid":0,"svid":16,"health":1},{"PRN":25,"el":14.0,"az":41.0,"ss":0.0,"used":false,"gnssid":0,"svid":25,"health":1},{"PRN":26,"el":53.0,"az":168.0,"ss":25.0,"used":true,"gnssid":0,"svid":26,"health":1},{"PRN":28,"el":53.0,"az":50.0,"ss":10.0,"used":true,"gnssid":0,"svid":28,"health":1},{"PRN":29,"el":7.0,"az":78.0,"ss":0.0,"used":false,"gnssid":0,"svid":29,"health":1},{"PRN":31,"el":79.0,"az":4.0,"ss":7.0,"used":false,"gnssid":0,"svid":31,"health":1},{"PRN":32,"el":31.0,"az":107.0,"ss":11.0,"used":false,"gnssid":0,"svid":32,"health":1},{"PRN":304,"el":32.0,"az":99.0,"ss":9.0,"used":false,"gnssid":2,"svid":4,"health":1},{"PRN":305,"el":37.0,"az":300.0,"ss":12.0,"used":false,"gnssid":2,"svid":5,"health":1},{"PRN":306,"el":57.0,"az":88.0,"ss":6.0,"used":false,"gnssid":2,"svid":6,"health":1},{"PRN":309,"el":76.0,"az":36.0,"ss":9.0,"used":true,"gnssid":2,"svid":9,"health":1},{"PRN":315,"el":4.0,"az":336.0,"ss":0.0,"used":false,"gnssid":2,"svid":15,"health":1},{"PRN":316,"el":8.0,"az":193.0,"ss":21.0,"used":false,"gnssid":2,"svid":16,"health":1},{"PRN":323,"el":28.0,"az":48.0,"ss":0.0,"used":false,"gnssid":2,"svid":23,"health":1},{"PRN":324,"el":29.0,"az":179.0,"ss":22.0,"used":false,"gnssid":2,"svid":24,"health":1},{"PRN":331,"el":56.0,"az":111.0,"ss":9.0,"used":false,"gnssid":2,"svid":31,"health":1},{"PRN":334,"el":18.0,"az":289.0,"ss":0.0,"used":false,"gnssid":2,"svid":34,"health":1},{"PRN":336,"el":13.0,"az":238.0,"ss":20.0,"used":true,"gnssid":2,"svid":36,"health":1},{"PRN":419,"el":33.0,"az":313.0,"ss":0.0,"used":false,"gnssid":3,"svid":19,"health":1},{"PRN":420,"el":84.0,"az":277.0,"ss":20.0,"used":false,"gnssid":3,"svid":20,"health":1},{"PRN":423,"el":25.0,"az":49.0,"ss":0.0,"used":false,"gnssid":3,"svid":23,"health":1},{"PRN":432,"el":35.0,"az":139.0,"ss":23.0,"used":false,"gnssid":3,"svid":32,"health":1},{"PRN":437,"el":76.0,"az":74.0,"ss":0.0,"used":false,"gnssid":3,"svid":37,"health":1},{"PRN":65,"el":48.0,"az":328.0,"ss":0.0,"used":false,"gnssid":6,"svid":1,"health":1},{"PRN":66,"el":2.0,"az":317.0,"ss":8.0,"used":false,"gnssid":6,"svid":2,"health":1},{"PRN":71,"el":16.0,"az":129.0,"ss":8.0,"used":false,"gnssid":6,"svid":7,"health":1},{"PRN":72,"el":65.0,"az":105.0,"ss":0.0,"used":false,"gnssid":6,"svid":8,"health":1},{"PRN":73,"el":9.0,"az":35.0,"ss":0.0,"used":false,"gnssid":6,"svid":9,"health":1},{"PRN":74,"el":54.0,"az":38.0,"ss":9.0,"used":false,"gnssid":6,"svid":10,"health":1},{"PRN":75,"el":67.0,"az":201.0,"ss":31.0,"used":true,"gnssid":6,"svid":11,"health":1},{"PRN":76,"el":9.0,"az":210.0,"ss":30.0,"used":false,"gnssid":6,"svid":12,"health":1}]}
{"class":"PPS","device":"/dev/pps0","real_sec":1747717207,"real_nsec":0,"clock_sec":1747717206,"clock_nsec":999998089,"precision":-20}
{"class":"TPV","device":"/dev/ttyACM0","mode":3,"time":"2025-05-20T05:00:07.000Z","leapseconds":18,"ept":0.005,"lat":41.880698000,"lon":-87.643862800,"altHAE":263.8340,"altMSL":297.6230,"alt":297.6230,"epx":20.172,"epy":15.764,"epv":9.038,"track":246.8936,"magtrack":242.8388,"magvar":-4.1,"speed":0.001,"climb":-0.017,"eps":0.03,"epc":18.07,"ecefx":195524.96,"ecefy":-4752031.09,"ecefz":4235923.22,"ecefvx":0.00,"ecefvy":0.00,"ecefvz":0.00,"ecefpAcc":13.74,"ecefvAcc":0.03,"geoidSep":-33.900,"eph":10.374,"sep":23.940}
