{"class":"VERSION","release":"3.22","rev":"3.22","proto_major":3,"proto_minor":14}
{"class":"DEVICES","devices":[{"class":"DEVICE","path":"/dev/ttyACM0","driver":"u-blox","subtype":"SW EXT CORE 1.00 (3fda8e),HW 00190000","subtype1":"ROM BASE 0x118B2060,FWVER=TIM 2.20,PROTVER=29.20,MOD=ZED-F9T,GPS;GLO;GAL;BDS,SBAS;QZSS,NAVIC","activated":"2025-05-18T05:00:01.081Z","flags":1,"native":1,"bps":9600,"parity":"N","stopbits":1,"cycle":1.00,"mincycle":0.02},{"class":"DEVICE","path":"/dev/pps0","driver":"PPS","activated":"2025-05-18T05:00:01.000Z"}]}
{"class":"WATCH","enable":true,"json":true,"nmea":false,"raw":0,"scaled":false,"timing":false,"split24":false,"pps":false}
{"class":"PPS","device":"/dev/pps0","real_sec":1747544402,"real_nsec":0,"clock_sec":1747544402,"clock_nsec":1394,"precision":-20}
{"class":"TPV","device":"/dev/ttyACM0","mode":3,"time":"2025-05-18T05:00:02.000Z","leapseconds":18,"ept":0.005,"lat":41.880653300,"lon":-87.643866900,"altHAE":261.6610,"altMSL":295.4500,"alt":295.4500,"epx":8.218,"epy":8.711,"epv":1.427,"track":246.8936,"magtrack":20.3877,"magvar":-4.1,"speed":0.001,"climb":0.000,"eps":0.02,"epc":2.85,"ecefx":195524.66,"ecefy":-4752032.79,"ecefz":4235918.09,"ecefvx":0.00,"ecefvy":0.00,"ecefvz":0.00,"ecefpAcc":2.49,"ecefvAcc":0.02,"geoidSep":-33.900,"eph":2.043,"sep":19.974}
{"class":"SKY","device":"/dev/ttyACM0","time":"2025-05-18T05:00:02.000Z","xdop":0.55,"ydop":0.58,"vdop":1.19,"tdop":0.93,"hdop":0.96,"gdop":1.79,"pdop":1.53,"nSat":37,"uSat":18,"satellites":[{"PRN":1,"el":15.0,"az":254.0,"ss":40.0,"used":true,"gnssid":0,"svid":1,"health":1},{"PRN":2,"el":2.0,"az":231.0,"ss":27.0,"used":false,"gnssid":0,"svid":2,"health":1},{"PRN":3,"el":51.0,"az":296.0,"ss":37.0,"used":true,"gnssid":0,"svid":3,"health":1},{"PRN":4,"el":17.0,"az":297.0,"ss":35.0,"used":true,"gnssid":0,"svid":4,"health":1},{"PRN":10,"el":1.0,"az":158.0,"ss":38.0,"used":false,"gnssid":0,"svid":10,"health":1},{"PRN":16,"el":20.0,"az":184.0,"ss":44.0,"used":true,"gnssid":0,"svid":16,"health":1},{"PRN":25,"el":17.0,"az":42.0,"ss":0.0,"used":false,"gnssid":0,"svid":25,"health":1},{"PRN":26,"el":49.0,"az":171.0,"ss":44.0,"used":true,"gnssid":0,"svid":26,"health":1},{"PRN":28,"el":56.0,"az":48.0,"ss":11.0,"used":true,"gnssid":0,"svid":28,"health":1},{"PRN":29,"el":6.0,"az":81.0,"ss":20.0,"used":false,"gnssid":0,"svid":29,"health":1},{"PRN":31,"el":81.0,"az":346.0,"ss":0.0,"used":false,"gnssid":0,"svid":31,"health":1},{"PRN":32,"el":33.0,"az":104.0,"ss":0.0,"used":false,"gnssid":0,"svid":32,"health":1},{"PRN":307,"el":42.0,"az":94.0,"ss":11.0,"used":false,"gnssid":2,"svid":7,"health":1},{"PRN":310,"el":9.0,"az":325.0,"ss":26.0,"used":false,"gnssid":2,"svid":10,"health":1},{"PRN":312,"el":16.0,"az":304.0,"ss":30.0,"used":true,"gnssid":2,"svid":12,"health":1},{"PRN":319,"el":29.0,"az":297.0,"ss":30.0,"used":true,"gnssid":2,"svid":19,"health":1},{"PRN":321,"el":17.0,"az":185.0,"ss":44.0,"used":true,"gnssid":2,"svid":21,"health":1},{"PRN":326,"el":1.0,"az":206.0,"ss":39.0,"used":false,"gnssid":2,"svid":26,"health":1},{"PRN":327,"el":52.0,"az":134.0,"ss":27.0,"used":true,"gnssid":2,"svid":27,"health":1},{"PRN":329,"el":72.0,"az":337.0,"ss":19.0,"used":true,"gnssid":2,"svid":29,"health":1},{"PRN":330,"el":37.0,"az":58.0,"ss":0.0,"used":false,"gnssid":2,"svid":30,"health":1},{"PRN":333,"el":18.0,"az":249.0,"ss":35.0,"used":true,"gnssid":2,"svid":33,"health":1},{"PRN":419,"el":23.0,"az":136.0,"ss":26.0,"used":true,"gnssid":3,"svid":19,"health":1},{"PRN":421,"el":45.0,"az":312.0,"ss":34.0,"used":true,"gnssid":3,"svid":21,"health":1},{"PRN":422,"el":78.0,"az":146.0,"ss":32.0,"used":true,"gnssid":3,"svid":22,"health":1},{"PRN":426,"el":3.0,"az":223.0,"ss":42.0,"used":false,"gnssid":3,"svid":26,"health":1},{"PRN":436,"el":66.0,"az":63.0,"ss":0.0,"used":false,"gnssid":3,"svid":36,"health":1},{"PRN":69,"el":14.0,"az":126.0,"ss":15.0,"used":true,"gnssid":6,"svid":5,"health":1},{"PRN":70,"el":76.0,"az":76.0,"ss":0.0,"used":false,"gnssid":6,"svid":6,"health":1},{"PRN":71,"el":44.0,"az":327.0,"ss":28.0,"used":false,"gnssid":6,"svid":7,"health":1},{"PRN":73,"el":53.0,"az":203.0,"ss":48.0,"used":true,"gnssid":6,"svid":9,"health":1},{"PRN":74,"el":8.0,"az":209.0,"ss":37.0,"used":false,"gnssid":6,"svid":10,"health":1},{"PRN":79,"el":11.0,"az":33.0,"ss":25.0,"used":false,"gnssid":6,"svid":15,"health":1},{"PRN":80,"el":64.0,"az":44.0,"ss":13.0,"used":true,"gnssid":6,"svid":16,"health":1}]}
{"class":"PPS","device":"/dev/pps0","real_sec":1747544403,"real_nsec":0,"clock_sec":1747544403,"clock_nsec":1699,"precision":-20}
{"class":"TPV","device":"/dev/ttyACM0","mode":3,"time":"2025-05-18T05:00:03.000Z","leapseconds":18,"ept":0.005,"lat":41.880653400,"lon":-87.643867000,"altHAE":261.6620,"altMSL":295.4510,"alt":295.4510,"epx":8.218,"epy":8.711,"epv":1.427,"track":246.8936,"magtrack":20.3877,"magvar":-4.1,"speed":0.001,"climb":0.000,"eps":0.02,"epc":2.85,"ecefx":195524.65,"ecefy":-4752032.80,"ecefz":4235918.09,"ecefvx":0.00,"ecefvy":0.00,"ecefvz":0.00,"ecefpAcc":2.49,"ecefvAcc":0.02,"geoidSep":-33.900,"eph":2.042,"sep":19.974}
{"class":"SKY","device":"/dev/ttyACM0","time":"2025-05-18T05:00:03.000Z","xdop":0.57,"ydop":0.60,"vdop":1.17,"tdop":0.89,"hdop":0.86,"gdop":1.71,"pdop":1.46,"nSat":37,"uSat":17,"satellites":[{"PRN":1,"el":15.0,"az":254.0,"ss":40.0,"used":true,"gnssid":0,"svid":1,"health":1},{"PRN":2,"el":2.0,"az":231.0,"ss":25.0,"used":false,"gnssid":0,"svid":2,"health":1},{"PRN":3,"el":51.0,"az":296.0,"ss":37.0,"used":true,"gnssid":0,"svid":3,"health":1},{"PRN":4,"el":17.0,"az":297.0,"ss":35.0,"used":true,"gnssid":0,"svid":4,"health":1},{"PRN":10,"el":1.0,"az":158.0,"ss":37.0,"used":false,"gnssid":0,"svid":10,"health":1},{"PRN":16,"el":20.0,"az":184.0,"ss":44.0,"used":true,"gnssid":0,"svid":16,"health":1},{"PRN":25,"el":17.0,"az":42.0,"ss":0.0,"used":false,"gnssid":0,"svid":25,"health":1},{"PRN":26,"el":49.0,"az":171.0,"ss":44.0,"used":true,"gnssid":0,"svid":26,"health":1},{"PRN":28,"el":56.0,"az":48.0,"ss":13.0,"used":true,"gnssid":0,"svid":28,"health":1},{"PRN":29,"el":6.0,"az":81.0,"ss":21.0,"used":false,"gnssid":0,"svid":29,"health":1},{"PRN":31,"el":81.0,"az":346.0,"ss":0.0,"used":false,"gnssid":0,"svid":31,"health":1},{"PRN":32,"el":33.0,"az":104.0,"ss":0.0,"used":false,"gnssid":0,"svid":32,"health":1},{"PRN":307,"el":42.0,"az":94.0,"ss":11.0,"used":false,"gnssid":2,"svid":7,"health":1},{"PRN":310,"el":9.0,"az":325.0,"ss":26.0,"used":false,"gnssid":2,"svid":10,"health":1},{"PRN":312,"el":16.0,"az":304.0,"ss":30.0,"used":true,"gnssid":2,"svid":12,"health":1},{"PRN":319,"el":29.0,"az":297.0,"ss":30.0,"used":true,"gnssid":2,"svid":19,"health":1},{"PRN":321,"el":17.0,"az":185.0,"ss":44.0,"used":true,"gnssid":2,"svid":21,"health":1},{"PRN":326,"el":1.0,"az":206.0,"ss":39.0,"used":false,"gnssid":2,"svid":26,"health":1},{"PRN":327,"el":52.0,"az":134.0,"ss":27.0,"used":true,"gnssid":2,"svid":27,"health":1},{"PRN":329,"el":72.0,"az":337.0,"ss":19.0,"used":true,"gnssid":2,"svid":29,"health":1},{"PRN":330,"el":37.0,"az":58.0,"ss":0.0,"used":false,"gnssid":2,"svid":30,"health":1},{"PRN":333,"el":18.0,"az":249.0,"ss":35.0,"used":true,"gnssid":2,"svid":33,"health":1},{"PRN":419,"el":23.0,"az":136.0,"ss":26.0,"used":true,"gnssid":3,"svid":19,"health":1},{"PRN":421,"el":45.0,"az":312.0,"ss":34.0,"used":true,"gnssid":3,"svid":21,"health":1},{"PRN":422,"el":78.0,"az":146.0,"ss":32.0,"used":true,"gnssid":3,"svid":22,"health":1},{"PRN":426,"el":3.0,"az":223.0,"ss":42.0,"used":false,"gnssid":3,"svid":26,"health":1},{"PRN":436,"el":66.0,"az":63.0,"ss":0.0,"used":false,"gnssid":3,"svid":36,"health":1},{"PRN":69,"el":14.0,"az":126.0,"ss":17.0,"used":true,"gnssid":6,"svid":5,"health":1},{"PRN":70,"el":76.0,"az":76.0,"ss":0.0,"used":false,"gnssid":6,"svid":6,"health":1},{"PRN":71,"el":44.0,"az":327.0,"ss":0.0,"used":false,"gnssid":6,"svid":7,"health":1},{"PRN":73,"el":53.0,"az":203.0,"ss":47.0,"used":true,"gnssid":6,"svid":9,"health":1},{"PRN":74,"el":8.0,"az":209.0,"ss":38.0,"used":false,"gnssid":6,"svid":10,"health":1},{"PRN":79,"el":11.0,"az":33.0,"ss":25.0,"used":false,"gnssid":6,"svid":15,"health":1},{"PRN":80,"el":64.0,"az":44.0,"ss":12.0,"used":false,"gnssid":6,"svid":16,"health":1}]}
{"class":"PPS","device":"/dev/pps0","real_sec":1747544404,"real_nsec":0,"clock_sec":1747544404,"clock_nsec":1671,"precision":-20}
{"class":"TPV","device":"/dev/ttyACM0","mode":3,"time":"2025-05-18T05:00:04.000Z","leapseconds":18,"ept":0.005,"lat":41.880653400,"lon":-87.643867000,"altHAE":261.6640,"altMSL":295.4530,"alt":295.4530,"epx":8.502,"epy":9.031,"epv":1.426,"track":246.8936,"magtrack":20.3877,"magvar":-4.1,"speed":0.001,"climb":0.000,"eps":0.02,"epc":2.85,"ecefx":195524.65,"ecefy":-4752032.79,"ecefz":4235918.10,"ecefvx":0.00,"ecefvy":0.00,"ecefvz":0.00,"ecefpAcc":2.49,"ecefvAcc":0.02,"geoidSep":-33.900,"eph":2.042,"sep":19.974}
{"class":"SKY","device":"/dev/ttyACM0","time":"2025-05-18T05:00:04.000Z","xdop":0.63,"ydop":0.67,"vdop":1.17,"tdop":0.90,"hdop":0.91,"gdop":1.73,"pdop":1.48,"nSat":37,"uSat":16,"satellites":[{"PRN":1,"el":15.0,"az":254.0,"ss":39.0,"used":true,"gnssid":0,"svid":1,"health":1},{"PRN":2,"el":2.0,"az":231.0,"ss":26.0,"used":false,"gnssid":0,"svid":2,"health":1},{"PRN":3,"el":51.0,"az":296.0,"ss":36.0,"used":true,"gnssid":0,"svid":3,"health":1},{"PRN":4,"el":17.0,"az":297.0,"ss":35.0,"used":true,"gnssid":0,"svid":4,"health":1},{"PRN":10,"el":1.0,"az":158.0,"ss":36.0,"used":false,"gnssid":0,"svid":10,"health":1},{"PRN":16,"el":20.0,"az":184.0,"ss":44.0,"used":true,"gnssid":0,"svid":16,"health":1},{"PRN":25,"el":17.0,"az":42.0,"ss":0.0,"used":false,"gnssid":0,"svid":25,"health":1},{"PRN":26,"el":49.0,"az":171.0,"ss":43.0,"used":true,"gnssid":0,"svid":26,"health":1},{"PRN":28,"el":56.0,"az":48.0,"ss":7.0,"used":false,"gnssid":0,"svid":28,"health":1},{"PRN":29,"el":6.0,"az":81.0,"ss":21.0,"used":false,"gnssid":0,"svid":29,"health":1},{"PRN":31,"el":81.0,"az":346.0,"ss":0.0,"used":false,"gnssid":0,"svid":31,"health":1},{"PRN":32,"el":33.0,"az":104.0,"ss":25.0,"used":false,"gnssid":0,"svid":32,"health":1},{"PRN":307,"el":42.0,"az":94.0,"ss":11.0,"used":false,"gnssid":2,"svid":7,"health":1},{"PRN":310,"el":9.0,"az":325.0,"ss":26.0,"used":false,"gnssid":2,"svid":10,"health":1},{"PRN":312,"el":16.0,"az":304.0,"ss":30.0,"used":true,"gnssid":2,"svid":12,"health":1},{"PRN":319,"el":29.0,"az":297.0,"ss":30.0,"used":true,"gnssid":2,"svid":19,"health":1},{"PRN":321,"el":17.0,"az":185.0,"ss":44.0,"used":true,"gnssid":2,"svid":21,"health":1},{"PRN":326,"el":1.0,"az":206.0,"ss":39.0,"used":false,"gnssid":2,"svid":26,"health":1},{"PRN":327,"el":52.0,"az":134.0,"ss":28.0,"used":true,"gnssid":2,"svid":27,"health":1},{"PRN":329,"el":72.0,"az":337.0,"ss":19.0,"used":true,"gnssid":2,"svid":29,"health":1},{"PRN":330,"el":37.0,"az":58.0,"ss":0.0,"used":false,"gnssid":2,"svid":30,"health":1},{"PRN":333,"el":18.0,"az":249.0,"ss":35.0,"used":true,"gnssid":2,"svid":33,"health":1},{"PRN":419,"el":23.0,"az":136.0,"ss":25.0,"used":true,"gnssid":3,"svid":19,"health":1},{"PRN":421,"el":45.0,"az":312.0,"ss":34.0,"used":true,"gnssid":3,"svid":21,"health":1},{"PRN":422,"el":78.0,"az":146.0,"ss":32.0,"used":true,"gnssid":3,"svid":22,"health":1},{"PRN":426,"el":3.0,"az":223.0,"ss":40.0,"used":false,"gnssid":3,"svid":26,"health":1},{"PRN":436,"el":66.0,"az":63.0,"ss":0.0,"used":false,"gnssid":3,"svid":36,"health":1},{"PRN":69,"el":14.0,"az":126.0,"ss":19.0,"used":true,"gnssid":6,"svid":5,"health":1},{"PRN":70,"el":76.0,"az":76.0,"ss":0.0,"used":false,"gnssid":6,"svid":6,"health":1},{"PRN":71,"el":44.0,"az":327.0,"ss":0.0,"used":false,"gnssid":6,"svid":7,"health":1},{"PRN":73,"el":53.0,"az":203.0,"ss":47.0,"used":true,"gnssid":6,"svid":9,"health":1},{"PRN":74,"el":8.0,"az":209.0,"ss":38.0,"used":false,"gnssid":6,"svid":10,"health":1},{"PRN":79,"el":11.0,"az":33.0,"ss":25.0,"used":false,"gnssid":6,"svid":15,"health":1},{"PRN":80,"el":64.0,"az":44.0,"ss":10.0,"used":false,"gnssid":6,"svid":16,"health":1}]}
{"class":"PPS","device":"/dev/pps0","real_sec":1747544405,"real_nsec":0,"clock_sec":1747544405,"clock_nsec":939,"precision":-20}
{"class":"TPV","device":"/dev/ttyACM0","mode":3,"time":"2025-05-18T05:00:05.000Z","leapseconds":18,"ept":0.005,"lat":41.880653300,"lon":-87.643867000,"altHAE":261.6670,"altMSL":295.4560,"alt":295.4560,"epx":9.480,"epy":10.049,"epv":1.427,"track":246.8936,"magtrack":20.3877,"magvar":-4.1,"speed":0.000,"climb":0.000,"eps":0.01,"epc":2.85,"ecefx":195524.64,"ecefy":-4752032.80,"ecefz":4235918.10,"ecefvx":0.00,"ecefvy":0.00,"ecefvz":0.00,"ecefpAcc":2.49,"ecefvAcc":0.02,"geoidSep":-33.900,"eph":2.043,"sep":19.974}
{"class":"SKY","device":"/dev/ttyACM0","time":"2025-05-18T05:00:05.000Z","xdop":0.55,"ydop":0.58,"vdop":1.19,"tdop":0.97,"hdop":1.06,"gdop":1.86,"pdop":1.59,"nSat":37,"uSat":18,"satellites":[{"PRN":1,"el":15.0,"az":254.0,"ss":40.0,"used":true,"gnssid":0,"svid":1,"health":1},{"PRN":2,"el":2.0,"az":231.0,"ss":27.0,"used":false,"gnssid":0,"svid":2,"health":1},{"PRN":3,"el":51.0,"az":296.0,"ss":36.0,"used":true,"gnssid":0,"svid":3,"health":1},{"PRN":4,"el":17.0,"az":297.0,"ss":34.0,"used":true,"gnssid":0,"svid":4,"health":1},{"PRN":10,"el":1.0,"az":158.0,"ss":37.0,"used":false,"gnssid":0,"svid":10,"health":1},{"PRN":16,"el":20.0,"az":184.0,"ss":44.0,"used":true,"gnssid":0,"svid":16,"health":1},{"PRN":25,"el":17.0,"az":42.0,"ss":0.0,"used":false,"gnssid":0,"svid":25,"health":1},{"PRN":26,"el":49.0,"az":171.0,"ss":43.0,"used":true,"gnssid":0,"svid":26,"health":1},{"PRN":28,"el":56.0,"az":48.0,"ss":11.0,"used":true,"gnssid":0,"svid":28,"health":1},{"PRN":29,"el":6.0,"az":81.0,"ss":22.0,"used":false,"gnssid":0,"svid":29,"health":1},{"PRN":31,"el":81.0,"az":346.0,"ss":0.0,"used":false,"gnssid":0,"svid":31,"health":1},{"PRN":32,"el":33.0,"az":104.0,"ss":22.0,"used":false,"gnssid":0,"svid":32,"health":1},{"PRN":307,"el":42.0,"az":94.0,"ss":7.0,"used":false,"gnssid":2,"svid":7,"health":1},{"PRN":310,"el":9.0,"az":325.0,"ss":26.0,"used":false,"gnssid":2,"svid":10,"health":1},{"PRN":312,"el":16.0,"az":304.0,"ss":30.0,"used":true,"gnssid":2,"svid":12,"health":1},{"PRN":319,"el":29.0,"az":297.0,"ss":31.0,"used":true,"gnssid":2,"svid":19,"health":1},{"PRN":321,"el":17.0,"az":185.0,"ss":44.0,"used":true,"gnssid":2,"svid":21,"health":1},{"PRN":326,"el":1.0,"az":206.0,"ss":39.0,"used":false,"gnssid":2,"svid":26,"health":1},{"PRN":327,"el":52.0,"az":134.0,"ss":28.0,"used":true,"gnssid":2,"svid":27,"health":1},{"PRN":329,"el":72.0,"az":337.0,"ss":19.0,"used":true,"gnssid":2,"svid":29,"health":1},{"PRN":330,"el":37.0,"az":58.0,"ss":0.0,"used":false,"gnssid":2,"svid":30,"health":1},{"PRN":333,"el":18.0,"az":249.0,"ss":35.0,"used":true,"gnssid":2,"svid":33,"health":1},{"PRN":419,"el":23.0,"az":136.0,"ss":26.0,"used":true,"gnssid":3,"svid":19,"health":1},{"PRN":421,"el":45.0,"az":312.0,"ss":35.0,"used":true,"gnssid":3,"svid":21,"health":1},{"PRN":422,"el":78.0,"az":146.0,"ss":32.0,"used":true,"gnssid":3,"svid":22,"health":1},{"PRN":426,"el":3.0,"az":223.0,"ss":40.0,"used":false,"gnssid":3,"svid":26,"health":1},{"PRN":436,"el":66.0,"az":63.0,"ss":0.0,"used":false,"gnssid":3,"svid":36,"health":1},{"PRN":69,"el":14.0,"az":126.0,"ss":19.0,"used":true,"gnssid":6,"svid":5,"health":1},{"PRN":70,"el":76.0,"az":76.0,"ss":0.0,"used":false,"gnssid":6,"svid":6,"health":1},{"PRN":71,"el":44.0,"az":327.0,"ss":0.0,"used":false,"gnssid":6,"svid":7,"health":1},{"PRN":73,"el":53.0,"az":203.0,"ss":47.0,"used":true,"gnssid":6,"svid":9,"health":1},{"PRN":74,"el":8.0,"az":209.0,"ss":39.0,"used":false,"gnssid":6,"svid":10,"health":1},{"PRN":79,"el":11.0,"az":33.0,"ss":25.0,"used":false,"gnssid":6,"svid":15,"health":1},{"PRN":80,"el":64.0,"az":44.0,"ss":12.0,"used":true,"gnssid":6,"svid":16,"health":1}]}
{"class":"PPS","device":"/dev/pps0","real_sec":1747544406,"real_nsec":0,"clock_sec":1747544406,"clock_nsec":485,"precision":-20}
{"class":"TPV","device":"/dev/ttyACM0","mode":3,"time":"2025-05-18T05:00:06.000Z","leapseconds":18,"ept":0.005,"lat":41.880653200,"lon":-87.643867100,"altHAE":261.6730,"altMSL":295.4620,"alt":295.4620,"epx":8.218,"epy":8.711,"epv":1.427,"track":246.8936,"magtrack":20.3877,"magvar":-4.1,"speed":0.000,"climb":0.000,"eps":0.01,"epc":2.85,"ecefx":195524.64,"ecefy":-4752032.80,"ecefz":4235918.09,"ecefvx":0.00,"ecefvy":0.00,"ecefvz":0.00,"ecefpAcc":2.49,"ecefvAcc":0.02,"geoidSep":-33.900,"eph":2.045,"sep":19.974}
{"class":"SKY","device":"/dev/ttyACM0","time":"2025-05-18T05:00:06.000Z","xdop":0.55,"ydop":0.58,"vdop":1.17,"tdop":0.90,"hdop":0.91,"gdop":1.73,"pdop":1.48,"nSat":37,"uSat":18,"satellites":[{"PRN":1,"el":15.0,"az":254.0,"ss":40.0,"used":true,"gnssid":0,"svid":1,"health":1},{"PRN":2,"el":2.0,"az":231.0,"ss":27.0,"used":false,"gnssid":0,"svid":2,"health":1},{"PRN":3,"el":51.0,"az":296.0,"ss":36.0,"used":true,"gnssid":0,"svid":3,"health":1},{"PRN":4,"el":17.0,"az":297.0,"ss":33.0,"used":true,"gnssid":0,"svid":4,"health":1},{"PRN":10,"el":1.0,"az":158.0,"ss":36.0,"used":false,"gnssid":0,"svid":10,"health":1},{"PRN":16,"el":20.0,"az":184.0,"ss":45.0,"used":true,"gnssid":0,"svid":16,"health":1},{"PRN":25,"el":17.0,"az":42.0,"ss":0.0,"used":false,"gnssid":0,"svid":25,"health":1},{"PRN":26,"el":49.0,"az":171.0,"ss":43.0,"used":true,"gnssid":0,"svid":26,"health":1},{"PRN":28,"el":56.0,"az":48.0,"ss":9.0,"used":true,"gnssid":0,"svid":28,"health":1},{"PRN":29,"el":6.0,"az":81.0,"ss":21.0,"used":false,"gnssid":0,"svid":29,"health":1},{"PRN":31,"el":81.0,"az":346.0,"ss":0.0,"used":false,"gnssid":0,"svid":31,"health":1},{"PRN":32,"el":33.0,"az":104.0,"ss":20.0,"used":false,"gnssid":0,"svid":32,"health":1},{"PRN":307,"el":42.0,"az":94.0,"ss":8.0,"used":false,"gnssid":2,"svid":7,"health":1},{"PRN":310,"el":9.0,"az":325.0,"ss":26.0,"used":false,"gnssid":2,"svid":10,"health":1},{"PRN":312,"el":16.0,"az":304.0,"ss":30.0,"used":true,"gnssid":2,"svid":12,"health":1},{"PRN":319,"el":29.0,"az":297.0,"ss":30.0,"used":true,"gnssid":2,"svid":19,"health":1},{"PRN":321,"el":17.0,"az":185.0,"ss":44.0,"used":true,"gnssid":2,"svid":21,"health":1},{"PRN":326,"el":1.0,"az":206.0,"ss":40.0,"used":false,"gnssid":2,"svid":26,"health":1},{"PRN":327,"el":52.0,"az":134.0,"ss":29.0,"used":true,"gnssid":2,"svid":27,"health":1},{"PRN":329,"el":72.0,"az":337.0,"ss":19.0,"used":true,"gnssid":2,"svid":29,"health":1},{"PRN":330,"el":37.0,"az":58.0,"ss":0.0,"used":false,"gnssid":2,"svid":30,"health":1},{"PRN":333,"el":18.0,"az":249.0,"ss":36.0,"used":true,"gnssid":2,"svid":33,"health":1},{"PRN":419,"el":23.0,"az":136.0,"ss":26.0,"used":true,"gnssid":3,"svid":19,"health":1},{"PRN":421,"el":45.0,"az":312.0,"ss":34.0,"used":true,"gnssid":3,"svid":21,"health":1},{"PRN":422,"el":78.0,"az":146.0,"ss":32.0,"used":true,"gnssid":3,"svid":22,"health":1},{"PRN":426,"el":3.0,"az":223.0,"ss":41.0,"used":false,"gnssid":3,"svid":26,"health":1},{"PRN":436,"el":66.0,"az":63.0,"ss":0.0,"used":false,"gnssid":3,"svid":36,"health":1},{"PRN":69,"el":14.0,"az":126.0,"ss":18.0,"used":true,"gnssid":6,"svid":5,"health":1},{"PRN":70,"el":76.0,"az":76.0,"ss":0.0,"used":false,"gnssid":6,"svid":6,"health":1},{"PRN":71,"el":44.0,"az":327.0,"ss":0.0,"used":false,"gnssid":6,"svid":7,"health":1},{"PRN":73,"el":53.0,"az":203.0,"ss":47.0,"used":true,"gnssid":6,"svid":9,"health":1},{"PRN":74,"el":8.0,"az":209.0,"ss":38.0,"used":false,"gnssid":6,"svid":10,"health":1},{"PRN":79,"el":11.0,"az":33.0,"ss":25.0,"used":false,"gnssid":6,"svid":15,"health":1},{"PRN":80,"el":64.0,"az":44.0,"ss":15.0,"used":true,"gnssid":6,"svid":16,"health":1}]}
{"class":"PPS","device":"/dev/pps0","real_sec":1747544407,"real_nsec":0,"clock_sec":1747544407,"clock_nsec":235,"precision":-20}
{"class":"TPV","device":"/dev/ttyACM0","mode":3,"time":"2025-05-18T05:00:07.000Z","leapseconds":18,"ept":0.005,"lat":41.880653100,"lon":-87.643867200,"altHAE":261.6790,"altMSL":295.4680,"alt":295.4680,"epx":8.218,"epy":8.711,"epv":1.428,"track":246.8936,"magtrack":20.3877,"magvar":-4.1,"speed":0.000,"climb":0.000,"eps":0.01,"epc":2.86,"ecefx":195524.63,"ecefy":-4752032.81,"ecefz":4235918.09,"ecefvx":0.00,"ecefvy":0.00,"ecefvz":0.00,"ecefpAcc":2.49,"ecefvAcc":0.02,"geoidSep":-33.900,"eph":2.046,"sep":19.974}
