{"class":"VERSION","release":"3.22","rev":"3.22","proto_major":3,"proto_minor":14}
{"class":"DEVICES","devices":[{"class":"DEVICE","path":"/dev/ttyACM0","driver":"u-blox","subtype":"SW EXT CORE 1.00 (3fda8e),HW 00190000","subtype1":"ROM BASE 0x118B2060,FWVER=TIM 2.20,PROTVER=29.20,MOD=ZED-F9T,GPS;GLO;GAL;BDS,SBAS;QZSS,NAVIC","activated":"2025-05-19T05:00:01.084Z","flags":1,"native":1,"bps":9600,"parity":"N","stopbits":1,"cycle":1.00,"mincycle":0.02},{"class":"DEVICE","path":"/dev/pps0","driver":"PPS","activated":"2025-05-19T05:00:01.001Z"}]}
{"class":"WATCH","enable":true,"json":true,"nmea":false,"raw":0,"scaled":false,"timing":false,"split24":false,"pps":false}
{"class":"PPS","device":"/dev/pps0","real_sec":1747630802,"real_nsec":0,"clock_sec":1747630801,"clock_nsec":999997313,"precision":-20}
{"class":"TPV","device":"/dev/ttyACM0","mode":3,"time":"2025-05-19T05:00:02.000Z","leapseconds":18,"ept":0.005,"lat":41.880665300,"lon":-87.643926800,"altHAE":266.3710,"altMSL":300.1600,"alt":300.1600,"epx":7.820,"epy":7.256,"epv":1.490,"track":246.8936,"magtrack":20.3877,"magvar":-4.1,"speed":0.007,"climb":0.000,"eps":0.02,"epc":2.98,"ecefx":195519.80,"ecefy":-4752035.61,"ecefz":4235922.25,"ecefvx":0.00,"ecefvy":0.00,"ecefvz":-0.01,"ecefpAcc":2.09,"ecefvAcc":0.02,"geoidSep":-33.900,"eph":1.462,"sep":19.974}
{"class":"SKY","device":"/dev/ttyACM0","time":"2025-05-19T05:00:02.000Z","xdop":0.68,"ydop":0.59,"vdop":1.03,"tdop":0.74,"hdop":0.71,"gdop":1.45,"pdop":1.25,"nSat":38,"uSat":18,"satellites":[{"PRN":1,"el":14.0,"az":252.0,"ss":39.0,"used":true,"gnssid":0,"svid":1,"health":1},{"PRN":2,"el":1.0,"az":230.0,"ss":31.0,"used":false,"gnssid":0,"svid":2,"health":1},{"PRN":3,"el":52.0,"az":293.0,"ss":39.0,"used":true,"gnssid":0,"svid":3,"health":1},{"PRN":4,"el":18.0,"az":298.0,"ss":34.0,"used":true,"gnssid":0,"svid":4,"health":1},{"PRN":10,"el":0.0,"az":158.0,"ss":39.0,"used":false,"gnssid":0,"svid":10,"health":1},{"PRN":16,"el":21.0,"az":184.0,"ss":41.0,"used":true,"gnssid":0,"svid":16,"health":1},{"PRN":25,"el":16.0,"az":42.0,"ss":22.0,"used":false,"gnssid":0,"svid":25,"health":1},{"PRN":26,"el":51.0,"az":169.0,"ss":41.0,"used":true,"gnssid":0,"svid":26,"health":1},{"PRN":28,"el":55.0,"az":49.0,"ss":20.0,"used":false,"gnssid":0,"svid":28,"health":1},{"PRN":29,"el":7.0,"az":79.0,"ss":15.0,"used":false,"gnssid":0,"svid":29,"health":1},{"PRN":31,"el":80.0,"az":356.0,"ss":0.0,"used":false,"gnssid":0,"svid":31,"health":1},{"PRN":32,"el":32.0,"az":105.0,"ss":8.0,"used":false,"gnssid":0,"svid":32,"health":1},{"PRN":302,"el":42.0,"az":161.0,"ss":43.0,"used":true,"gnssid":2,"svid":2,"health":1},{"PRN":303,"el":62.0,"az":81.0,"ss":5.0,"used":false,"gnssid":2,"svid":3,"health":1},{"PRN":305,"el":13.0,"az":103.0,"ss":0.0,"used":false,"gnssid":2,"svid":5,"health":1},{"PRN":307,"el":8.0,"az":292.0,"ss":0.0,"used":false,"gnssid":2,"svid":7,"health":1},{"PRN":308,"el":56.0,"az":311.0,"ss":31.0,"used":true,"gnssid":2,"svid":8,"health":1},{"PRN":313,"el":20.0,"az":270.0,"ss":40.0,"used":true,"gnssid":2,"svid":13,"health":1},{"PRN":315,"el":8.0,"az":221.0,"ss":41.0,"used":false,"gnssid":2,"svid":15,"health":1},{"PRN":316,"el":33.0,"az":52.0,"ss":10.0,"used":false,"gnssid":2,"svid":16,"health":1},{"PRN":324,"el":12.0,"az":37.0,"ss":0.0,"used":false,"gnssid":2,"svid":24,"health":1},{"PRN":325,"el":49.0,"az":78.0,"ss":11.0,"used":true,"gnssid":2,"svid":25,"health":1},{"PRN":326,"el":10.0,"az":321.0,"ss":7.0,"used":false,"gnssid":2,"svid":26,"health":1},{"PRN":330,"el":3.0,"az":195.0,"ss":43.0,"used":false,"gnssid":2,"svid":30,"health":1},{"PRN":419,"el":83.0,"az":164.0,"ss":31.0,"used":true,"gnssid":3,"svid":19,"health":1},{"PRN":420,"el":33.0,"az":138.0,"ss":33.0,"used":true,"gnssid":3,"svid":20,"health":1},{"PRN":422,"el":39.0,"az":312.0,"ss":36.0,"used":true,"gnssid":3,"svid":22,"health":1},{"PRN":436,"el":47.0,"az":215.0,"ss":46.0,"used":true,"gnssid":3,"svid":36,"health":1},{"PRN":437,"el":18.0,"az":48.0,"ss":16.0,"used":false,"gnssid":3,"svid":37,"health":1},{"PRN":70,"el":24.0,"az":128.0,"ss":17.0,"used":false,"gnssid":6,"svid":6,"health":1},{"PRN":71,"el":69.0,"az":94.0,"ss":11.0,"used":true,"gnssid":6,"svid":7,"health":1},{"PRN":72,"el":48.0,"az":329.0,"ss":12.0,"used":true,"gnssid":6,"svid":8,"health":1},{"PRN":73,"el":65.0,"az":44.0,"ss":16.0,"used":true,"gnssid":6,"svid":9,"health":1},{"PRN":74,"el":63.0,"az":200.0,"ss":35.0,"used":true,"gnssid":6,"svid":10,"health":1},{"PRN":75,"el":12.0,"az":209.0,"ss":42.0,"used":true,"gnssid":6,"svid":11,"health":1}]}
{"class":"PPS","device":"/dev/pps0","real_sec":1747630803,"real_nsec":0,"clock_sec":1747630802,"clock_nsec":999997006,"precision":-20}
{"class":"TPV","device":"/dev/ttyACM0","mode":3,"time":"2025-05-19T05:00:03.000Z","leapseconds":18,"ept":0.005,"lat":41.880665200,"lon":-87.643926900,"altHAE":266.3620,"altMSL":300.1510,"alt":300.1510,"epx":10.168,"epy":8.908,"epv":1.491,"track":246.8936,"magtrack":20.3877,"magvar":-4.1,"speed":0.007,"climb":0.000,"eps":0.02,"epc":2.98,"ecefx":195519.79,"ecefy":-4752035.62,"ecefz":4235922.23,"ecefvx":0.00,"ecefvy":0.00,"ecefvz":-0.01,"ecefpAcc":2.09,"ecefvAcc":0.02,"geoidSep":-33.900,"eph":1.463,"sep":19.974}
{"class":"SKY","device":"/dev/ttyACM0","time":"2025-05-19T05:00:03.000Z","xdop":0.86,"ydop":0.67,"vdop":1.34,"tdop":1.03,"hdop":0.90,"gdop":1.91,"pdop":1.61,"nSat":38,"uSat":16,"satellites":[{"PRN":1,"el":14.0,"az":252.0,"ss":39.0,"used":true,"gnssid":0,"svid":1,"health":1},{"PRN":2,"el":1.0,"az":230.0,"ss":29.0,"used":false,"gnssid":0,"svid":2,"health":1},{"PRN":3,"el":52.0,"az":293.0,"ss":39.0,"used":true,"gnssid":0,"svid":3,"health":1},{"PRN":4,"el":18.0,"az":298.0,"ss":33.0,"used":true,"gnssid":0,"svid":4,"health":1},{"PRN":10,"el":0.0,"az":158.0,"ss":40.0,"used":false,"gnssid":0,"svid":10,"health":1},{"PRN":16,"el":21.0,"az":184.0,"ss":41.0,"used":true,"gnssid":0,"svid":16,"health":1},{"PRN":25,"el":16.0,"az":42.0,"ss":20.0,"used":false,"gnssid":0,"svid":25,"health":1},{"PRN":26,"el":51.0,"az":169.0,"ss":41.0,"used":true,"gnssid":0,"svid":26,"health":1},{"PRN":28,"el":55.0,"az":49.0,"ss":21.0,"used":false,"gnssid":0,"svid":28,"health":1},{"PRN":29,"el":7.0,"az":79.0,"ss":15.0,"used":false,"gnssid":0,"svid":29,"health":1},{"PRN":31,"el":80.0,"az":356.0,"ss":0.0,"used":false,"gnssid":0,"svid":31,"health":1},{"PRN":32,"el":32.0,"az":105.0,"ss":7.0,"used":false,"gnssid":0,"svid":32,"health":1},{"PRN":302,"el":42.0,"az":161.0,"ss":44.0,"used":true,"gnssid":2,"svid":2,"health":1},{"PRN":303,"el":62.0,"az":81.0,"ss":6.0,"used":false,"gnssid":2,"svid":3,"health":1},{"PRN":305,"el":13.0,"az":103.0,"ss":0.0,"used":false,"gnssid":2,"svid":5,"health":1},{"PRN":307,"el":8.0,"az":292.0,"ss":0.0,"used":false,"gnssid":2,"svid":7,"health":1},{"PRN":308,"el":56.0,"az":311.0,"ss":31.0,"used":true,"gnssid":2,"svid":8,"health":1},{"PRN":313,"el":20.0,"az":270.0,"ss":40.0,"used":true,"gnssid":2,"svid":13,"health":1},{"PRN":315,"el":8.0,"az":221.0,"ss":42.0,"used":false,"gnssid":2,"svid":15,"health":1},{"PRN":316,"el":33.0,"az":52.0,"ss":9.0,"used":false,"gnssid":2,"svid":16,"health":1},{"PRN":324,"el":12.0,"az":37.0,"ss":0.0,"used":false,"gnssid":2,"svid":24,"health":1},{"PRN":325,"el":49.0,"az":78.0,"ss":10.0,"used":false,"gnssid":2,"svid":25,"health":1},{"PRN":326,"el":10.0,"az":321.0,"ss":7.0,"used":false,"gnssid":2,"svid":26,"health":1},{"PRN":330,"el":3.0,"az":195.0,"ss":43.0,"used":false,"gnssid":2,"svid":30,"health":1},{"PRN":419,"el":83.0,"az":164.0,"ss":31.0,"used":true,"gnssid":3,"svid":19,"health":1},{"PRN":420,"el":33.0,"az":138.0,"ss":33.0,"used":true,"gnssid":3,"svid":20,"health":1},{"PRN":422,"el":39.0,"az":312.0,"ss":36.0,"used":true,"gnssid":3,"svid":22,"health":1},{"PRN":436,"el":48.0,"az":216.0,"ss":46.0,"used":true,"gnssid":3,"svid":36,"health":1},{"PRN":437,"el":18.0,"az":48.0,"ss":16.0,"used":false,"gnssid":3,"svid":37,"health":1},{"PRN":70,"el":24.0,"az":128.0,"ss":15.0,"used":false,"gnssid":6,"svid":6,"health":1},{"PRN":71,"el":69.0,"az":94.0,"ss":12.0,"used":false,"gnssid":6,"svid":7,"health":1},{"PRN":72,"el":48.0,"az":329.0,"ss":12.0,"used":true,"gnssid":6,"svid":8,"health":1},{"PRN":73,"el":65.0,"az":44.0,"ss":14.0,"used":true,"gnssid":6,"svid":9,"health":1},{"PRN":74,"el":63.0,"az":200.0,"ss":34.0,"used":true,"gnssid":6,"svid":10,"health":1},{"PRN":75,"el":12.0,"az":209.0,"ss":42.0,"used":true,"gnssid":6,"svid":11,"health":1}]}
{"class":"PPS","device":"/dev/pps0","real_sec":1747630804,"real_nsec":0,"clock_sec":1747630803,"clock_nsec":999997282,"precision":-20}
{"class":"TPV","device":"/dev/ttyACM0","mode":3,"time":"2025-05-19T05:00:04.000Z","leapseconds":18,"ept":0.005,"lat":41.880665100,"lon":-87.643927000,"altHAE":266.3550,"altMSL":300.1440,"alt":300.1440,"epx":12.889,"epy":10.020,"epv":1.493,"track":246.8936,"magtrack":20.3877,"magvar":-4.1,"speed":0.007,"climb":0.000,"eps":0.02,"epc":2.98,"ecefx":195519.78,"ecefy":-4752035.62,"ecefz":4235922.21,"ecefvx":0.00,"ecefvy":0.00,"ecefvz":-0.01,"ecefpAcc":2.09,"ecefvAcc":0.02,"geoidSep":-33.900,"eph":1.463,"sep":19.974}
{"class":"SKY","device":"/dev/ttyACM0","time":"2025-05-19T05:00:04.000Z","xdop":0.59,"ydop":0.51,"vdop":1.44,"tdop":1.17,"hdop":1.08,"gdop":2.14,"pdop":1.79,"nSat":38,"uSat":19,"satellites":[{"PRN":1,"el":14.0,"az":252.0,"ss":39.0,"used":true,"gnssid":0,"svid":1,"health":1},{"PRN":2,"el":1.0,"az":230.0,"ss":27.0,"used":false,"gnssid":0,"svid":2,"health":1},{"PRN":3,"el":52.0,"az":293.0,"ss":39.0,"used":true,"gnssid":0,"svid":3,"health":1},{"PRN":4,"el":18.0,"az":298.0,"ss":34.0,"used":true,"gnssid":0,"svid":4,"health":1},{"PRN":10,"el":0.0,"az":158.0,"ss":41.0,"used":false,"gnssid":0,"svid":10,"health":1},{"PRN":16,"el":21.0,"az":184.0,"ss":42.0,"used":true,"gnssid":0,"svid":16,"health":1},{"PRN":25,"el":16.0,"az":42.0,"ss":19.0,"used":false,"gnssid":0,"svid":25,"health":1},{"PRN":26,"el":51.0,"az":169.0,"ss":41.0,"used":true,"gnssid":0,"svid":26,"health":1},{"PRN":28,"el":55.0,"az":49.0,"ss":21.0,"used":false,"gnssid":0,"svid":28,"health":1},{"PRN":29,"el":7.0,"az":79.0,"ss":15.0,"used":false,"gnssid":0,"svid":29,"health":1},{"PRN":31,"el":80.0,"az":356.0,"ss":0.0,"used":false,"gnssid":0,"svid":31,"health":1},{"PRN":32,"el":32.0,"az":105.0,"ss":13.0,"used":true,"gnssid":0,"svid":32,"health":1},{"PRN":302,"el":42.0,"az":161.0,"ss":44.0,"used":true,"gnssid":2,"svid":2,"health":1},{"PRN":303,"el":62.0,"az":81.0,"ss":7.0,"used":false,"gnssid":2,"svid":3,"health":1},{"PRN":305,"el":13.0,"az":103.0,"ss":0.0,"used":false,"gnssid":2,"svid":5,"health":1},{"PRN":307,"el":8.0,"az":292.0,"ss":0.0,"used":false,"gnssid":2,"svid":7,"health":1},{"PRN":308,"el":56.0,"az":311.0,"ss":31.0,"used":true,"gnssid":2,"svid":8,"health":1},{"PRN":313,"el":20.0,"az":270.0,"ss":40.0,"used":true,"gnssid":2,"svid":13,"health":1},{"PRN":315,"el":8.0,"az":221.0,"ss":42.0,"used":false,"gnssid":2,"svid":15,"health":1},{"PRN":316,"el":33.0,"az":52.0,"ss":9.0,"used":false,"gnssid":2,"svid":16,"health":1},{"PRN":324,"el":12.0,"az":37.0,"ss":0.0,"used":false,"gnssid":2,"svid":24,"health":1},{"PRN":325,"el":49.0,"az":78.0,"ss":7.0,"used":false,"gnssid":2,"svid":25,"health":1},{"PRN":326,"el":10.0,"az":321.0,"ss":12.0,"used":true,"gnssid":2,"svid":26,"health":1},{"PRN":330,"el":3.0,"az":195.0,"ss":41.0,"used":false,"gnssid":2,"svid":30,"health":1},{"PRN":419,"el":83.0,"az":164.0,"ss":31.0,"used":true,"gnssid":3,"svid":19,"health":1},{"PRN":420,"el":33.0,"az":138.0,"ss":33.0,"used":true,"gnssid":3,"svid":20,"health":1},{"PRN":422,"el":39.0,"az":312.0,"ss":36.0,"used":true,"gnssid":3,"svid":22,"health":1},{"PRN":436,"el":48.0,"az":216.0,"ss":46.0,"used":true,"gnssid":3,"svid":36,"health":1},{"PRN":437,"el":18.0,"az":48.0,"ss":16.0,"used":false,"gnssid":3,"svid":37,"health":1},{"PRN":70,"el":24.0,"az":128.0,"ss":15.0,"used":false,"gnssid":6,"svid":6,"health":1},{"PRN":71,"el":69.0,"az":94.0,"ss":12.0,"used":true,"gnssid":6,"svid":7,"health":1},{"PRN":72,"el":48.0,"az":329.0,"ss":13.0,"used":true,"gnssid":6,"svid":8,"health":1},{"PRN":73,"el":65.0,"az":44.0,"ss":9.0,"used":true,"gnssid":6,"svid":9,"health":1},{"PRN":74,"el":63.0,"az":200.0,"ss":34.0,"used":true,"gnssid":6,"svid":10,"health":1},{"PRN":75,"el":12.0,"az":209.0,"ss":42.0,"used":true,"gnssid":6,"svid":11,"health":1}]}
{"class":"PPS","device":"/dev/pps0","real_sec":1747630805,"real_nsec":0,"clock_sec":1747630804,"clock_nsec":999996427,"precision":-20}
{"class":"TPV","device":"/dev/ttyACM0","mode":3,"time":"2025-05-19T05:00:05.000Z","leapseconds":18,"ept":0.005,"lat":41.880665000,"lon":-87.643927100,"altHAE":266.3500,"altMSL":300.1390,"alt":300.1390,"epx":8.778,"epy":7.609,"epv":1.494,"track":246.8936,"magtrack":20.3877,"magvar":-4.1,"speed":0.007,"climb":0.000,"eps":0.02,"epc":2.99,"ecefx":195519.77,"ecefy":-4752035.62,"ecefz":4235922.20,"ecefvx":0.00,"ecefvy":0.00,"ecefvz":-0.01,"ecefpAcc":2.09,"ecefvAcc":0.02,"geoidSep":-33.900,"eph":1.463,"sep":19.974}
{"class":"SKY","device":"/dev/ttyACM0","time":"2025-05-19T05:00:05.000Z","xdop":0.56,"ydop":0.50,"vdop":1.04,"tdop":0.76,"hdop":0.77,"gdop":1.50,"pdop":1.30,"nSat":38,"uSat":20,"satellites":[{"PRN":1,"el":14.0,"az":252.0,"ss":39.0,"used":true,"gnssid":0,"svid":1,"health":1},{"PRN":2,"el":1.0,"az":230.0,"ss":27.0,"used":false,"gnssid":0,"svid":2,"health":1},{"PRN":3,"el":52.0,"az":293.0,"ss":39.0,"used":true,"gnssid":0,"svid":3,"health":1},{"PRN":4,"el":18.0,"az":298.0,"ss":33.0,"used":true,"gnssid":0,"svid":4,"health":1},{"PRN":10,"el":0.0,"az":158.0,"ss":41.0,"used":false,"gnssid":0,"svid":10,"health":1},{"PRN":16,"el":21.0,"az":184.0,"ss":43.0,"used":true,"gnssid":0,"svid":16,"health":1},{"PRN":25,"el":16.0,"az":42.0,"ss":20.0,"used":false,"gnssid":0,"svid":25,"health":1},{"PRN":26,"el":51.0,"az":169.0,"ss":41.0,"used":true,"gnssid":0,"svid":26,"health":1},{"PRN":28,"el":55.0,"az":49.0,"ss":0.0,"used":false,"gnssid":0,"svid":28,"health":1},{"PRN":29,"el":7.0,"az":79.0,"ss":15.0,"used":false,"gnssid":0,"svid":29,"health":1},{"PRN":31,"el":80.0,"az":356.0,"ss":0.0,"used":false,"gnssid":0,"svid":31,"health":1},{"PRN":32,"el":32.0,"az":105.0,"ss":14.0,"used":true,"gnssid":0,"svid":32,"health":1},{"PRN":302,"el":42.0,"az":161.0,"ss":43.0,"used":true,"gnssid":2,"svid":2,"health":1},{"PRN":303,"el":62.0,"az":81.0,"ss":11.0,"used":true,"gnssid":2,"svid":3,"health":1},{"PRN":305,"el":13.0,"az":103.0,"ss":0.0,"used":false,"gnssid":2,"svid":5,"health":1},{"PRN":307,"el":8.0,"az":292.0,"ss":0.0,"used":false,"gnssid":2,"svid":7,"health":1},{"PRN":308,"el":56.0,"az":311.0,"ss":30.0,"used":true,"gnssid":2,"svid":8,"health":1},{"PRN":313,"el":20.0,"az":270.0,"ss":40.0,"used":true,"gnssid":2,"svid":13,"health":1},{"PRN":315,"el":8.0,"az":221.0,"ss":42.0,"used":false,"gnssid":2,"svid":15,"health":1},{"PRN":316,"el":33.0,"az":52.0,"ss":11.0,"used":false,"gnssid":2,"svid":16,"health":1},{"PRN":324,"el":12.0,"az":37.0,"ss":0.0,"used":false,"gnssid":2,"svid":24,"health":1},{"PRN":325,"el":49.0,"az":78.0,"ss":9.0,"used":false,"gnssid":2,"svid":25,"health":1},{"PRN":326,"el":10.0,"az":321.0,"ss":11.0,"used":true,"gnssid":2,"svid":26,"health":1},{"PRN":330,"el":3.0,"az":195.0,"ss":41.0,"used":false,"gnssid":2,"svid":30,"health":1},{"PRN":419,"el":83.0,"az":164.0,"ss":32.0,"used":true,"gnssid":3,"svid":19,"health":1},{"PRN":420,"el":33.0,"az":138.0,"ss":33.0,"used":true,"gnssid":3,"svid":20,"health":1},{"PRN":422,"el":39.0,"az":312.0,"ss":36.0,"used":true,"gnssid":3,"svid":22,"health":1},{"PRN":436,"el":48.0,"az":216.0,"ss":46.0,"used":true,"gnssid":3,"svid":36,"health":1},{"PRN":437,"el":18.0,"az":48.0,"ss":17.0,"used":false,"gnssid":3,"svid":37,"health":1},{"PRN":70,"el":24.0,"az":128.0,"ss":12.0,"used":false,"gnssid":6,"svid":6,"health":1},{"PRN":71,"el":69.0,"az":94.0,"ss":12.0,"used":true,"gnssid":6,"svid":7,"health":1},{"PRN":72,"el":48.0,"az":329.0,"ss":13.0,"used":true,"gnssid":6,"svid":8,"health":1},{"PRN":73,"el":65.0,"az":44.0,"ss":11.0,"used":true,"gnssid":6,"svid":9,"health":1},{"PRN":74,"el":63.0,"az":200.0,"ss":33.0,"used":true,"gnssid":6,"svid":10,"health":1},{"PRN":75,"el":12.0,"az":209.0,"ss":42.0,"used":true,"gnssid":6,"svid":11,"health":1}]}
{"class":"PPS","device":"/dev/pps0","real_sec":1747630806,"real_nsec":0,"clock_sec":1747630805,"clock_nsec":999995609,"precision":-20}
{"class":"TPV","device":"/dev/ttyACM0","mode":3,"time":"2025-05-19T05:00:06.000Z","leapseconds":18,"ept":0.005,"lat":41.880664900,"lon":-87.643927200,"altHAE":266.3440,"altMSL":300.1330,"alt":300.1330,"epx":8.473,"epy":7.495,"epv":1.495,"track":246.8936,"magtrack":20.3877,"magvar":-4.1,"speed":0.007,"climb":0.000,"eps":0.02,"epc":2.99,"ecefx":195519.76,"ecefy":-4752035.63,"ecefz":4235922.18,"ecefvx":0.00,"ecefvy":0.00,"ecefvz":-0.01,"ecefpAcc":2.09,"ecefvAcc":0.02,"geoidSep":-33.900,"eph":1.463,"sep":19.974}
{"class":"SKY","device":"/dev/ttyACM0","time":"2025-05-19T05:00:06.000Z","xdop":0.59,"ydop":0.52,"vdop":1.04,"tdop":0.76,"hdop":0.75,"gdop":1.49,"pdop":1.28,"nSat":38,"uSat":18,"satellites":[{"PRN":1,"el":14.0,"az":252.0,"ss":39.0,"used":true,"gnssid":0,"svid":1,"health":1},{"PRN":2,"el":1.0,"az":230.0,"ss":28.0,"used":false,"gnssid":0,"svid":2,"health":1},{"PRN":3,"el":52.0,"az":293.0,"ss":39.0,"used":true,"gnssid":0,"svid":3,"health":1},{"PRN":4,"el":18.0,"az":298.0,"ss":32.0,"used":true,"gnssid":0,"svid":4,"health":1},{"PRN":10,"el":0.0,"az":158.0,"ss":41.0,"used":false,"gnssid":0,"svid":10,"health":1},{"PRN":16,"el":21.0,"az":184.0,"ss":43.0,"used":true,"gnssid":0,"svid":16,"health":1},{"PRN":25,"el":16.0,"az":42.0,"ss":20.0,"used":false,"gnssid":0,"svid":25,"health":1},{"PRN":26,"el":51.0,"az":169.0,"ss":41.0,"used":true,"gnssid":0,"svid":26,"health":1},{"PRN":28,"el":55.0,"az":49.0,"ss":21.0,"used":false,"gnssid":0,"svid":28,"health":1},{"PRN":29,"el":7.0,"az":79.0,"ss":15.0,"used":false,"gnssid":0,"svid":29,"health":1},{"PRN":31,"el":80.0,"az":356.0,"ss":21.0,"used":false,"gnssid":0,"svid":31,"health":1},{"PRN":32,"el":32.0,"az":105.0,"ss":11.0,"used":true,"gnssid":0,"svid":32,"health":1},{"PRN":302,"el":42.0,"az":161.0,"ss":43.0,"used":true,"gnssid":2,"svid":2,"health":1},{"PRN":303,"el":62.0,"az":81.0,"ss":10.0,"used":true,"gnssid":2,"svid":3,"health":1},{"PRN":305,"el":13.0,"az":103.0,"ss":0.0,"used":false,"gnssid":2,"svid":5,"health":1},{"PRN":307,"el":8.0,"az":292.0,"ss":0.0,"used":false,"gnssid":2,"svid":7,"health":1},{"PRN":308,"el":56.0,"az":311.0,"ss":30.0,"used":true,"gnssid":2,"svid":8,"health":1},{"PRN":313,"el":20.0,"az":270.0,"ss":40.0,"used":true,"gnssid":2,"svid":13,"health":1},{"PRN":315,"el":8.0,"az":221.0,"ss":42.0,"used":false,"gnssid":2,"svid":15,"health":1},{"PRN":316,"el":33.0,"az":52.0,"ss":10.0,"used":false,"gnssid":2,"svid":16,"health":1},{"PRN":324,"el":12.0,"az":37.0,"ss":0.0,"used":false,"gnssid":2,"svid":24,"health":1},{"PRN":325,"el":49.0,"az":78.0,"ss":9.0,"used":false,"gnssid":2,"svid":25,"health":1},{"PRN":326,"el":10.0,"az":321.0,"ss":9.0,"used":true,"gnssid":2,"svid":26,"health":1},{"PRN":330,"el":3.0,"az":195.0,"ss":41.0,"used":false,"gnssid":2,"svid":30,"health":1},{"PRN":419,"el":83.0,"az":164.0,"ss":32.0,"used":true,"gnssid":3,"svid":19,"health":1},{"PRN":420,"el":33.0,"az":138.0,"ss":33.0,"used":true,"gnssid":3,"svid":20,"health":1},{"PRN":422,"el":39.0,"az":312.0,"ss":36.0,"used":true,"gnssid":3,"svid":22,"health":1},{"PRN":436,"el":48.0,"az":216.0,"ss":46.0,"used":true,"gnssid":3,"svid":36,"health":1},{"PRN":437,"el":18.0,"az":48.0,"ss":16.0,"used":false,"gnssid":3,"svid":37,"health":1},{"PRN":70,"el":24.0,"az":128.0,"ss":11.0,"used":false,"gnssid":6,"svid":6,"health":1},{"PRN":71,"el":69.0,"az":94.0,"ss":10.0,"used":false,"gnssid":6,"svid":7,"health":1},{"PRN":72,"el":48.0,"az":329.0,"ss":13.0,"used":true,"gnssid":6,"svid":8,"health":1},{"PRN":73,"el":65.0,"az":44.0,"ss":9.0,"used":false,"gnssid":6,"svid":9,"health":1},{"PRN":74,"el":63.0,"az":200.0,"ss":33.0,"used":true,"gnssid":6,"svid":10,"health":1},{"PRN":75,"el":12.0,"az":209.0,"ss":41.0,"used":true,"gnssid":6,"svid":11,"health":1}]}
{"class":"PPS","device":"/dev/pps0","real_sec":1747630807,"real_nsec":0,"clock_sec":1747630806,"clock_nsec":999996440,"precision":-20}
{"class":"TPV","device":"/dev/ttyACM0","mode":3,"time":"2025-05-19T05:00:07.000Z","leapseconds":18,"ept":0.005,"lat":41.880664800,"lon":-87.643927300,"altHAE":266.3380,"altMSL":300.1270,"alt":300.1270,"epx":8.791,"epy":7.772,"epv":1.496,"track":246.8936,"magtrack":20.3877,"magvar":-4.1,"speed":0.007,"climb":0.000,"eps":0.02,"epc":2.99,"ecefx":195519.76,"ecefy":-4752035.63,"ecefz":4235922.17,"ecefvx":0.00,"ecefvy":0.00,"ecefvz":-0.01,"ecefpAcc":2.09,"ecefvAcc":0.02,"geoidSep":-33.900,"eph":1.463,"sep":19.974}
