{"class":"VERSION","release":"3.22","rev":"3.22","proto_major":3,"proto_minor":14}
{"class":"DEVICES","devices":[{"class":"DEVICE","path":"/dev/ttyACM0","driver":"u-blox","subtype":"SW EXT CORE 1.00 (3fda8e),HW 00190000","subtype1":"ROM BASE 0x118B2060,FWVER=TIM 2.20,PROTVER=29.20,MOD=ZED-F9T,GPS;GLO;GAL;BDS,SBAS;QZSS,NAVIC","activated":"2025-05-17T05:00:01.086Z","flags":1,"native":1,"bps":9600,"parity":"N","stopbits":1,"cycle":1.00,"mincycle":0.02},{"class":"DEVICE","path":"/dev/pps0","driver":"PPS","activated":"2025-05-17T05:00:01.000Z"}]}
{"class":"WATCH","enable":true,"json":true,"nmea":false,"raw":0,"scaled":false,"timing":false,"split24":false,"pps":false}
{"class":"PPS","device":"/dev/pps0","real_sec":1747458002,"real_nsec":0,"clock_sec":1747458002,"clock_nsec":518,"precision":-20}
{"class":"TPV","device":"/dev/ttyACM0","mode":3,"time":"2025-05-17T05:00:02.000Z","leapseconds":18,"ept":0.005,"lat":41.880753300,"lon":-87.643739300,"altHAE":256.1590,"altMSL":289.9480,"alt":289.9480,"epx":9.534,"epy":9.794,"epv":1.173,"track":285.2312,"magtrack":20.3877,"magvar":-4.1,"speed":0.018,"climb":0.000,"eps":0.01,"epc":2.35,"ecefx":195534.76,"ecefy":-4752020.87,"ecefz":4235922.69,"ecefvx":0.01,"ecefvy":0.02,"ecefvz":0.01,"ecefpAcc":1.84,"ecefvAcc":0.01,"geoidSep":-33.900,"eph":1.415,"sep":19.974}
{"class":"SKY","device":"/dev/ttyACM0","time":"2025-05-17T05:00:02.000Z","xdop":0.64,"ydop":0.62,"vdop":1.19,"tdop":1.03,"hdop":1.08,"gdop":1.91,"pdop":1.61,"nSat":39,"uSat":19,"satellites":[{"PRN":1,"el":16.0,"az":255.0,"ss":43.0,"used":true,"gnssid":0,"svid":1,"health":1},{"PRN":2,"el":3.0,"az":232.0,"ss":28.0,"used":false,"gnssid":0,"svid":2,"health":1},{"PRN":3,"el":50.0,"az":297.0,"ss":33.0,"used":true,"gnssid":0,"svid":3,"health":1},{"PRN":4,"el":16.0,"az":296.0,"ss":36.0,"used":true,"gnssid":0,"svid":4,"health":1},{"PRN":10,"el":2.0,"az":158.0,"ss":38.0,"used":false,"gnssid":0,"svid":10,"health":1},{"PRN":16,"el":18.0,"az":184.0,"ss":45.0,"used":true,"gnssid":0,"svid":16,"health":1},{"PRN":25,"el":19.0,"az":44.0,"ss":15.0,"used":false,"gnssid":0,"svid":25,"health":1},{"PRN":26,"el":46.0,"az":172.0,"ss":45.0,"used":true,"gnssid":0,"svid":26,"health":1},{"PRN":28,"el":59.0,"az":46.0,"ss":10.0,"used":true,"gnssid":0,"svid":28,"health":1},{"PRN":29,"el":5.0,"az":83.0,"ss":0.0,"used":false,"gnssid":0,"svid":29,"health":1},{"PRN":31,"el":82.0,"az":330.0,"ss":18.0,"used":true,"gnssid":0,"svid":31,"health":1},{"PRN":32,"el":35.0,"az":102.0,"ss":0.0,"used":false,"gnssid":0,"svid":32,"health":1},{"PRN":304,"el":73.0,"az":52.0,"ss":12.0,"used":true,"gnssid":2,"svid":4,"health":1},{"PRN":306,"el":67.0,"az":322.0,"ss":23.0,"used":true,"gnssid":2,"svid":6,"health":1},{"PRN":309,"el":44.0,"az":302.0,"ss":32.0,"used":true,"gnssid":2,"svid":9,"health":1},{"PRN":310,"el":4.0,"az":210.0,"ss":39.0,"used":false,"gnssid":2,"svid":10,"health":1},{"PRN":311,"el":15.0,"az":234.0,"ss":35.0,"used":true,"gnssid":2,"svid":11,"health":1},{"PRN":319,"el":20.0,"az":100.0,"ss":9.0,"used":false,"gnssid":2,"svid":19,"health":1},{"PRN":321,"el":23.0,"az":44.0,"ss":0.0,"used":false,"gnssid":2,"svid":21,"health":1},{"PRN":323,"el":53.0,"az":102.0,"ss":7.0,"used":false,"gnssid":2,"svid":23,"health":1},{"PRN":331,"el":32.0,"az":171.0,"ss":44.0,"used":true,"gnssid":2,"svid":31,"health":1},{"PRN":334,"el":6.0,"az":331.0,"ss":19.0,"used":false,"gnssid":2,"svid":34,"health":1},{"PRN":336,"el":21.0,"az":283.0,"ss":39.0,"used":true,"gnssid":2,"svid":36,"health":1},{"PRN":421,"el":72.0,"az":139.0,"ss":30.0,"used":true,"gnssid":3,"svid":21,"health":1},{"PRN":422,"el":19.0,"az":134.0,"ss":25.0,"used":true,"gnssid":3,"svid":22,"health":1},{"PRN":424,"el":11.0,"az":220.0,"ss":44.0,"used":true,"gnssid":3,"svid":24,"health":1},{"PRN":426,"el":59.0,"az":210.0,"ss":44.0,"used":true,"gnssid":3,"svid":26,"health":1},{"PRN":433,"el":1.0,"az":314.0,"ss":0.0,"used":false,"gnssid":3,"svid":33,"health":1},{"PRN":436,"el":10.0,"az":46.0,"ss":0.0,"used":false,"gnssid":3,"svid":36,"health":1},{"PRN":68,"el":18.0,"az":124.0,"ss":21.0,"used":false,"gnssid":6,"svid":4,"health":1},{"PRN":69,"el":65.0,"az":94.0,"ss":0.0,"used":false,"gnssid":6,"svid":5,"health":1},{"PRN":70,"el":37.0,"az":324.0,"ss":7.0,"used":false,"gnssid":6,"svid":6,"health":1},{"PRN":73,"el":2.0,"az":210.0,"ss":42.0,"used":false,"gnssid":6,"svid":9,"health":1},{"PRN":78,"el":13.0,"az":33.0,"ss":0.0,"used":false,"gnssid":6,"svid":14,"health":1},{"PRN":79,"el":65.0,"az":46.0,"ss":9.0,"used":true,"gnssid":6,"svid":15,"health":1},{"PRN":80,"el":54.0,"az":199.0,"ss":49.0,"used":true,"gnssid":6,"svid":16,"health":1}]}
{"class":"PPS","device":"/dev/pps0","real_sec":1747458003,"real_nsec":0,"clock_sec":1747458003,"clock_nsec":815,"precision":-20}
{"class":"TPV","device":"/dev/ttyACM0","mode":3,"time":"2025-05-17T05:00:03.000Z","leapseconds":18,"ept":0.005,"lat":41.880753400,"lon":-87.643739200,"altHAE":256.1510,"altMSL":289.9410,"alt":289.9410,"epx":9.628,"epy":9.276,"epv":1.171,"track":285.2312,"magtrack":20.3877,"magvar":-4.1,"speed":0.018,"climb":0.000,"eps":0.01,"epc":2.34,"ecefx":195534.76,"ecefy":-4752020.86,"ecefz":4235922.69,"ecefvx":0.01,"ecefvy":0.02,"ecefvz":0.01,"ecefpAcc":1.84,"ecefvAcc":0.01,"geoidSep":-33.900,"eph":1.413,"sep":19.974}
{"class":"SKY","device":"/dev/ttyACM0","time":"2025-05-17T05:00:03.000Z","xdop":0.65,"ydop":0.66,"vdop":1.15,"tdop":0.92,"hdop":0.87,"gdop":1.71,"pdop":1.45,"nSat":39,"uSat":18,"satellites":[{"PRN":1,"el":16.0,"az":255.0,"ss":43.0,"used":true,"gnssid":0,"svid":1,"health":1},{"PRN":2,"el":3.0,"az":232.0,"ss":28.0,"used":false,"gnssid":0,"svid":2,"health":1},{"PRN":3,"el":50.0,"az":297.0,"ss":33.0,"used":true,"gnssid":0,"svid":3,"health":1},{"PRN":4,"el":16.0,"az":296.0,"ss":36.0,"used":true,"gnssid":0,"svid":4,"health":1},{"PRN":10,"el":2.0,"az":158.0,"ss":38.0,"used":false,"gnssid":0,"svid":10,"health":1},{"PRN":16,"el":18.0,"az":184.0,"ss":45.0,"used":true,"gnssid":0,"svid":16,"health":1},{"PRN":25,"el":19.0,"az":44.0,"ss":13.0,"used":false,"gnssid":0,"svid":25,"health":1},{"PRN":26,"el":46.0,"az":172.0,"ss":45.0,"used":true,"gnssid":0,"svid":26,"health":1},{"PRN":28,"el":59.0,"az":46.0,"ss":8.0,"used":false,"gnssid":0,"svid":28,"health":1},{"PRN":29,"el":5.0,"az":83.0,"ss":0.0,"used":false,"gnssid":0,"svid":29,"health":1},{"PRN":31,"el":82.0,"az":330.0,"ss":19.0,"used":true,"gnssid":0,"svid":31,"health":1},{"PRN":32,"el":35.0,"az":102.0,"ss":0.0,"used":false,"gnssid":0,"svid":32,"health":1},{"PRN":304,"el":73.0,"az":52.0,"ss":8.0,"used":false,"gnssid":2,"svid":4,"health":1},{"PRN":306,"el":67.0,"az":322.0,"ss":22.0,"used":true,"gnssid":2,"svid":6,"health":1},{"PRN":309,"el":44.0,"az":302.0,"ss":31.0,"used":true,"gnssid":2,"svid":9,"health":1},{"PRN":310,"el":4.0,"az":210.0,"ss":41.0,"used":false,"gnssid":2,"svid":10,"health":1},{"PRN":311,"el":15.0,"az":234.0,"ss":35.0,"used":true,"gnssid":2,"svid":11,"health":1},{"PRN":319,"el":20.0,"az":100.0,"ss":8.0,"used":false,"gnssid":2,"svid":19,"health":1},{"PRN":321,"el":23.0,"az":44.0,"ss":0.0,"used":false,"gnssid":2,"svid":21,"health":1},{"PRN":323,"el":53.0,"az":102.0,"ss":10.0,"used":true,"gnssid":2,"svid":23,"health":1},{"PRN":331,"el":32.0,"az":171.0,"ss":44.0,"used":true,"gnssid":2,"svid":31,"health":1},{"PRN":334,"el":6.0,"az":331.0,"ss":18.0,"used":false,"gnssid":2,"svid":34,"health":1},{"PRN":336,"el":21.0,"az":283.0,"ss":39.0,"used":true,"gnssid":2,"svid":36,"health":1},{"PRN":421,"el":72.0,"az":139.0,"ss":30.0,"used":true,"gnssid":3,"svid":21,"health":1},{"PRN":422,"el":19.0,"az":134.0,"ss":25.0,"used":true,"gnssid":3,"svid":22,"health":1},{"PRN":424,"el":11.0,"az":220.0,"ss":45.0,"used":true,"gnssid":3,"svid":24,"health":1},{"PRN":426,"el":59.0,"az":210.0,"ss":44.0,"used":true,"gnssid":3,"svid":26,"health":1},{"PRN":433,"el":1.0,"az":314.0,"ss":0.0,"used":false,"gnssid":3,"svid":33,"health":1},{"PRN":436,"el":10.0,"az":46.0,"ss":0.0,"used":false,"gnssid":3,"svid":36,"health":1},{"PRN":68,"el":18.0,"az":124.0,"ss":21.0,"used":false,"gnssid":6,"svid":4,"health":1},{"PRN":69,"el":65.0,"az":94.0,"ss":0.0,"used":false,"gnssid":6,"svid":5,"health":1},{"PRN":70,"el":37.0,"az":324.0,"ss":7.0,"used":false,"gnssid":6,"svid":6,"health":1},{"PRN":73,"el":2.0,"az":210.0,"ss":44.0,"used":false,"gnssid":6,"svid":9,"health":1},{"PRN":78,"el":13.0,"az":33.0,"ss":0.0,"used":false,"gnssid":6,"svid":14,"health":1},{"PRN":79,"el":65.0,"az":46.0,"ss":10.0,"used":true,"gnssid":6,"svid":15,"health":1},{"PRN":80,"el":54.0,"az":199.0,"ss":48.0,"used":true,"gnssid":6,"svid":16,"health":1}]}
{"class":"PPS","device":"/dev/pps0","real_sec":1747458004,"real_nsec":0,"clock_sec":1747458004,"clock_nsec":1685,"precision":-20}
{"class":"TPV","device":"/dev/ttyACM0","mode":3,"time":"2025-05-17T05:00:04.000Z","leapseconds":18,"ept":0.005,"lat":41.880753400,"lon":-87.643739200,"altHAE":256.1440,"altMSL":289.9330,"alt":289.9330,"epx":9.677,"epy":9.949,"epv":1.169,"track":285.2312,"magtrack":20.3877,"magvar":-4.1,"speed":0.018,"climb":0.000,"eps":0.01,"epc":2.34,"ecefx":195534.77,"ecefy":-4752020.85,"ecefz":4235922.69,"ecefvx":0.01,"ecefvy":0.02,"ecefvz":0.01,"ecefpAcc":1.83,"ecefvAcc":0.01,"geoidSep":-33.900,"eph":1.410,"sep":19.974}
{"class":"SKY","device":"/dev/ttyACM0","time":"2025-05-17T05:00:04.000Z","xdop":0.77,"ydop":0.66,"vdop":1.16,"tdop":0.94,"hdop":0.91,"gdop":1.75,"pdop":1.48,"nSat":39,"uSat":17,"satellites":[{"PRN":1,"el":16.0,"az":255.0,"ss":43.0,"used":true,"gnssid":0,"svid":1,"health":1},{"PRN":2,"el":3.0,"az":232.0,"ss":27.0,"used":false,"gnssid":0,"svid":2,"health":1},{"PRN":3,"el":50.0,"az":297.0,"ss":33.0,"used":true,"gnssid":0,"svid":3,"health":1},{"PRN":4,"el":16.0,"az":296.0,"ss":36.0,"used":true,"gnssid":0,"svid":4,"health":1},{"PRN":10,"el":2.0,"az":158.0,"ss":37.0,"used":false,"gnssid":0,"svid":10,"health":1},{"PRN":16,"el":18.0,"az":184.0,"ss":45.0,"used":true,"gnssid":0,"svid":16,"health":1},{"PRN":25,"el":19.0,"az":44.0,"ss":13.0,"used":false,"gnssid":0,"svid":25,"health":1},{"PRN":26,"el":46.0,"az":172.0,"ss":45.0,"used":true,"gnssid":0,"svid":26,"health":1},{"PRN":28,"el":59.0,"az":46.0,"ss":8.0,"used":false,"gnssid":0,"svid":28,"health":1},{"PRN":29,"el":5.0,"az":83.0,"ss":0.0,"used":false,"gnssid":0,"svid":29,"health":1},{"PRN":31,"el":82.0,"az":330.0,"ss":19.0,"used":true,"gnssid":0,"svid":31,"health":1},{"PRN":32,"el":35.0,"az":102.0,"ss":0.0,"used":false,"gnssid":0,"svid":32,"health":1},{"PRN":304,"el":73.0,"az":52.0,"ss":11.0,"used":false,"gnssid":2,"svid":4,"health":1},{"PRN":306,"el":67.0,"az":322.0,"ss":23.0,"used":true,"gnssid":2,"svid":6,"health":1},{"PRN":309,"el":44.0,"az":302.0,"ss":32.0,"used":true,"gnssid":2,"svid":9,"health":1},{"PRN":310,"el":4.0,"az":210.0,"ss":41.0,"used":false,"gnssid":2,"svid":10,"health":1},{"PRN":311,"el":15.0,"az":234.0,"ss":35.0,"used":true,"gnssid":2,"svid":11,"health":1},{"PRN":319,"el":20.0,"az":100.0,"ss":9.0,"used":false,"gnssid":2,"svid":19,"health":1},{"PRN":321,"el":23.0,"az":44.0,"ss":0.0,"used":false,"gnssid":2,"svid":21,"health":1},{"PRN":323,"el":53.0,"az":102.0,"ss":6.0,"used":false,"gnssid":2,"svid":23,"health":1},{"PRN":331,"el":32.0,"az":171.0,"ss":44.0,"used":true,"gnssid":2,"svid":31,"health":1},{"PRN":334,"el":6.0,"az":331.0,"ss":18.0,"used":false,"gnssid":2,"svid":34,"health":1},{"PRN":336,"el":21.0,"az":283.0,"ss":39.0,"used":true,"gnssid":2,"svid":36,"health":1},{"PRN":421,"el":72.0,"az":139.0,"ss":30.0,"used":true,"gnssid":3,"svid":21,"health":1},{"PRN":422,"el":19.0,"az":134.0,"ss":24.0,"used":true,"gnssid":3,"svid":22,"health":1},{"PRN":424,"el":11.0,"az":220.0,"ss":45.0,"used":true,"gnssid":3,"svid":24,"health":1},{"PRN":426,"el":59.0,"az":210.0,"ss":44.0,"used":true,"gnssid":3,"svid":26,"health":1},{"PRN":433,"el":1.0,"az":314.0,"ss":0.0,"used":false,"gnssid":3,"svid":33,"health":1},{"PRN":436,"el":10.0,"az":46.0,"ss":0.0,"used":false,"gnssid":3,"svid":36,"health":1},{"PRN":68,"el":18.0,"az":124.0,"ss":21.0,"used":false,"gnssid":6,"svid":4,"health":1},{"PRN":69,"el":65.0,"az":94.0,"ss":22.0,"used":false,"gnssid":6,"svid":5,"health":1},{"PRN":70,"el":37.0,"az":324.0,"ss":9.0,"used":true,"gnssid":6,"svid":6,"health":1},{"PRN":73,"el":2.0,"az":210.0,"ss":43.0,"used":false,"gnssid":6,"svid":9,"health":1},{"PRN":78,"el":13.0,"az":33.0,"ss":0.0,"used":false,"gnssid":6,"svid":14,"health":1},{"PRN":79,"el":65.0,"az":46.0,"ss":10.0,"used":false,"gnssid":6,"svid":15,"health":1},{"PRN":80,"el":54.0,"az":199.0,"ss":48.0,"used":true,"gnssid":6,"svid":16,"health":1}]}
{"class":"PPS","device":"/dev/pps0","real_sec":1747458005,"real_nsec":0,"clock_sec":1747458005,"clock_nsec":944,"precision":-20}
{"class":"TPV","device":"/dev/ttyACM0","mode":3,"time":"2025-05-17T05:00:05.000Z","leapseconds":18,"ept":0.005,"lat":41.880753500,"lon":-87.643739100,"altHAE":256.1380,"altMSL":289.9270,"alt":289.9270,"epx":11.547,"epy":9.877,"epv":1.167,"track":285.2312,"magtrack":20.3877,"magvar":-4.1,"speed":0.018,"climb":0.000,"eps":0.01,"epc":2.34,"ecefx":195534.77,"ecefy":-4752020.84,"ecefz":4235922.68,"ecefvx":0.01,"ecefvy":0.02,"ecefvz":0.01,"ecefpAcc":1.83,"ecefvAcc":0.01,"geoidSep":-33.900,"eph":1.407,"sep":19.974}
{"class":"SKY","device":"/dev/ttyACM0","time":"2025-05-17T05:00:05.000Z","xdop":0.64,"ydop":0.60,"vdop":1.15,"tdop":0.97,"hdop":1.01,"gdop":1.81,"pdop":1.53,"nSat":39,"uSat":19,"satellites":[{"PRN":1,"el":16.0,"az":255.0,"ss":43.0,"used":true,"gnssid":0,"svid":1,"health":1},{"PRN":2,"el":3.0,"az":232.0,"ss":27.0,"used":false,"gnssid":0,"svid":2,"health":1},{"PRN":3,"el":50.0,"az":297.0,"ss":34.0,"used":true,"gnssid":0,"svid":3,"health":1},{"PRN":4,"el":16.0,"az":296.0,"ss":35.0,"used":true,"gnssid":0,"svid":4,"health":1},{"PRN":10,"el":2.0,"az":158.0,"ss":37.0,"used":false,"gnssid":0,"svid":10,"health":1},{"PRN":16,"el":18.0,"az":184.0,"ss":45.0,"used":true,"gnssid":0,"svid":16,"health":1},{"PRN":25,"el":19.0,"az":44.0,"ss":14.0,"used":false,"gnssid":0,"svid":25,"health":1},{"PRN":26,"el":46.0,"az":172.0,"ss":44.0,"used":true,"gnssid":0,"svid":26,"health":1},{"PRN":28,"el":59.0,"az":46.0,"ss":6.0,"used":false,"gnssid":0,"svid":28,"health":1},{"PRN":29,"el":5.0,"az":83.0,"ss":0.0,"used":false,"gnssid":0,"svid":29,"health":1},{"PRN":31,"el":82.0,"az":330.0,"ss":19.0,"used":true,"gnssid":0,"svid":31,"health":1},{"PRN":32,"el":35.0,"az":102.0,"ss":0.0,"used":false,"gnssid":0,"svid":32,"health":1},{"PRN":304,"el":73.0,"az":52.0,"ss":7.0,"used":false,"gnssid":2,"svid":4,"health":1},{"PRN":306,"el":67.0,"az":322.0,"ss":23.0,"used":true,"gnssid":2,"svid":6,"health":1},{"PRN":309,"el":44.0,"az":302.0,"ss":32.0,"used":true,"gnssid":2,"svid":9,"health":1},{"PRN":310,"el":4.0,"az":210.0,"ss":40.0,"used":false,"gnssid":2,"svid":10,"health":1},{"PRN":311,"el":15.0,"az":234.0,"ss":36.0,"used":true,"gnssid":2,"svid":11,"health":1},{"PRN":319,"el":20.0,"az":100.0,"ss":11.0,"used":false,"gnssid":2,"svid":19,"health":1},{"PRN":321,"el":23.0,"az":44.0,"ss":0.0,"used":false,"gnssid":2,"svid":21,"health":1},{"PRN":323,"el":53.0,"az":102.0,"ss":11.0,"used":true,"gnssid":2,"svid":23,"health":1},{"PRN":331,"el":32.0,"az":171.0,"ss":44.0,"used":true,"gnssid":2,"svid":31,"health":1},{"PRN":334,"el":6.0,"az":331.0,"ss":18.0,"used":false,"gnssid":2,"svid":34,"health":1},{"PRN":336,"el":21.0,"az":283.0,"ss":39.0,"used":true,"gnssid":2,"svid":36,"health":1},{"PRN":421,"el":72.0,"az":139.0,"ss":30.0,"used":true,"gnssid":3,"svid":21,"health":1},{"PRN":422,"el":19.0,"az":134.0,"ss":23.0,"used":true,"gnssid":3,"svid":22,"health":1},{"PRN":424,"el":11.0,"az":220.0,"ss":45.0,"used":true,"gnssid":3,"svid":24,"health":1},{"PRN":426,"el":59.0,"az":210.0,"ss":44.0,"used":true,"gnssid":3,"svid":26,"health":1},{"PRN":433,"el":1.0,"az":314.0,"ss":0.0,"used":false,"gnssid":3,"svid":33,"health":1},{"PRN":436,"el":10.0,"az":46.0,"ss":0.0,"used":false,"gnssid":3,"svid":36,"health":1},{"PRN":68,"el":18.0,"az":124.0,"ss":24.0,"used":false,"gnssid":6,"svid":4,"health":1},{"PRN":69,"el":65.0,"az":94.0,"ss":19.0,"used":false,"gnssid":6,"svid":5,"health":1},{"PRN":70,"el":37.0,"az":324.0,"ss":11.0,"used":true,"gnssid":6,"svid":6,"health":1},{"PRN":73,"el":2.0,"az":210.0,"ss":42.0,"used":false,"gnssid":6,"svid":9,"health":1},{"PRN":78,"el":13.0,"az":33.0,"ss":0.0,"used":false,"gnssid":6,"svid":14,"health":1},{"PRN":79,"el":65.0,"az":46.0,"ss":9.0,"used":true,"gnssid":6,"svid":15,"health":1},{"PRN":80,"el":54.0,"az":199.0,"ss":48.0,"used":true,"gnssid":6,"svid":16,"health":1}]}
{"class":"PPS","device":"/dev/pps0","real_sec":1747458006,"real_nsec":0,"clock_sec":1747458005,"clock_nsec":999998463,"precision":-20}
{"class":"TPV","device":"/dev/ttyACM0","mode":3,"time":"2025-05-17T05:00:06.000Z","leapseconds":18,"ept":0.005,"lat":41.880753500,"lon":-87.643739100,"altHAE":256.1300,"altMSL":289.9190,"alt":289.9190,"epx":9.573,"epy":8.975,"epv":1.165,"track":285.2312,"magtrack":20.3877,"magvar":-4.1,"speed":0.018,"climb":0.000,"eps":0.01,"epc":2.33,"ecefx":195534.77,"ecefy":-4752020.83,"ecefz":4235922.68,"ecefvx":0.01,"ecefvy":0.02,"ecefvz":0.01,"ecefpAcc":1.83,"ecefvAcc":0.01,"geoidSep":-33.900,"eph":1.405,"sep":19.974}
{"class":"SKY","device":"/dev/ttyACM0","time":"2025-05-17T05:00:06.000Z","xdop":0.60,"ydop":0.56,"vdop":1.13,"tdop":0.89,"hdop":0.87,"gdop":1.68,"pdop":1.43,"nSat":39,"uSat":21,"satellites":[{"PRN":1,"el":16.0,"az":255.0,"ss":43.0,"used":true,"gnssid":0,"svid":1,"health":1},{"PRN":2,"el":3.0,"az":232.0,"ss":27.0,"used":false,"gnssid":0,"svid":2,"health":1},{"PRN":3,"el":50.0,"az":297.0,"ss":33.0,"used":true,"gnssid":0,"svid":3,"health":1},{"PRN":4,"el":16.0,"az":296.0,"ss":35.0,"used":true,"gnssid":0,"svid":4,"health":1},{"PRN":10,"el":2.0,"az":158.0,"ss":37.0,"used":false,"gnssid":0,"svid":10,"health":1},{"PRN":16,"el":18.0,"az":184.0,"ss":45.0,"used":true,"gnssid":0,"svid":16,"health":1},{"PRN":25,"el":19.0,"az":44.0,"ss":15.0,"used":false,"gnssid":0,"svid":25,"health":1},{"PRN":26,"el":46.0,"az":172.0,"ss":45.0,"used":true,"gnssid":0,"svid":26,"health":1},{"PRN":28,"el":59.0,"az":46.0,"ss":10.0,"used":true,"gnssid":0,"svid":28,"health":1},{"PRN":29,"el":5.0,"az":83.0,"ss":0.0,"used":false,"gnssid":0,"svid":29,"health":1},{"PRN":31,"el":82.0,"az":330.0,"ss":19.0,"used":true,"gnssid":0,"svid":31,"health":1},{"PRN":32,"el":35.0,"az":102.0,"ss":0.0,"used":false,"gnssid":0,"svid":32,"health":1},{"PRN":304,"el":73.0,"az":52.0,"ss":11.0,"used":true,"gnssid":2,"svid":4,"health":1},{"PRN":306,"el":67.0,"az":322.0,"ss":22.0,"used":true,"gnssid":2,"svid":6,"health":1},{"PRN":309,"el":44.0,"az":302.0,"ss":32.0,"used":true,"gnssid":2,"svid":9,"health":1},{"PRN":310,"el":4.0,"az":210.0,"ss":39.0,"used":false,"gnssid":2,"svid":10,"health":1},{"PRN":311,"el":15.0,"az":234.0,"ss":36.0,"used":true,"gnssid":2,"svid":11,"health":1},{"PRN":319,"el":20.0,"az":100.0,"ss":8.0,"used":false,"gnssid":2,"svid":19,"health":1},{"PRN":321,"el":23.0,"az":44.0,"ss":0.0,"used":false,"gnssid":2,"svid":21,"health":1},{"PRN":323,"el":53.0,"az":102.0,"ss":9.0,"used":true,"gnssid":2,"svid":23,"health":1},{"PRN":331,"el":32.0,"az":171.0,"ss":44.0,"used":true,"gnssid":2,"svid":31,"health":1},{"PRN":334,"el":6.0,"az":331.0,"ss":18.0,"used":false,"gnssid":2,"svid":34,"health":1},{"PRN":336,"el":21.0,"az":283.0,"ss":39.0,"used":true,"gnssid":2,"svid":36,"health":1},{"PRN":421,"el":72.0,"az":139.0,"ss":30.0,"used":true,"gnssid":3,"svid":21,"health":1},{"PRN":422,"el":19.0,"az":134.0,"ss":23.0,"used":true,"gnssid":3,"svid":22,"health":1},{"PRN":424,"el":11.0,"az":220.0,"ss":44.0,"used":true,"gnssid":3,"svid":24,"health":1},{"PRN":426,"el":59.0,"az":210.0,"ss":44.0,"used":true,"gnssid":3,"svid":26,"health":1},{"PRN":433,"el":1.0,"az":314.0,"ss":0.0,"used":false,"gnssid":3,"svid":33,"health":1},{"PRN":436,"el":10.0,"az":46.0,"ss":0.0,"used":false,"gnssid":3,"svid":36,"health":1},{"PRN":68,"el":18.0,"az":124.0,"ss":25.0,"used":false,"gnssid":6,"svid":4,"health":1},{"PRN":69,"el":65.0,"az":94.0,"ss":16.0,"used":false,"gnssid":6,"svid":5,"health":1},{"PRN":70,"el":37.0,"az":324.0,"ss":12.0,"used":true,"gnssid":6,"svid":6,"health":1},{"PRN":73,"el":2.0,"az":210.0,"ss":40.0,"used":false,"gnssid":6,"svid":9,"health":1},{"PRN":78,"el":13.0,"az":33.0,"ss":0.0,"used":false,"gnssid":6,"svid":14,"health":1},{"PRN":79,"el":65.0,"az":46.0,"ss":11.0,"used":true,"gnssid":6,"svid":15,"health":1},{"PRN":80,"el":54.0,"az":199.0,"ss":48.0,"used":true,"gnssid":6,"svid":16,"health":1}]}
{"class":"PPS","device":"/dev/pps0","real_sec":1747458007,"real_nsec":0,"clock_sec":1747458006,"clock_nsec":999999463,"precision":-20}
{"class":"TPV","device":"/dev/ttyACM0","mode":3,"time":"2025-05-17T05:00:07.000Z","leapseconds":18,"ept":0.005,"lat":41.880753600,"lon":-87.643739000,"altHAE":256.1220,"altMSL":289.9110,"alt":289.9110,"epx":8.936,"epy":8.430,"epv":1.163,"track":285.2312,"magtrack":20.3877,"magvar":-4.1,"speed":0.018,"climb":0.000,"eps":0.01,"epc":2.33,"ecefx":195534.78,"ecefy":-4752020.82,"ecefz":4235922.68,"ecefvx":0.01,"ecefvy":0.02,"ecefvz":0.01,"ecefpAcc":1.82,"ecefvAcc":0.01,"geoidSep":-33.900,"eph":1.402,"sep":19.974}
