{"class":"VERSION","release":"3.22","rev":"3.22","proto_major":3,"proto_minor":14}
{"class":"DEVICES","devices":[{"class":"DEVICE","path":"/dev/ttyACM0","driver":"u-blox","subtype":"SW EXT CORE 1.00 (3fda8e),HW 00190000","subtype1":"ROM BASE 0x118B2060,FWVER=TIM 2.20,PROTVER=29.20,MOD=ZED-F9T,GPS;GLO;GAL;BDS,SBAS;QZSS,NAVIC","activated":"2025-05-22T17:00:01.061Z","flags":1,"native":1,"bps":9600,"parity":"N","stopbits":1,"cycle":1.00,"mincycle":0.02},{"class":"DEVICE","path":"/dev/pps0","driver":"PPS","activated":"2025-05-22T17:00:01.001Z"}]}
{"class":"WATCH","enable":true,"json":true,"nmea":false,"raw":0,"scaled":false,"timing":false,"split24":false,"pps":false}
{"class":"PPS","device":"/dev/pps0","real_sec":1747933202,"real_nsec":0,"clock_sec":1747933202,"clock_nsec":590,"precision":-20}
{"class":"TPV","device":"/dev/ttyACM0","mode":3,"time":"2025-05-22T17:00:02.000Z","leapseconds":18,"ept":0.005,"lat":41.880733700,"lon":-87.643730100,"altHAE":251.7550,"altMSL":285.5440,"alt":285.5440,"epx":10.013,"epy":11.262,"epv":7.014,"track":232.1302,"magtrack":242.8388,"magvar":-4.1,"speed":0.020,"climb":-0.017,"eps":0.03,"epc":14.03,"ecefx":195535.43,"ecefy":-4752019.03,"ecefz":4235918.13,"ecefvx":0.02,"ecefvy":0.02,"ecefvz":0.00,"ecefpAcc":10.24,"ecefvAcc":0.03,"geoidSep":-33.900,"eph":7.472,"sep":23.940}
{"class":"SKY","device":"/dev/ttyACM0","time":"2025-05-22T17:00:02.000Z","xdop":0.67,"ydop":0.75,"vdop":1.35,"tdop":1.09,"hdop":0.97,"gdop":1.98,"pdop":1.66,"nSat":38,"uSat":14,"satellites":[{"PRN":4,"el":7.0,"az":47.0,"ss":0.0,"used":false,"gnssid":0,"svid":4,"health":1},{"PRN":5,"el":15.0,"az":199.0,"ss":20.0,"used":true,"gnssid":0,"svid":5,"health":1},{"PRN":6,"el":55.0,"az":45.0,"ss":11.0,"used":true,"gnssid":0,"svid":6,"health":1},{"PRN":9,"el":13.0,"az":80.0,"ss":0.0,"used":false,"gnssid":0,"svid":9,"health":1},{"PRN":11,"el":77.0,"az":307.0,"ss":10.0,"used":true,"gnssid":0,"svid":11,"health":1},{"PRN":12,"el":56.0,"az":278.0,"ss":27.0,"used":true,"gnssid":0,"svid":12,"health":1},{"PRN":17,"el":14.0,"az":109.0,"ss":11.0,"used":false,"gnssid":0,"svid":17,"health":1},{"PRN":19,"el":38.0,"az":100.0,"ss":10.0,"used":true,"gnssid":0,"svid":19,"health":1},{"PRN":20,"el":49.0,"az":190.0,"ss":25.0,"used":true,"gnssid":0,"svid":20,"health":1},{"PRN":22,"el":6.0,"az":158.0,"ss":17.0,"used":false,"gnssid":0,"svid":22,"health":1},{"PRN":25,"el":29.0,"az":310.0,"ss":0.0,"used":false,"gnssid":0,"svid":25,"health":1},{"PRN":307,"el":9.0,"az":81.0,"ss":0.0,"used":false,"gnssid":2,"svid":7,"health":1},{"PRN":308,"el":3.0,"az":34.0,"ss":0.0,"used":false,"gnssid":2,"svid":8,"health":1},{"PRN":312,"el":21.0,"az":247.0,"ss":15.0,"used":false,"gnssid":2,"svid":12,"health":1},{"PRN":321,"el":0.0,"az":155.0,"ss":9.0,"used":false,"gnssid":2,"svid":21,"health":1},{"PRN":323,"el":44.0,"az":179.0,"ss":21.0,"used":true,"gnssid":2,"svid":23,"health":1},{"PRN":324,"el":18.0,"az":318.0,"ss":0.0,"used":false,"gnssid":2,"svid":24,"health":1},{"PRN":326,"el":47.0,"az":49.0,"ss":7.0,"used":false,"gnssid":2,"svid":26,"health":1},{"PRN":329,"el":2.0,"az":129.0,"ss":0.0,"used":false,"gnssid":2,"svid":29,"health":1},{"PRN":331,"el":61.0,"az":274.0,"ss":19.0,"used":true,"gnssid":2,"svid":31,"health":1},{"PRN":333,"el":73.0,"az":284.0,"ss":17.0,"used":true,"gnssid":2,"svid":33,"health":1},{"PRN":419,"el":3.0,"az":177.0,"ss":0.0,"used":false,"gnssid":3,"svid":19,"health":1},{"PRN":420,"el":31.0,"az":139.0,"ss":0.0,"used":false,"gnssid":3,"svid":20,"health":1},{"PRN":426,"el":18.0,"az":310.0,"ss":0.0,"used":false,"gnssid":3,"svid":26,"health":1},{"PRN":429,"el":70.0,"az":325.0,"ss":0.0,"used":false,"gnssid":3,"svid":29,"health":1},{"PRN":430,"el":42.0,"az":77.0,"ss":0.0,"used":false,"gnssid":3,"svid":30,"health":1},{"PRN":432,"el":33.0,"az":71.0,"ss":0.0,"used":false,"gnssid":3,"svid":32,"health":1},{"PRN":435,"el":16.0,"az":280.0,"ss":20.0,"used":false,"gnssid":3,"svid":35,"health":1},{"PRN":436,"el":15.0,"az":200.0,"ss":20.0,"used":true,"gnssid":3,"svid":36,"health":1},{"PRN":68,"el":17.0,"az":30.0,"ss":9.0,"used":false,"gnssid":6,"svid":4,"health":1},{"PRN":69,"el":33.0,"az":82.0,"ss":0.0,"used":false,"gnssid":6,"svid":5,"health":1},{"PRN":70,"el":13.0,"az":148.0,"ss":0.0,"used":false,"gnssid":6,"svid":6,"health":1},{"PRN":74,"el":23.0,"az":202.0,"ss":22.0,"used":true,"gnssid":6,"svid":10,"health":1},{"PRN":75,"el":48.0,"az":262.0,"ss":31.0,"used":true,"gnssid":6,"svid":11,"health":1}]}
{"class":"PPS","device":"/dev/pps0","real_sec":1747933203,"real_nsec":0,"clock_sec":1747933203,"clock_nsec":1197,"precision":-20}
{"class":"TPV","device":"/dev/ttyACM0","mode":3,"time":"2025-05-22T17:00:03.000Z","leapseconds":18,"ept":0.005,"lat":41.880734800,"lon":-87.643728400,"altHAE":251.6080,"altMSL":285.3970,"alt":285.3970,"epx":10.013,"epy":11.262,"epv":7.000,"track":232.1302,"magtrack":242.8388,"magvar":-4.1,"speed":0.020,"climb":-0.017,"eps":0.03,"epc":14.01,"ecefx":195535.45,"ecefy":-4752019.00,"ecefz":4235918.13,"ecefvx":0.02,"ecefvy":0.02,"ecefvz":0.00,"ecefpAcc":10.25,"ecefvAcc":0.03,"geoidSep":-33.900,"eph":7.457,"sep":23.940}
{"class":"SKY","device":"/dev/ttyACM0","time":"2025-05-22T17:00:03.000Z","xdop":0.75,"ydop":0.68,"vdop":1.35,"tdop":1.09,"hdop":0.97,"gdop":1.98,"pdop":1.66,"nSat":38,"uSat":14,"satellites":[{"PRN":4,"el":7.0,"az":47.0,"ss":0.0,"used":false,"gnssid":0,"svid":4,"health":1},{"PRN":5,"el":15.0,"az":199.0,"ss":20.0,"used":true,"gnssid":0,"svid":5,"health":1},{"PRN":6,"el":55.0,"az":45.0,"ss":11.0,"used":true,"gnssid":0,"svid":6,"health":1},{"PRN":9,"el":13.0,"az":80.0,"ss":0.0,"used":false,"gnssid":0,"svid":9,"health":1},{"PRN":11,"el":77.0,"az":307.0,"ss":14.0,"used":true,"gnssid":0,"svid":11,"health":1},{"PRN":12,"el":56.0,"az":278.0,"ss":27.0,"used":true,"gnssid":0,"svid":12,"health":1},{"PRN":17,"el":14.0,"az":109.0,"ss":9.0,"used":false,"gnssid":0,"svid":17,"health":1},{"PRN":19,"el":38.0,"az":100.0,"ss":10.0,"used":false,"gnssid":0,"svid":19,"health":1},{"PRN":20,"el":49.0,"az":190.0,"ss":25.0,"used":true,"gnssid":0,"svid":20,"health":1},{"PRN":22,"el":6.0,"az":158.0,"ss":18.0,"used":false,"gnssid":0,"svid":22,"health":1},{"PRN":25,"el":29.0,"az":310.0,"ss":0.0,"used":false,"gnssid":0,"svid":25,"health":1},{"PRN":307,"el":9.0,"az":81.0,"ss":0.0,"used":false,"gnssid":2,"svid":7,"health":1},{"PRN":308,"el":3.0,"az":34.0,"ss":0.0,"used":false,"gnssid":2,"svid":8,"health":1},{"PRN":312,"el":21.0,"az":247.0,"ss":15.0,"used":false,"gnssid":2,"svid":12,"health":1},{"PRN":321,"el":0.0,"az":155.0,"ss":10.0,"used":false,"gnssid":2,"svid":21,"health":1},{"PRN":323,"el":44.0,"az":179.0,"ss":21.0,"used":true,"gnssid":2,"svid":23,"health":1},{"PRN":324,"el":18.0,"az":318.0,"ss":0.0,"used":false,"gnssid":2,"svid":24,"health":1},{"PRN":326,"el":47.0,"az":49.0,"ss":9.0,"used":true,"gnssid":2,"svid":26,"health":1},{"PRN":329,"el":2.0,"az":129.0,"ss":0.0,"used":false,"gnssid":2,"svid":29,"health":1},{"PRN":331,"el":61.0,"az":274.0,"ss":19.0,"used":true,"gnssid":2,"svid":31,"health":1},{"PRN":333,"el":73.0,"az":284.0,"ss":17.0,"used":true,"gnssid":2,"svid":33,"health":1},{"PRN":419,"el":3.0,"az":177.0,"ss":0.0,"used":false,"gnssid":3,"svid":19,"health":1},{"PRN":420,"el":31.0,"az":139.0,"ss":0.0,"used":false,"gnssid":3,"svid":20,"health":1},{"PRN":426,"el":18.0,"az":310.0,"ss":0.0,"used":false,"gnssid":3,"svid":26,"health":1},{"PRN":429,"el":70.0,"az":325.0,"ss":0.0,"used":false,"gnssid":3,"svid":29,"health":1},{"PRN":430,"el":42.0,"az":77.0,"ss":0.0,"used":false,"gnssid":3,"svid":30,"health":1},{"PRN":432,"el":33.0,"az":71.0,"ss":0.0,"used":false,"gnssid":3,"svid":32,"health":1},{"PRN":435,"el":16.0,"az":280.0,"ss":20.0,"used":false,"gnssid":3,"svid":35,"health":1},{"PRN":436,"el":15.0,"az":200.0,"ss":20.0,"used":true,"gnssid":3,"svid":36,"health":1},{"PRN":68,"el":17.0,"az":30.0,"ss":6.0,"used":false,"gnssid":6,"svid":4,"health":1},{"PRN":69,"el":33.0,"az":82.0,"ss":0.0,"used":false,"gnssid":6,"svid":5,"health":1},{"PRN":70,"el":13.0,"az":148.0,"ss":0.0,"used":false,"gnssid":6,"svid":6,"health":1},{"PRN":74,"el":23.0,"az":202.0,"ss":22.0,"used":true,"gnssid":6,"svid":10,"health":1},{"PRN":75,"el":48.0,"az":262.0,"ss":31.0,"used":true,"gnssid":6,"svid":11,"health":1}]}
{"class":"PPS","device":"/dev/pps0","real_sec":1747933204,"real_nsec":0,"clock_sec":1747933204,"clock_nsec":656,"precision":-20}
{"class":"TPV","device":"/dev/ttyACM0","mode":3,"time":"2025-05-22T17:00:04.000Z","leapseconds":18,"ept":0.005,"lat":41.880735000,"lon":-87.643728400,"altHAE":251.5630,"altMSL":285.3520,"alt":285.3520,"epx":11.285,"epy":10.242,"epv":6.996,"track":232.1302,"magtrack":242.8388,"magvar":-4.1,"speed":0.020,"climb":-0.017,"eps":0.03,"epc":14.00,"ecefx":195535.58,"ecefy":-4752018.81,"ecefz":4235918.12,"ecefvx":0.02,"ecefvy":0.02,"ecefvz":0.00,"ecefpAcc":10.23,"ecefvAcc":0.03,"geoidSep":-33.900,"eph":7.466,"sep":23.940}
{"class":"SKY","device":"/dev/ttyACM0","time":"2025-05-22T17:00:04.000Z","xdop":0.87,"ydop":0.73,"vdop":1.33,"tdop":1.07,"hdop":0.97,"gdop":1.96,"pdop":1.65,"nSat":38,"uSat":13,"satellites":[{"PRN":4,"el":7.0,"az":47.0,"ss":0.0,"used":false,"gnssid":0,"svid":4,"health":1},{"PRN":5,"el":15.0,"az":199.0,"ss":21.0,"used":true,"gnssid":0,"svid":5,"health":1},{"PRN":6,"el":55.0,"az":45.0,"ss":8.0,"used":false,"gnssid":0,"svid":6,"health":1},{"PRN":9,"el":13.0,"az":80.0,"ss":0.0,"used":false,"gnssid":0,"svid":9,"health":1},{"PRN":11,"el":77.0,"az":307.0,"ss":13.0,"used":true,"gnssid":0,"svid":11,"health":1},{"PRN":12,"el":56.0,"az":278.0,"ss":26.0,"used":true,"gnssid":0,"svid":12,"health":1},{"PRN":17,"el":14.0,"az":109.0,"ss":9.0,"used":false,"gnssid":0,"svid":17,"health":1},{"PRN":19,"el":38.0,"az":100.0,"ss":8.0,"used":false,"gnssid":0,"svid":19,"health":1},{"PRN":20,"el":49.0,"az":190.0,"ss":25.0,"used":true,"gnssid":0,"svid":20,"health":1},{"PRN":22,"el":6.0,"az":158.0,"ss":18.0,"used":false,"gnssid":0,"svid":22,"health":1},{"PRN":25,"el":29.0,"az":310.0,"ss":0.0,"used":false,"gnssid":0,"svid":25,"health":1},{"PRN":307,"el":9.0,"az":81.0,"ss":0.0,"used":false,"gnssid":2,"svid":7,"health":1},{"PRN":308,"el":3.0,"az":34.0,"ss":0.0,"used":false,"gnssid":2,"svid":8,"health":1},{"PRN":312,"el":21.0,"az":247.0,"ss":16.0,"used":false,"gnssid":2,"svid":12,"health":1},{"PRN":321,"el":0.0,"az":155.0,"ss":11.0,"used":false,"gnssid":2,"svid":21,"health":1},{"PRN":323,"el":44.0,"az":179.0,"ss":21.0,"used":true,"gnssid":2,"svid":23,"health":1},{"PRN":324,"el":18.0,"az":318.0,"ss":0.0,"used":false,"gnssid":2,"svid":24,"health":1},{"PRN":326,"el":47.0,"az":49.0,"ss":10.0,"used":true,"gnssid":2,"svid":26,"health":1},{"PRN":329,"el":2.0,"az":129.0,"ss":0.0,"used":false,"gnssid":2,"svid":29,"health":1},{"PRN":331,"el":61.0,"az":274.0,"ss":19.0,"used":true,"gnssid":2,"svid":31,"health":1},{"PRN":333,"el":73.0,"az":284.0,"ss":17.0,"used":true,"gnssid":2,"svid":33,"health":1},{"PRN":419,"el":3.0,"az":177.0,"ss":0.0,"used":false,"gnssid":3,"svid":19,"health":1},{"PRN":420,"el":31.0,"az":139.0,"ss":0.0,"used":false,"gnssid":3,"svid":20,"health":1},{"PRN":426,"el":19.0,"az":309.0,"ss":0.0,"used":false,"gnssid":3,"svid":26,"health":1},{"PRN":429,"el":70.0,"az":325.0,"ss":0.0,"used":false,"gnssid":3,"svid":29,"health":1},{"PRN":430,"el":42.0,"az":77.0,"ss":0.0,"used":false,"gnssid":3,"svid":30,"health":1},{"PRN":432,"el":33.0,"az":71.0,"ss":0.0,"used":false,"gnssid":3,"svid":32,"health":1},{"PRN":435,"el":16.0,"az":280.0,"ss":19.0,"used":false,"gnssid":3,"svid":35,"health":1},{"PRN":436,"el":15.0,"az":200.0,"ss":21.0,"used":true,"gnssid":3,"svid":36,"health":1},{"PRN":68,"el":17.0,"az":30.0,"ss":10.0,"used":false,"gnssid":6,"svid":4,"health":1},{"PRN":69,"el":33.0,"az":82.0,"ss":0.0,"used":false,"gnssid":6,"svid":5,"health":1},{"PRN":70,"el":13.0,"az":148.0,"ss":0.0,"used":false,"gnssid":6,"svid":6,"health":1},{"PRN":74,"el":23.0,"az":202.0,"ss":22.0,"used":true,"gnssid":6,"svid":10,"health":1},{"PRN":75,"el":48.0,"az":262.0,"ss":31.0,"used":true,"gnssid":6,"svid":11,"health":1}]}
{"class":"PPS","device":"/dev/pps0","real_sec":1747933205,"real_nsec":0,"clock_sec":1747933205,"clock_nsec":282,"precision":-20}
{"class":"TPV","device":"/dev/ttyACM0","mode":3,"time":"2025-05-22T17:00:05.000Z","leapseconds":18,"ept":0.005,"lat":41.880735100,"lon":-87.643728200,"altHAE":251.5260,"altMSL":285.3150,"alt":285.3150,"epx":13.096,"epy":10.965,"epv":6.992,"track":232.1302,"magtrack":242.8388,"magvar":-4.1,"speed":0.020,"climb":-0.017,"eps":0.03,"epc":13.99,"ecefx":195535.58,"ecefy":-4752018.76,"ecefz":4235918.10,"ecefvx":0.02,"ecefvy":0.02,"ecefvz":0.00,"ecefpAcc":10.23,"ecefvAcc":0.03,"geoidSep":-33.900,"eph":7.474,"sep":23.940}
{"class":"SKY","device":"/dev/ttyACM0","time":"2025-05-22T17:00:05.000Z","xdop":0.59,"ydop":0.68,"vdop":1.37,"tdop":1.17,"hdop":1.08,"gdop":2.10,"pdop":1.75,"nSat":38,"uSat":15,"satellites":[{"PRN":4,"el":7.0,"az":47.0,"ss":0.0,"used":false,"gnssid":0,"svid":4,"health":1},{"PRN":5,"el":15.0,"az":199.0,"ss":21.0,"used":true,"gnssid":0,"svid":5,"health":1},{"PRN":6,"el":55.0,"az":45.0,"ss":10.0,"used":true,"gnssid":0,"svid":6,"health":1},{"PRN":9,"el":13.0,"az":80.0,"ss":0.0,"used":false,"gnssid":0,"svid":9,"health":1},{"PRN":11,"el":77.0,"az":307.0,"ss":14.0,"used":true,"gnssid":0,"svid":11,"health":1},{"PRN":12,"el":56.0,"az":278.0,"ss":26.0,"used":true,"gnssid":0,"svid":12,"health":1},{"PRN":17,"el":14.0,"az":109.0,"ss":10.0,"used":false,"gnssid":0,"svid":17,"health":1},{"PRN":19,"el":38.0,"az":100.0,"ss":9.0,"used":true,"gnssid":0,"svid":19,"health":1},{"PRN":20,"el":49.0,"az":190.0,"ss":25.0,"used":true,"gnssid":0,"svid":20,"health":1},{"PRN":22,"el":6.0,"az":158.0,"ss":18.0,"used":false,"gnssid":0,"svid":22,"health":1},{"PRN":25,"el":29.0,"az":310.0,"ss":0.0,"used":false,"gnssid":0,"svid":25,"health":1},{"PRN":307,"el":9.0,"az":81.0,"ss":0.0,"used":false,"gnssid":2,"svid":7,"health":1},{"PRN":308,"el":3.0,"az":34.0,"ss":0.0,"used":false,"gnssid":2,"svid":8,"health":1},{"PRN":312,"el":21.0,"az":247.0,"ss":16.0,"used":false,"gnssid":2,"svid":12,"health":1},{"PRN":321,"el":0.0,"az":155.0,"ss":7.0,"used":false,"gnssid":2,"svid":21,"health":1},{"PRN":323,"el":44.0,"az":179.0,"ss":21.0,"used":true,"gnssid":2,"svid":23,"health":1},{"PRN":324,"el":18.0,"az":318.0,"ss":0.0,"used":false,"gnssid":2,"svid":24,"health":1},{"PRN":326,"el":47.0,"az":49.0,"ss":12.0,"used":true,"gnssid":2,"svid":26,"health":1},{"PRN":329,"el":2.0,"az":129.0,"ss":0.0,"used":false,"gnssid":2,"svid":29,"health":1},{"PRN":331,"el":61.0,"az":274.0,"ss":18.0,"used":true,"gnssid":2,"svid":31,"health":1},{"PRN":333,"el":73.0,"az":284.0,"ss":17.0,"used":true,"gnssid":2,"svid":33,"health":1},{"PRN":419,"el":3.0,"az":177.0,"ss":0.0,"used":false,"gnssid":3,"svid":19,"health":1},{"PRN":420,"el":31.0,"az":139.0,"ss":0.0,"used":false,"gnssid":3,"svid":20,"health":1},{"PRN":426,"el":19.0,"az":309.0,"ss":0.0,"used":false,"gnssid":3,"svid":26,"health":1},{"PRN":429,"el":70.0,"az":325.0,"ss":0.0,"used":false,"gnssid":3,"svid":29,"health":1},{"PRN":430,"el":42.0,"az":77.0,"ss":0.0,"used":false,"gnssid":3,"svid":30,"health":1},{"PRN":432,"el":33.0,"az":71.0,"ss":0.0,"used":false,"gnssid":3,"svid":32,"health":1},{"PRN":435,"el":16.0,"az":280.0,"ss":19.0,"used":false,"gnssid":3,"svid":35,"health":1},{"PRN":436,"el":15.0,"az":200.0,"ss":21.0,"used":true,"gnssid":3,"svid":36,"health":1},{"PRN":68,"el":17.0,"az":30.0,"ss":8.0,"used":false,"gnssid":6,"svid":4,"health":1},{"PRN":69,"el":33.0,"az":82.0,"ss":0.0,"used":false,"gnssid":6,"svid":5,"health":1},{"PRN":70,"el":13.0,"az":148.0,"ss":0.0,"used":false,"gnssid":6,"svid":6,"health":1},{"PRN":74,"el":23.0,"az":202.0,"ss":21.0,"used":true,"gnssid":6,"svid":10,"health":1},{"PRN":75,"el":48.0,"az":262.0,"ss":31.0,"used":true,"gnssid":6,"svid":11,"health":1}]}
{"class":"PPS","device":"/dev/pps0","real_sec":1747933206,"real_nsec":0,"clock_sec":1747933206,"clock_nsec":297,"precision":-20}
{"class":"TPV","device":"/dev/ttyACM0","mode":3,"time":"2025-05-22T17:00:06.000Z","leapseconds":18,"ept":0.005,"lat":41.880735800,"lon":-87.643727100,"altHAE":251.4610,"altMSL":285.2500,"alt":285.2500,"epx":8.919,"epy":10.207,"epv":6.982,"track":232.1302,"magtrack":242.8388,"magvar":-4.1,"speed":0.021,"climb":-0.017,"eps":0.03,"epc":13.97,"ecefx":195535.60,"ecefy":-4752018.72,"ecefz":4235918.09,"ecefvx":0.02,"ecefvy":0.02,"ecefvz":0.00,"ecefpAcc":10.23,"ecefvAcc":0.03,"geoidSep":-33.900,"eph":7.470,"sep":23.940}
{"class":"SKY","device":"/dev/ttyACM0","time":"2025-05-22T17:00:06.000Z","xdop":0.87,"ydop":0.73,"vdop":1.28,"tdop":0.98,"hdop":0.87,"gdop":1.83,"pdop":1.55,"nSat":38,"uSat":13,"satellites":[{"PRN":4,"el":7.0,"az":47.0,"ss":0.0,"used":false,"gnssid":0,"svid":4,"health":1},{"PRN":5,"el":15.0,"az":199.0,"ss":20.0,"used":true,"gnssid":0,"svid":5,"health":1},{"PRN":6,"el":55.0,"az":45.0,"ss":8.0,"used":false,"gnssid":0,"svid":6,"health":1},{"PRN":9,"el":13.0,"az":80.0,"ss":0.0,"used":false,"gnssid":0,"svid":9,"health":1},{"PRN":11,"el":77.0,"az":307.0,"ss":9.0,"used":true,"gnssid":0,"svid":11,"health":1},{"PRN":12,"el":56.0,"az":278.0,"ss":26.0,"used":true,"gnssid":0,"svid":12,"health":1},{"PRN":17,"el":14.0,"az":109.0,"ss":11.0,"used":false,"gnssid":0,"svid":17,"health":1},{"PRN":19,"el":38.0,"az":100.0,"ss":9.0,"used":false,"gnssid":0,"svid":19,"health":1},{"PRN":20,"el":49.0,"az":190.0,"ss":25.0,"used":true,"gnssid":0,"svid":20,"health":1},{"PRN":22,"el":6.0,"az":158.0,"ss":18.0,"used":false,"gnssid":0,"svid":22,"health":1},{"PRN":25,"el":29.0,"az":310.0,"ss":0.0,"used":false,"gnssid":0,"svid":25,"health":1},{"PRN":307,"el":9.0,"az":81.0,"ss":0.0,"used":false,"gnssid":2,"svid":7,"health":1},{"PRN":308,"el":3.0,"az":34.0,"ss":0.0,"used":false,"gnssid":2,"svid":8,"health":1},{"PRN":312,"el":21.0,"az":247.0,"ss":16.0,"used":false,"gnssid":2,"svid":12,"health":1},{"PRN":321,"el":0.0,"az":155.0,"ss":8.0,"used":false,"gnssid":2,"svid":21,"health":1},{"PRN":323,"el":44.0,"az":179.0,"ss":21.0,"used":true,"gnssid":2,"svid":23,"health":1},{"PRN":324,"el":18.0,"az":318.0,"ss":0.0,"used":false,"gnssid":2,"svid":24,"health":1},{"PRN":326,"el":47.0,"az":49.0,"ss":9.0,"used":true,"gnssid":2,"svid":26,"health":1},{"PRN":329,"el":2.0,"az":129.0,"ss":0.0,"used":false,"gnssid":2,"svid":29,"health":1},{"PRN":331,"el":61.0,"az":274.0,"ss":18.0,"used":true,"gnssid":2,"svid":31,"health":1},{"PRN":333,"el":73.0,"az":284.0,"ss":17.0,"used":true,"gnssid":2,"svid":33,"health":1},{"PRN":419,"el":3.0,"az":177.0,"ss":0.0,"used":false,"gnssid":3,"svid":19,"health":1},{"PRN":420,"el":31.0,"az":139.0,"ss":0.0,"used":false,"gnssid":3,"svid":20,"health":1},{"PRN":426,"el":19.0,"az":309.0,"ss":0.0,"used":false,"gnssid":3,"svid":26,"health":1},{"PRN":429,"el":70.0,"az":325.0,"ss":0.0,"used":false,"gnssid":3,"svid":29,"health":1},{"PRN":430,"el":42.0,"az":77.0,"ss":0.0,"used":false,"gnssid":3,"svid":30,"health":1},{"PRN":432,"el":33.0,"az":71.0,"ss":0.0,"used":false,"gnssid":3,"svid":32,"health":1},{"PRN":435,"el":16.0,"az":280.0,"ss":19.0,"used":false,"gnssid":3,"svid":35,"health":1},{"PRN":436,"el":15.0,"az":200.0,"ss":21.0,"used":true,"gnssid":3,"svid":36,"health":1},{"PRN":68,"el":17.0,"az":30.0,"ss":8.0,"used":false,"gnssid":6,"svid":4,"health":1},{"PRN":69,"el":33.0,"az":82.0,"ss":0.0,"used":false,"gnssid":6,"svid":5,"health":1},{"PRN":70,"el":13.0,"az":148.0,"ss":0.0,"used":false,"gnssid":6,"svid":6,"health":1},{"PRN":74,"el":23.0,"az":202.0,"ss":22.0,"used":true,"gnssid":6,"svid":10,"health":1},{"PRN":75,"el":48.0,"az":262.0,"ss":30.0,"used":true,"gnssid":6,"svid":11,"health":1}]}
{"class":"PPS","device":"/dev/pps0","real_sec":1747933207,"real_nsec":0,"clock_sec":1747933206,"clock_nsec":999999405,"precision":-20}
{"class":"TPV","device":"/dev/ttyACM0","mode":3,"time":"2025-05-22T17:00:07.000Z","leapseconds":18,"ept":0.005,"lat":41.880735800,"lon":-87.643727000,"altHAE":251.4690,"altMSL":285.2580,"alt":285.2580,"epx":13.096,"epy":10.965,"epv":6.978,"track":232.1302,"magtrack":242.8388,"magvar":-4.1,"speed":0.020,"climb":-0.017,"eps":0.03,"epc":13.96,"ecefx":195535.68,"ecefy":-4752018.62,"ecefz":4235918.10,"ecefvx":0.02,"ecefvy":0.02,"ecefvz":0.00,"ecefpAcc":10.22,"ecefvAcc":0.03,"geoidSep":-33.900,"eph":7.479,"sep":23.940}
