{"class":"VERSION","release":"3.22","rev":"3.22","proto_major":3,"proto_minor":14}
{"class":"DEVICES","devices":[{"class":"DEVICE","path":"/dev/ttyACM0","driver":"u-blox","subtype":"SW EXT CORE 1.00 (3fda8e),HW 00190000","subtype1":"ROM BASE 0x118B2060,FWVER=TIM 2.20,PROTVER=29.20,MOD=ZED-F9T,GPS;GLO;GAL;BDS,SBAS;QZSS,NAVIC","activated":"2025-05-16T05:00:01.071Z","flags":1,"native":1,"bps":9600,"parity":"N","stopbits":1,"cycle":1.00,"mincycle":0.02},{"class":"DEVICE","path":"/dev/pps0","driver":"PPS","activated":"2025-05-16T05:00:01.000Z"}]}
{"class":"WATCH","enable":true,"json":true,"nmea":false,"raw":0,"scaled":false,"timing":false,"split24":false,"pps":false}
{"class":"PPS","device":"/dev/pps0","real_sec":1747371602,"real_nsec":0,"clock_sec":1747371602,"clock_nsec":302,"precision":-20}
{"class":"TPV","device":"/dev/ttyACM0","mode":3,"time":"2025-05-16T05:00:02.000Z","leapseconds":18,"ept":0.005,"lat":41.880758000,"lon":-87.643850600,"altHAE":260.6010,"altMSL":294.3900,"alt":294.3900,"epx":25.321,"epy":24.071,"epv":4.599,"track":204.5607,"magtrack":20.3877,"magvar":-4.1,"speed":0.017,"climb":0.000,"eps":0.01,"epc":9.20,"ecefx":195525.66,"ecefy":-4752024.19,"ecefz":4235926.05,"ecefvx":0.01,"ecefvy":0.01,"ecefvz":0.01,"ecefpAcc":8.61,"ecefvAcc":0.01,"geoidSep":-33.900,"eph":7.276,"sep":19.974}
{"class":"SKY","device":"/dev/ttyACM0","time":"2025-05-16T05:00:02.000Z","xdop":0.99,"ydop":0.78,"vdop":2.62,"tdop":2.64,"hdop":2.39,"gdop":4.42,"pdop":3.55,"nSat":39,"uSat":13,"satellites":[{"PRN":1,"el":17.0,"az":257.0,"ss":27.0,"used":true,"gnssid":0,"svid":1,"health":1},{"PRN":2,"el":4.0,"az":234.0,"ss":18.0,"used":false,"gnssid":0,"svid":2,"health":1},{"PRN":3,"el":48.0,"az":300.0,"ss":16.0,"used":false,"gnssid":0,"svid":3,"health":1},{"PRN":4,"el":14.0,"az":295.0,"ss":21.0,"used":false,"gnssid":0,"svid":4,"health":1},{"PRN":10,"el":5.0,"az":158.0,"ss":21.0,"used":false,"gnssid":0,"svid":10,"health":1},{"PRN":16,"el":16.0,"az":184.0,"ss":28.0,"used":true,"gnssid":0,"svid":16,"health":1},{"PRN":25,"el":20.0,"az":44.0,"ss":0.0,"used":false,"gnssid":0,"svid":25,"health":1},{"PRN":26,"el":45.0,"az":172.0,"ss":30.0,"used":true,"gnssid":0,"svid":26,"health":1},{"PRN":28,"el":60.0,"az":45.0,"ss":10.0,"used":true,"gnssid":0,"svid":28,"health":1},{"PRN":29,"el":4.0,"az":84.0,"ss":0.0,"used":false,"gnssid":0,"svid":29,"health":1},{"PRN":31,"el":82.0,"az":320.0,"ss":11.0,"used":true,"gnssid":0,"svid":31,"health":1},{"PRN":32,"el":36.0,"az":101.0,"ss":0.0,"used":false,"gnssid":0,"svid":32,"health":1},{"PRN":302,"el":7.0,"az":190.0,"ss":21.0,"used":false,"gnssid":2,"svid":2,"health":1},{"PRN":303,"el":62.0,"az":316.0,"ss":10.0,"used":true,"gnssid":2,"svid":3,"health":1},{"PRN":305,"el":55.0,"az":84.0,"ss":9.0,"used":false,"gnssid":2,"svid":5,"health":1},{"PRN":308,"el":14.0,"az":292.0,"ss":19.0,"used":false,"gnssid":2,"svid":8,"health":1},{"PRN":309,"el":6.0,"az":102.0,"ss":10.0,"used":false,"gnssid":2,"svid":9,"health":1},{"PRN":313,"el":14.0,"az":315.0,"ss":0.0,"used":false,"gnssid":2,"svid":13,"health":1},{"PRN":315,"el":22.0,"az":263.0,"ss":26.0,"used":true,"gnssid":2,"svid":15,"health":1},{"PRN":316,"el":53.0,"az":113.0,"ss":0.0,"used":false,"gnssid":2,"svid":16,"health":1},{"PRN":324,"el":44.0,"az":72.0,"ss":0.0,"used":false,"gnssid":2,"svid":24,"health":1},{"PRN":325,"el":45.0,"az":151.0,"ss":24.0,"used":true,"gnssid":2,"svid":25,"health":1},{"PRN":331,"el":7.0,"az":33.0,"ss":0.0,"used":false,"gnssid":2,"svid":31,"health":1},{"PRN":334,"el":7.0,"az":215.0,"ss":23.0,"used":false,"gnssid":2,"svid":34,"health":1},{"PRN":414,"el":87.0,"az":286.0,"ss":0.0,"used":false,"gnssid":3,"svid":14,"health":1},{"PRN":421,"el":13.0,"az":134.0,"ss":0.0,"used":false,"gnssid":3,"svid":21,"health":1},{"PRN":424,"el":68.0,"az":198.0,"ss":27.0,"used":true,"gnssid":3,"svid":24,"health":1},{"PRN":425,"el":14.0,"az":220.0,"ss":29.0,"used":true,"gnssid":3,"svid":25,"health":1},{"PRN":426,"el":55.0,"az":56.0,"ss":13.0,"used":false,"gnssid":3,"svid":26,"health":1},{"PRN":433,"el":58.0,"az":311.0,"ss":17.0,"used":false,"gnssid":3,"svid":33,"health":1},{"PRN":67,"el":23.0,"az":122.0,"ss":0.0,"used":false,"gnssid":6,"svid":3,"health":1},{"PRN":68,"el":69.0,"az":82.0,"ss":0.0,"used":false,"gnssid":6,"svid":4,"health":1},{"PRN":69,"el":46.0,"az":329.0,"ss":14.0,"used":true,"gnssid":6,"svid":5,"health":1},{"PRN":77,"el":10.0,"az":32.0,"ss":0.0,"used":false,"gnssid":6,"svid":13,"health":1},{"PRN":78,"el":68.0,"az":51.0,"ss":10.0,"used":true,"gnssid":6,"svid":14,"health":1}]}
{"class":"PPS","device":"/dev/pps0","real_sec":1747371603,"real_nsec":0,"clock_sec":1747371603,"clock_nsec":193,"precision":-20}
{"class":"TPV","device":"/dev/ttyACM0","mode":3,"time":"2025-05-16T05:00:03.000Z","leapseconds":18,"ept":0.005,"lat":41.880758000,"lon":-87.643850600,"altHAE":260.5930,"altMSL":294.3820,"alt":294.3820,"epx":14.896,"epy":11.661,"epv":4.598,"track":204.5607,"magtrack":20.3877,"magvar":-4.1,"speed":0.017,"climb":0.000,"eps":0.01,"epc":9.20,"ecefx":195525.65,"ecefy":-4752024.19,"ecefz":4235926.04,"ecefvx":0.01,"ecefvy":0.01,"ecefvz":0.01,"ecefpAcc":8.61,"ecefvAcc":0.01,"geoidSep":-33.900,"eph":7.274,"sep":19.974}
{"class":"SKY","device":"/dev/ttyACM0","time":"2025-05-16T05:00:03.000Z","xdop":1.00,"ydop":0.90,"vdop":1.84,"tdop":1.51,"hdop":1.26,"gdop":2.69,"pdop":2.23,"nSat":39,"uSat":12,"satellites":[{"PRN":1,"el":17.0,"az":257.0,"ss":28.0,"used":true,"gnssid":0,"svid":1,"health":1},{"PRN":2,"el":4.0,"az":234.0,"ss":18.0,"used":false,"gnssid":0,"svid":2,"health":1},{"PRN":3,"el":48.0,"az":300.0,"ss":16.0,"used":false,"gnssid":0,"svid":3,"health":1},{"PRN":4,"el":14.0,"az":295.0,"ss":21.0,"used":false,"gnssid":0,"svid":4,"health":1},{"PRN":10,"el":5.0,"az":158.0,"ss":19.0,"used":false,"gnssid":0,"svid":10,"health":1},{"PRN":16,"el":16.0,"az":184.0,"ss":28.0,"used":true,"gnssid":0,"svid":16,"health":1},{"PRN":25,"el":20.0,"az":44.0,"ss":0.0,"used":false,"gnssid":0,"svid":25,"health":1},{"PRN":26,"el":45.0,"az":172.0,"ss":30.0,"used":true,"gnssid":0,"svid":26,"health":1},{"PRN":28,"el":60.0,"az":45.0,"ss":9.0,"used":true,"gnssid":0,"svid":28,"health":1},{"PRN":29,"el":4.0,"az":84.0,"ss":0.0,"used":false,"gnssid":0,"svid":29,"health":1},{"PRN":31,"el":82.0,"az":320.0,"ss":11.0,"used":true,"gnssid":0,"svid":31,"health":1},{"PRN":32,"el":36.0,"az":101.0,"ss":0.0,"used":false,"gnssid":0,"svid":32,"health":1},{"PRN":302,"el":7.0,"az":190.0,"ss":23.0,"used":false,"gnssid":2,"svid":2,"health":1},{"PRN":303,"el":62.0,"az":316.0,"ss":10.0,"used":true,"gnssid":2,"svid":3,"health":1},{"PRN":305,"el":55.0,"az":84.0,"ss":9.0,"used":false,"gnssid":2,"svid":5,"health":1},{"PRN":308,"el":14.0,"az":292.0,"ss":19.0,"used":false,"gnssid":2,"svid":8,"health":1},{"PRN":309,"el":6.0,"az":102.0,"ss":10.0,"used":false,"gnssid":2,"svid":9,"health":1},{"PRN":313,"el":14.0,"az":315.0,"ss":0.0,"used":false,"gnssid":2,"svid":13,"health":1},{"PRN":315,"el":22.0,"az":263.0,"ss":26.0,"used":true,"gnssid":2,"svid":15,"health":1},{"PRN":316,"el":53.0,"az":113.0,"ss":0.0,"used":false,"gnssid":2,"svid":16,"health":1},{"PRN":324,"el":44.0,"az":72.0,"ss":0.0,"used":false,"gnssid":2,"svid":24,"health":1},{"PRN":325,"el":45.0,"az":151.0,"ss":24.0,"used":true,"gnssid":2,"svid":25,"health":1},{"PRN":331,"el":7.0,"az":33.0,"ss":0.0,"used":false,"gnssid":2,"svid":31,"health":1},{"PRN":334,"el":7.0,"az":215.0,"ss":22.0,"used":false,"gnssid":2,"svid":34,"health":1},{"PRN":414,"el":87.0,"az":286.0,"ss":0.0,"used":false,"gnssid":3,"svid":14,"health":1},{"PRN":421,"el":13.0,"az":134.0,"ss":0.0,"used":false,"gnssid":3,"svid":21,"health":1},{"PRN":424,"el":68.0,"az":198.0,"ss":27.0,"used":true,"gnssid":3,"svid":24,"health":1},{"PRN":425,"el":14.0,"az":220.0,"ss":29.0,"used":true,"gnssid":3,"svid":25,"health":1},{"PRN":426,"el":55.0,"az":56.0,"ss":10.0,"used":false,"gnssid":3,"svid":26,"health":1},{"PRN":433,"el":58.0,"az":311.0,"ss":17.0,"used":false,"gnssid":3,"svid":33,"health":1},{"PRN":67,"el":23.0,"az":122.0,"ss":0.0,"used":false,"gnssid":6,"svid":3,"health":1},{"PRN":68,"el":69.0,"az":82.0,"ss":0.0,"used":false,"gnssid":6,"svid":4,"health":1},{"PRN":69,"el":46.0,"az":329.0,"ss":8.0,"used":false,"gnssid":6,"svid":5,"health":1},{"PRN":77,"el":10.0,"az":32.0,"ss":0.0,"used":false,"gnssid":6,"svid":13,"health":1},{"PRN":78,"el":68.0,"az":51.0,"ss":9.0,"used":true,"gnssid":6,"svid":14,"health":1}]}
{"class":"PPS","device":"/dev/pps0","real_sec":1747371604,"real_nsec":0,"clock_sec":1747371603,"clock_nsec":999998747,"precision":-20}
{"class":"TPV","device":"/dev/ttyACM0","mode":3,"time":"2025-05-16T05:00:04.000Z","leapseconds":18,"ept":0.005,"lat":41.880758000,"lon":-87.643850600,"altHAE":260.5790,"altMSL":294.3680,"alt":294.3680,"epx":14.955,"epy":13.569,"epv":4.593,"track":204.5607,"magtrack":20.3877,"magvar":-4.1,"speed":0.017,"climb":0.000,"eps":0.01,"epc":9.19,"ecefx":195525.65,"ecefy":-4752024.19,"ecefz":4235926.04,"ecefvx":0.01,"ecefvy":0.01,"ecefvz":0.01,"ecefpAcc":8.61,"ecefvAcc":0.01,"geoidSep":-33.900,"eph":7.260,"sep":19.974}
{"class":"SKY","device":"/dev/ttyACM0","time":"2025-05-16T05:00:04.000Z","xdop":1.07,"ydop":0.98,"vdop":1.88,"tdop":1.59,"hdop":1.33,"gdop":2.80,"pdop":2.31,"nSat":39,"uSat":11,"satellites":[{"PRN":1,"el":17.0,"az":257.0,"ss":28.0,"used":true,"gnssid":0,"svid":1,"health":1},{"PRN":2,"el":4.0,"az":234.0,"ss":17.0,"used":false,"gnssid":0,"svid":2,"health":1},{"PRN":3,"el":48.0,"az":300.0,"ss":16.0,"used":false,"gnssid":0,"svid":3,"health":1},{"PRN":4,"el":14.0,"az":295.0,"ss":20.0,"used":false,"gnssid":0,"svid":4,"health":1},{"PRN":10,"el":5.0,"az":158.0,"ss":19.0,"used":false,"gnssid":0,"svid":10,"health":1},{"PRN":16,"el":16.0,"az":184.0,"ss":28.0,"used":true,"gnssid":0,"svid":16,"health":1},{"PRN":25,"el":20.0,"az":44.0,"ss":0.0,"used":false,"gnssid":0,"svid":25,"health":1},{"PRN":26,"el":45.0,"az":172.0,"ss":31.0,"used":true,"gnssid":0,"svid":26,"health":1},{"PRN":28,"el":60.0,"az":45.0,"ss":10.0,"used":true,"gnssid":0,"svid":28,"health":1},{"PRN":29,"el":4.0,"az":84.0,"ss":0.0,"used":false,"gnssid":0,"svid":29,"health":1},{"PRN":31,"el":82.0,"az":320.0,"ss":12.0,"used":true,"gnssid":0,"svid":31,"health":1},{"PRN":32,"el":36.0,"az":101.0,"ss":0.0,"used":false,"gnssid":0,"svid":32,"health":1},{"PRN":302,"el":7.0,"az":190.0,"ss":23.0,"used":false,"gnssid":2,"svid":2,"health":1},{"PRN":303,"el":62.0,"az":316.0,"ss":13.0,"used":true,"gnssid":2,"svid":3,"health":1},{"PRN":305,"el":55.0,"az":84.0,"ss":7.0,"used":false,"gnssid":2,"svid":5,"health":1},{"PRN":308,"el":14.0,"az":292.0,"ss":19.0,"used":false,"gnssid":2,"svid":8,"health":1},{"PRN":309,"el":6.0,"az":102.0,"ss":6.0,"used":false,"gnssid":2,"svid":9,"health":1},{"PRN":313,"el":14.0,"az":315.0,"ss":0.0,"used":false,"gnssid":2,"svid":13,"health":1},{"PRN":315,"el":22.0,"az":263.0,"ss":26.0,"used":true,"gnssid":2,"svid":15,"health":1},{"PRN":316,"el":53.0,"az":113.0,"ss":0.0,"used":false,"gnssid":2,"svid":16,"health":1},{"PRN":324,"el":44.0,"az":72.0,"ss":0.0,"used":false,"gnssid":2,"svid":24,"health":1},{"PRN":325,"el":45.0,"az":151.0,"ss":24.0,"used":true,"gnssid":2,"svid":25,"health":1},{"PRN":331,"el":7.0,"az":33.0,"ss":0.0,"used":false,"gnssid":2,"svid":31,"health":1},{"PRN":334,"el":7.0,"az":215.0,"ss":23.0,"used":false,"gnssid":2,"svid":34,"health":1},{"PRN":414,"el":87.0,"az":286.0,"ss":0.0,"used":false,"gnssid":3,"svid":14,"health":1},{"PRN":421,"el":13.0,"az":134.0,"ss":0.0,"used":false,"gnssid":3,"svid":21,"health":1},{"PRN":424,"el":68.0,"az":198.0,"ss":27.0,"used":true,"gnssid":3,"svid":24,"health":1},{"PRN":425,"el":14.0,"az":220.0,"ss":29.0,"used":true,"gnssid":3,"svid":25,"health":1},{"PRN":426,"el":55.0,"az":56.0,"ss":8.0,"used":false,"gnssid":3,"svid":26,"health":1},{"PRN":433,"el":58.0,"az":311.0,"ss":17.0,"used":false,"gnssid":3,"svid":33,"health":1},{"PRN":67,"el":23.0,"az":122.0,"ss":0.0,"used":false,"gnssid":6,"svid":3,"health":1},{"PRN":68,"el":69.0,"az":82.0,"ss":0.0,"used":false,"gnssid":6,"svid":4,"health":1},{"PRN":69,"el":46.0,"az":329.0,"ss":9.0,"used":false,"gnssid":6,"svid":5,"health":1},{"PRN":77,"el":10.0,"az":32.0,"ss":0.0,"used":false,"gnssid":6,"svid":13,"health":1},{"PRN":78,"el":68.0,"az":51.0,"ss":11.0,"used":false,"gnssid":6,"svid":14,"health":1}]}
{"class":"PPS","device":"/dev/pps0","real_sec":1747371605,"real_nsec":0,"clock_sec":1747371604,"clock_nsec":999999815,"precision":-20}
{"class":"TPV","device":"/dev/ttyACM0","mode":3,"time":"2025-05-16T05:00:05.000Z","leapseconds":18,"ept":0.005,"lat":41.880757800,"lon":-87.643850700,"altHAE":260.5840,"altMSL":294.3730,"alt":294.3730,"epx":15.996,"epy":14.638,"epv":4.591,"track":204.5607,"magtrack":20.3877,"magvar":-4.1,"speed":0.017,"climb":0.000,"eps":0.01,"epc":9.18,"ecefx":195525.65,"ecefy":-4752024.18,"ecefz":4235926.03,"ecefvx":0.01,"ecefvy":0.01,"ecefvz":0.01,"ecefpAcc":8.59,"ecefvAcc":0.01,"geoidSep":-33.900,"eph":7.256,"sep":19.974}
{"class":"SKY","device":"/dev/ttyACM0","time":"2025-05-16T05:00:05.000Z","xdop":0.99,"ydop":0.78,"vdop":1.92,"tdop":1.67,"hdop":1.44,"gdop":2.93,"pdop":2.40,"nSat":39,"uSat":13,"satellites":[{"PRN":1,"el":17.0,"az":257.0,"ss":27.0,"used":true,"gnssid":0,"svid":1,"health":1},{"PRN":2,"el":4.0,"az":234.0,"ss":17.0,"used":false,"gnssid":0,"svid":2,"health":1},{"PRN":3,"el":48.0,"az":300.0,"ss":16.0,"used":false,"gnssid":0,"svid":3,"health":1},{"PRN":4,"el":14.0,"az":295.0,"ss":20.0,"used":false,"gnssid":0,"svid":4,"health":1},{"PRN":10,"el":5.0,"az":158.0,"ss":18.0,"used":false,"gnssid":0,"svid":10,"health":1},{"PRN":16,"el":16.0,"az":184.0,"ss":28.0,"used":true,"gnssid":0,"svid":16,"health":1},{"PRN":25,"el":20.0,"az":44.0,"ss":0.0,"used":false,"gnssid":0,"svid":25,"health":1},{"PRN":26,"el":45.0,"az":172.0,"ss":31.0,"used":true,"gnssid":0,"svid":26,"health":1},{"PRN":28,"el":60.0,"az":45.0,"ss":10.0,"used":true,"gnssid":0,"svid":28,"health":1},{"PRN":29,"el":4.0,"az":84.0,"ss":0.0,"used":false,"gnssid":0,"svid":29,"health":1},{"PRN":31,"el":82.0,"az":320.0,"ss":11.0,"used":true,"gnssid":0,"svid":31,"health":1},{"PRN":32,"el":36.0,"az":101.0,"ss":0.0,"used":false,"gnssid":0,"svid":32,"health":1},{"PRN":302,"el":7.0,"az":190.0,"ss":24.0,"used":false,"gnssid":2,"svid":2,"health":1},{"PRN":303,"el":62.0,"az":316.0,"ss":12.0,"used":true,"gnssid":2,"svid":3,"health":1},{"PRN":305,"el":55.0,"az":84.0,"ss":7.0,"used":false,"gnssid":2,"svid":5,"health":1},{"PRN":308,"el":14.0,"az":292.0,"ss":20.0,"used":false,"gnssid":2,"svid":8,"health":1},{"PRN":309,"el":6.0,"az":102.0,"ss":11.0,"used":false,"gnssid":2,"svid":9,"health":1},{"PRN":313,"el":14.0,"az":315.0,"ss":0.0,"used":false,"gnssid":2,"svid":13,"health":1},{"PRN":315,"el":22.0,"az":263.0,"ss":26.0,"used":true,"gnssid":2,"svid":15,"health":1},{"PRN":316,"el":53.0,"az":113.0,"ss":0.0,"used":false,"gnssid":2,"svid":16,"health":1},{"PRN":324,"el":44.0,"az":72.0,"ss":0.0,"used":false,"gnssid":2,"svid":24,"health":1},{"PRN":325,"el":45.0,"az":151.0,"ss":25.0,"used":true,"gnssid":2,"svid":25,"health":1},{"PRN":331,"el":7.0,"az":33.0,"ss":0.0,"used":false,"gnssid":2,"svid":31,"health":1},{"PRN":334,"el":7.0,"az":215.0,"ss":23.0,"used":false,"gnssid":2,"svid":34,"health":1},{"PRN":414,"el":87.0,"az":286.0,"ss":0.0,"used":false,"gnssid":3,"svid":14,"health":1},{"PRN":421,"el":13.0,"az":134.0,"ss":0.0,"used":false,"gnssid":3,"svid":21,"health":1},{"PRN":424,"el":68.0,"az":198.0,"ss":27.0,"used":true,"gnssid":3,"svid":24,"health":1},{"PRN":425,"el":14.0,"az":220.0,"ss":30.0,"used":true,"gnssid":3,"svid":25,"health":1},{"PRN":426,"el":55.0,"az":56.0,"ss":8.0,"used":false,"gnssid":3,"svid":26,"health":1},{"PRN":433,"el":58.0,"az":311.0,"ss":17.0,"used":false,"gnssid":3,"svid":33,"health":1},{"PRN":67,"el":23.0,"az":122.0,"ss":0.0,"used":false,"gnssid":6,"svid":3,"health":1},{"PRN":68,"el":69.0,"az":82.0,"ss":0.0,"used":false,"gnssid":6,"svid":4,"health":1},{"PRN":69,"el":46.0,"az":329.0,"ss":12.0,"used":true,"gnssid":6,"svid":5,"health":1},{"PRN":77,"el":10.0,"az":32.0,"ss":0.0,"used":false,"gnssid":6,"svid":13,"health":1},{"PRN":78,"el":68.0,"az":51.0,"ss":9.0,"used":true,"gnssid":6,"svid":14,"health":1}]}
{"class":"PPS","device":"/dev/pps0","real_sec":1747371606,"real_nsec":0,"clock_sec":1747371605,"clock_nsec":999999068,"precision":-20}
{"class":"TPV","device":"/dev/ttyACM0","mode":3,"time":"2025-05-16T05:00:06.000Z","leapseconds":18,"ept":0.005,"lat":41.880757400,"lon":-87.643850800,"altHAE":260.5970,"altMSL":294.3860,"alt":294.3860,"epx":14.896,"epy":11.661,"epv":4.588,"track":204.5607,"magtrack":20.3877,"magvar":-4.1,"speed":0.017,"climb":0.000,"eps":0.01,"epc":9.18,"ecefx":195525.65,"ecefy":-4752024.20,"ecefz":4235926.01,"ecefvx":0.01,"ecefvy":0.01,"ecefvz":0.01,"ecefpAcc":8.59,"ecefvAcc":0.01,"geoidSep":-33.900,"eph":7.252,"sep":19.974}
{"class":"SKY","device":"/dev/ttyACM0","time":"2025-05-16T05:00:06.000Z","xdop":0.99,"ydop":0.78,"vdop":1.84,"tdop":1.51,"hdop":1.26,"gdop":2.69,"pdop":2.23,"nSat":39,"uSat":13,"satellites":[{"PRN":1,"el":17.0,"az":257.0,"ss":27.0,"used":true,"gnssid":0,"svid":1,"health":1},{"PRN":2,"el":4.0,"az":234.0,"ss":16.0,"used":false,"gnssid":0,"svid":2,"health":1},{"PRN":3,"el":48.0,"az":300.0,"ss":15.0,"used":false,"gnssid":0,"svid":3,"health":1},{"PRN":4,"el":14.0,"az":295.0,"ss":21.0,"used":false,"gnssid":0,"svid":4,"health":1},{"PRN":10,"el":5.0,"az":158.0,"ss":18.0,"used":false,"gnssid":0,"svid":10,"health":1},{"PRN":16,"el":16.0,"az":184.0,"ss":28.0,"used":true,"gnssid":0,"svid":16,"health":1},{"PRN":25,"el":20.0,"az":44.0,"ss":0.0,"used":false,"gnssid":0,"svid":25,"health":1},{"PRN":26,"el":45.0,"az":172.0,"ss":31.0,"used":true,"gnssid":0,"svid":26,"health":1},{"PRN":28,"el":60.0,"az":45.0,"ss":10.0,"used":true,"gnssid":0,"svid":28,"health":1},{"PRN":29,"el":4.0,"az":84.0,"ss":0.0,"used":false,"gnssid":0,"svid":29,"health":1},{"PRN":31,"el":82.0,"az":320.0,"ss":10.0,"used":true,"gnssid":0,"svid":31,"health":1},{"PRN":32,"el":36.0,"az":101.0,"ss":0.0,"used":false,"gnssid":0,"svid":32,"health":1},{"PRN":302,"el":7.0,"az":190.0,"ss":24.0,"used":false,"gnssid":2,"svid":2,"health":1},{"PRN":303,"el":62.0,"az":316.0,"ss":10.0,"used":true,"gnssid":2,"svid":3,"health":1},{"PRN":305,"el":55.0,"az":84.0,"ss":7.0,"used":false,"gnssid":2,"svid":5,"health":1},{"PRN":308,"el":14.0,"az":292.0,"ss":20.0,"used":false,"gnssid":2,"svid":8,"health":1},{"PRN":309,"el":6.0,"az":102.0,"ss":10.0,"used":false,"gnssid":2,"svid":9,"health":1},{"PRN":313,"el":14.0,"az":315.0,"ss":0.0,"used":false,"gnssid":2,"svid":13,"health":1},{"PRN":315,"el":22.0,"az":263.0,"ss":26.0,"used":true,"gnssid":2,"svid":15,"health":1},{"PRN":316,"el":53.0,"az":113.0,"ss":0.0,"used":false,"gnssid":2,"svid":16,"health":1},{"PRN":324,"el":44.0,"az":72.0,"ss":0.0,"used":false,"gnssid":2,"svid":24,"health":1},{"PRN":325,"el":45.0,"az":151.0,"ss":25.0,"used":true,"gnssid":2,"svid":25,"health":1},{"PRN":331,"el":7.0,"az":33.0,"ss":0.0,"used":false,"gnssid":2,"svid":31,"health":1},{"PRN":334,"el":7.0,"az":215.0,"ss":23.0,"used":false,"gnssid":2,"svid":34,"health":1},{"PRN":414,"el":87.0,"az":286.0,"ss":0.0,"used":false,"gnssid":3,"svid":14,"health":1},{"PRN":421,"el":13.0,"az":134.0,"ss":0.0,"used":false,"gnssid":3,"svid":21,"health":1},{"PRN":424,"el":68.0,"az":198.0,"ss":27.0,"used":true,"gnssid":3,"svid":24,"health":1},{"PRN":425,"el":14.0,"az":220.0,"ss":30.0,"used":true,"gnssid":3,"svid":25,"health":1},{"PRN":426,"el":55.0,"az":56.0,"ss":8.0,"used":false,"gnssid":3,"svid":26,"health":1},{"PRN":433,"el":58.0,"az":311.0,"ss":17.0,"used":false,"gnssid":3,"svid":33,"health":1},{"PRN":67,"el":23.0,"az":122.0,"ss":0.0,"used":false,"gnssid":6,"svid":3,"health":1},{"PRN":68,"el":69.0,"az":82.0,"ss":0.0,"used":false,"gnssid":6,"svid":4,"health":1},{"PRN":69,"el":46.0,"az":329.0,"ss":10.0,"used":true,"gnssid":6,"svid":5,"health":1},{"PRN":77,"el":10.0,"az":32.0,"ss":0.0,"used":false,"gnssid":6,"svid":13,"health":1},{"PRN":78,"el":68.0,"az":51.0,"ss":10.0,"used":true,"gnssid":6,"svid":14,"health":1}]}
{"class":"PPS","device":"/dev/pps0","real_sec":1747371607,"real_nsec":0,"clock_sec":1747371606,"clock_nsec":999999377,"precision":-20}
{"class":"TPV","device":"/dev/ttyACM0","mode":3,"time":"2025-05-16T05:00:07.000Z","leapseconds":18,"ept":0.005,"lat":41.880757200,"lon":-87.643850700,"altHAE":260.5970,"altMSL":294.3860,"alt":294.3860,"epx":14.896,"epy":11.661,"epv":4.585,"track":204.5607,"magtrack":20.3877,"magvar":-4.1,"speed":0.017,"climb":0.000,"eps":0.01,"epc":9.17,"ecefx":195525.64,"ecefy":-4752024.24,"ecefz":4235925.99,"ecefvx":0.01,"ecefvy":0.01,"ecefvz":0.01,"ecefpAcc":8.58,"ecefvAcc":0.01,"geoidSep":-33.900,"eph":7.244,"sep":19.974}
