{"class":"VERSION","release":"3.22","rev":"3.22","proto_major":3,"proto_minor":14}
{"class":"DEVICES","devices":[{"class":"DEVICE","path":"/dev/ttyACM0","driver":"u-blox","subtype":"SW EXT CORE 1.00 (3fda8e),HW 00190000","subtype1":"ROM BASE 0x118B2060,FWVER=TIM 2.20,PROTVER=29.20,MOD=ZED-F9T,GPS;GLO;GAL;BDS,SBAS;QZSS,NAVIC","activated":"2025-05-09T05:36:08.365Z","flags":1,"native":1,"bps":9600,"parity":"N","stopbits":1,"cycle":1.00,"mincycle":0.02},{"class":"DEVICE","path":"/dev/pps0","driver":"PPS","activated":"2025-05-09T05:36:08.000Z"}]}
{"class":"WATCH","enable":true,"json":true,"nmea":false,"raw":0,"scaled":false,"timing":false,"split24":false,"pps":false}
{"class":"PPS","device":"/dev/pps0","real_sec":1746768969,"real_nsec":0,"clock_sec":1746768969,"clock_nsec":927,"precision":-20}
{"class":"TPV","device":"/dev/ttyACM0","mode":3,"time":"2025-05-09T05:36:09.000Z","leapseconds":18,"ept":0.005,"lat":41.880671500,"lon":-87.643928300,"altHAE":266.6600,"altMSL":300.4490,"alt":300.4490,"epx":19.759,"epy":16.100,"epv":6.756,"track":24.4425,"magtrack":20.3876,"magvar":-4.1,"speed":0.005,"climb":-0.173,"eps":0.02,"epc":13.51,"ecefx":195519.64,"ecefy":-4752035.41,"ecefz":4235922.93,"ecefvx":0.00,"ecefvy":-0.01,"ecefvz":0.00,"ecefpAcc":12.69,"ecefvAcc":0.02,"geoidSep":-33.900,"eph":10.744,"sep":48.878}
{"class":"SKY","device":"/dev/ttyACM0","time":"2025-05-09T05:36:09.000Z","xdop":1.32,"ydop":1.07,"vdop":2.09,"tdop":1.70,"hdop":1.70,"gdop":3.19,"pdop":2.70,"nSat":26,"uSat":7,"satellites":[{"PRN":1,"el":15.0,"az":254.0,"ss":24.0,"used":true,"gnssid":0,"svid":1,"health":1},{"PRN":2,"el":2.0,"az":231.0,"ss":8.0,"used":false,"gnssid":0,"svid":2,"health":1},{"PRN":3,"el":51.0,"az":296.0,"ss":21.0,"used":false,"gnssid":0,"svid":3,"health":1},{"PRN":4,"el":17.0,"az":297.0,"ss":16.0,"used":false,"gnssid":0,"svid":4,"health":1},{"PRN":10,"el":2.0,"az":158.0,"ss":22.0,"used":false,"gnssid":0,"svid":10,"health":1},{"PRN":16,"el":20.0,"az":184.0,"ss":28.0,"used":true,"gnssid":0,"svid":16,"health":1},{"PRN":25,"el":18.0,"az":43.0,"ss":0.0,"used":false,"gnssid":0,"svid":25,"health":1},{"PRN":26,"el":48.0,"az":171.0,"ss":26.0,"used":true,"gnssid":0,"svid":26,"health":1},{"PRN":28,"el":57.0,"az":47.0,"ss":9.0,"used":true,"gnssid":0,"svid":28,"health":1},{"PRN":29,"el":6.0,"az":81.0,"ss":0.0,"used":false,"gnssid":0,"svid":29,"health":1},{"PRN":31,"el":81.0,"az":344.0,"ss":7.0,"used":false,"gnssid":0,"svid":31,"health":1},{"PRN":32,"el":34.0,"az":103.0,"ss":0.0,"used":false,"gnssid":0,"svid":32,"health":1},{"PRN":421,"el":10.0,"az":135.0,"ss":0.0,"used":false,"gnssid":3,"svid":21,"health":1},{"PRN":424,"el":71.0,"az":198.0,"ss":25.0,"used":true,"gnssid":3,"svid":24,"health":1},{"PRN":425,"el":17.0,"az":221.0,"ss":27.0,"used":true,"gnssid":3,"svid":25,"health":1},{"PRN":426,"el":52.0,"az":54.0,"ss":0.0,"used":false,"gnssid":3,"svid":26,"health":1},{"PRN":433,"el":61.0,"az":309.0,"ss":17.0,"used":false,"gnssid":3,"svid":33,"health":1},{"PRN":68,"el":17.0,"az":125.0,"ss":9.0,"used":false,"gnssid":6,"svid":4,"health":1},{"PRN":69,"el":64.0,"az":98.0,"ss":0.0,"used":false,"gnssid":6,"svid":5,"health":1},{"PRN":70,"el":39.0,"az":325.0,"ss":0.0,"used":false,"gnssid":6,"svid":6,"health":1},{"PRN":73,"el":3.0,"az":210.0,"ss":28.0,"used":false,"gnssid":6,"svid":9,"health":1},{"PRN":78,"el":12.0,"az":33.0,"ss":0.0,"used":false,"gnssid":6,"svid":14,"health":1},{"PRN":79,"el":63.0,"az":45.0,"ss":8.0,"used":false,"gnssid":6,"svid":15,"health":1}]}
{"class":"PPS","device":"/dev/pps0","real_sec":1746768970,"real_nsec":0,"clock_sec":1746768970,"clock_nsec":335,"precision":-20}
{"class":"TPV","device":"/dev/ttyACM0","mode":3,"time":"2025-05-09T05:36:10.000Z","leapseconds":18,"ept":0.005,"lat":41.880674000,"lon":-87.643925900,"altHAE":266.4780,"altMSL":300.2670,"alt":300.2670,"epx":19.759,"epy":16.100,"epv":6.750,"track":24.4425,"magtrack":20.3876,"magvar":-4.1,"speed":0.005,"climb":-0.173,"eps":0.02,"epc":13.51,"ecefx":195519.66,"ecefy":-4752035.38,"ecefz":4235922.93,"ecefvx":0.00,"ecefvy":-0.01,"ecefvz":0.00,"ecefpAcc":12.69,"ecefvAcc":0.02,"geoidSep":-33.900,"eph":10.720,"sep":48.878}
{"class":"SKY","device":"/dev/ttyACM0","time":"2025-05-09T05:36:10.000Z","xdop":1.32,"ydop":1.07,"vdop":2.09,"tdop":1.70,"hdop":1.70,"gdop":3.19,"pdop":2.69,"nSat":26,"uSat":7,"satellites":[{"PRN":1,"el":15.0,"az":254.0,"ss":24.0,"used":true,"gnssid":0,"svid":1,"health":1},{"PRN":2,"el":2.0,"az":231.0,"ss":10.0,"used":false,"gnssid":0,"svid":2,"health":1},{"PRN":3,"el":51.0,"az":296.0,"ss":22.0,"used":false,"gnssid":0,"svid":3,"health":1},{"PRN":4,"el":17.0,"az":297.0,"ss":16.0,"used":false,"gnssid":0,"svid":4,"health":1},{"PRN":10,"el":2.0,"az":158.0,"ss":21.0,"used":false,"gnssid":0,"svid":10,"health":1},{"PRN":16,"el":20.0,"az":184.0,"ss":28.0,"used":true,"gnssid":0,"svid":16,"health":1},{"PRN":25,"el":18.0,"az":43.0,"ss":0.0,"used":false,"gnssid":0,"svid":25,"health":1},{"PRN":26,"el":48.0,"az":171.0,"ss":26.0,"used":true,"gnssid":0,"svid":26,"health":1},{"PRN":28,"el":57.0,"az":47.0,"ss":12.0,"used":true,"gnssid":0,"svid":28,"health":1},{"PRN":29,"el":6.0,"az":81.0,"ss":0.0,"used":false,"gnssid":0,"svid":29,"health":1},{"PRN":31,"el":81.0,"az":344.0,"ss":9.0,"used":false,"gnssid":0,"svid":31,"health":1},{"PRN":32,"el":34.0,"az":103.0,"ss":0.0,"used":false,"gnssid":0,"svid":32,"health":1},{"PRN":421,"el":10.0,"az":135.0,"ss":0.0,"used":false,"gnssid":3,"svid":21,"health":1},{"PRN":424,"el":71.0,"az":198.0,"ss":25.0,"used":true,"gnssid":3,"svid":24,"health":1},{"PRN":425,"el":17.0,"az":221.0,"ss":27.0,"used":true,"gnssid":3,"svid":25,"health":1},{"PRN":426,"el":52.0,"az":54.0,"ss":0.0,"used":false,"gnssid":3,"svid":26,"health":1},{"PRN":433,"el":61.0,"az":309.0,"ss":16.0,"used":false,"gnssid":3,"svid":33,"health":1},{"PRN":68,"el":16.0,"az":126.0,"ss":11.0,"used":false,"gnssid":6,"svid":4,"health":1},{"PRN":69,"el":64.0,"az":98.0,"ss":0.0,"used":false,"gnssid":6,"svid":5,"health":1},{"PRN":70,"el":39.0,"az":325.0,"ss":0.0,"used":false,"gnssid":6,"svid":6,"health":1},{"PRN":73,"el":3.0,"az":210.0,"ss":29.0,"used":false,"gnssid":6,"svid":9,"health":1},{"PRN":78,"el":12.0,"az":33.0,"ss":0.0,"used":false,"gnssid":6,"svid":14,"health":1},{"PRN":79,"el":63.0,"az":45.0,"ss":10.0,"used":false,"gnssid":6,"svid":15,"health":1}]}
{"class":"PPS","device":"/dev/pps0","real_sec":1746768971,"real_nsec":0,"clock_sec":1746768971,"clock_nsec":133,"precision":-20}
{"class":"TPV","device":"/dev/ttyACM0","mode":3,"time":"2025-05-09T05:36:11.000Z","leapseconds":18,"ept":0.005,"lat":41.880674200,"lon":-87.643925800,"altHAE":266.4500,"altMSL":300.2390,"alt":300.2390,"epx":19.759,"epy":16.100,"epv":6.752,"track":24.4425,"magtrack":20.3876,"magvar":-4.1,"speed":0.005,"climb":-0.173,"eps":0.02,"epc":13.50,"ecefx":195519.84,"ecefy":-4752035.05,"ecefz":4235923.01,"ecefvx":0.00,"ecefvy":-0.01,"ecefvz":0.00,"ecefpAcc":12.67,"ecefvAcc":0.02,"geoidSep":-33.900,"eph":10.716,"sep":48.878}
{"class":"SKY","device":"/dev/ttyACM0","time":"2025-05-09T05:36:11.000Z","xdop":1.27,"ydop":1.03,"vdop":2.09,"tdop":1.70,"hdop":1.70,"gdop":3.19,"pdop":2.69,"nSat":26,"uSat":8,"satellites":[{"PRN":1,"el":15.0,"az":254.0,"ss":25.0,"used":true,"gnssid":0,"svid":1,"health":1},{"PRN":2,"el":2.0,"az":231.0,"ss":7.0,"used":false,"gnssid":0,"svid":2,"health":1},{"PRN":3,"el":51.0,"az":296.0,"ss":22.0,"used":false,"gnssid":0,"svid":3,"health":1},{"PRN":4,"el":17.0,"az":297.0,"ss":15.0,"used":false,"gnssid":0,"svid":4,"health":1},{"PRN":10,"el":2.0,"az":158.0,"ss":21.0,"used":false,"gnssid":0,"svid":10,"health":1},{"PRN":16,"el":20.0,"az":184.0,"ss":28.0,"used":true,"gnssid":0,"svid":16,"health":1},{"PRN":25,"el":18.0,"az":43.0,"ss":0.0,"used":false,"gnssid":0,"svid":25,"health":1},{"PRN":26,"el":48.0,"az":171.0,"ss":26.0,"used":true,"gnssid":0,"svid":26,"health":1},{"PRN":28,"el":57.0,"az":47.0,"ss":9.0,"used":true,"gnssid":0,"svid":28,"health":1},{"PRN":29,"el":6.0,"az":81.0,"ss":0.0,"used":false,"gnssid":0,"svid":29,"health":1},{"PRN":31,"el":81.0,"az":344.0,"ss":12.0,"used":true,"gnssid":0,"svid":31,"health":1},{"PRN":32,"el":34.0,"az":103.0,"ss":0.0,"used":false,"gnssid":0,"svid":32,"health":1},{"PRN":421,"el":10.0,"az":135.0,"ss":0.0,"used":false,"gnssid":3,"svid":21,"health":1},{"PRN":424,"el":71.0,"az":198.0,"ss":25.0,"used":true,"gnssid":3,"svid":24,"health":1},{"PRN":425,"el":17.0,"az":221.0,"ss":27.0,"used":true,"gnssid":3,"svid":25,"health":1},{"PRN":426,"el":52.0,"az":54.0,"ss":0.0,"used":false,"gnssid":3,"svid":26,"health":1},{"PRN":433,"el":61.0,"az":309.0,"ss":15.0,"used":false,"gnssid":3,"svid":33,"health":1},{"PRN":68,"el":16.0,"az":126.0,"ss":10.0,"used":false,"gnssid":6,"svid":4,"health":1},{"PRN":69,"el":64.0,"az":100.0,"ss":0.0,"used":false,"gnssid":6,"svid":5,"health":1},{"PRN":70,"el":39.0,"az":325.0,"ss":0.0,"used":false,"gnssid":6,"svid":6,"health":1},{"PRN":73,"el":3.0,"az":210.0,"ss":29.0,"used":false,"gnssid":6,"svid":9,"health":1},{"PRN":78,"el":12.0,"az":33.0,"ss":0.0,"used":false,"gnssid":6,"svid":14,"health":1},{"PRN":79,"el":63.0,"az":45.0,"ss":9.0,"used":false,"gnssid":6,"svid":15,"health":1}]}
{"class":"PPS","device":"/dev/pps0","real_sec":1746768972,"real_nsec":0,"clock_sec":1746768972,"clock_nsec":263,"precision":-20}
{"class":"TPV","device":"/dev/ttyACM0","mode":3,"time":"2025-05-09T05:36:12.000Z","leapseconds":18,"ept":0.005,"lat":41.880674400,"lon":-87.643925700,"altHAE":266.4260,"altMSL":300.2150,"alt":300.2150,"epx":19.100,"epy":15.469,"epv":6.754,"track":24.4425,"magtrack":20.3876,"magvar":-4.1,"speed":0.005,"climb":-0.173,"eps":0.02,"epc":13.51,"ecefx":195519.85,"ecefy":-4752035.01,"ecefz":4235923.01,"ecefvx":0.00,"ecefvy":-0.01,"ecefvz":0.00,"ecefpAcc":12.67,"ecefvAcc":0.02,"geoidSep":-33.900,"eph":10.713,"sep":48.878}
{"class":"SKY","device":"/dev/ttyACM0","time":"2025-05-09T05:36:12.000Z","xdop":2.34,"ydop":2.08,"vdop":1.97,"tdop":1.68,"hdop":1.64,"gdop":3.06,"pdop":2.56,"nSat":26,"uSat":7,"satellites":[{"PRN":1,"el":15.0,"az":254.0,"ss":25.0,"used":true,"gnssid":0,"svid":1,"health":1},{"PRN":2,"el":2.0,"az":231.0,"ss":9.0,"used":false,"gnssid":0,"svid":2,"health":1},{"PRN":3,"el":51.0,"az":296.0,"ss":22.0,"used":false,"gnssid":0,"svid":3,"health":1},{"PRN":4,"el":17.0,"az":297.0,"ss":16.0,"used":false,"gnssid":0,"svid":4,"health":1},{"PRN":10,"el":2.0,"az":158.0,"ss":21.0,"used":false,"gnssid":0,"svid":10,"health":1},{"PRN":16,"el":20.0,"az":184.0,"ss":28.0,"used":true,"gnssid":0,"svid":16,"health":1},{"PRN":25,"el":18.0,"az":43.0,"ss":0.0,"used":false,"gnssid":0,"svid":25,"health":1},{"PRN":26,"el":48.0,"az":171.0,"ss":26.0,"used":true,"gnssid":0,"svid":26,"health":1},{"PRN":28,"el":57.0,"az":47.0,"ss":8.0,"used":false,"gnssid":0,"svid":28,"health":1},{"PRN":29,"el":6.0,"az":81.0,"ss":0.0,"used":false,"gnssid":0,"svid":29,"health":1},{"PRN":31,"el":81.0,"az":344.0,"ss":9.0,"used":true,"gnssid":0,"svid":31,"health":1},{"PRN":32,"el":34.0,"az":103.0,"ss":0.0,"used":false,"gnssid":0,"svid":32,"health":1},{"PRN":421,"el":10.0,"az":135.0,"ss":0.0,"used":false,"gnssid":3,"svid":21,"health":1},{"PRN":424,"el":71.0,"az":198.0,"ss":25.0,"used":true,"gnssid":3,"svid":24,"health":1},{"PRN":425,"el":17.0,"az":221.0,"ss":27.0,"used":true,"gnssid":3,"svid":25,"health":1},{"PRN":426,"el":52.0,"az":54.0,"ss":0.0,"used":false,"gnssid":3,"svid":26,"health":1},{"PRN":433,"el":61.0,"az":309.0,"ss":15.0,"used":false,"gnssid":3,"svid":33,"health":1},{"PRN":68,"el":16.0,"az":126.0,"ss":9.0,"used":false,"gnssid":6,"svid":4,"health":1},{"PRN":69,"el":64.0,"az":100.0,"ss":0.0,"used":false,"gnssid":6,"svid":5,"health":1},{"PRN":70,"el":39.0,"az":325.0,"ss":0.0,"used":false,"gnssid":6,"svid":6,"health":1},{"PRN":73,"el":3.0,"az":210.0,"ss":30.0,"used":false,"gnssid":6,"svid":9,"health":1},{"PRN":78,"el":12.0,"az":33.0,"ss":0.0,"used":false,"gnssid":6,"svid":14,"health":1},{"PRN":79,"el":63.0,"az":45.0,"ss":13.0,"used":false,"gnssid":6,"svid":15,"health":1}]}
{"class":"PPS","device":"/dev/pps0","real_sec":1746768973,"real_nsec":0,"clock_sec":1746768972,"clock_nsec":999999301,"precision":-20}
{"class":"TPV","device":"/dev/ttyACM0","mode":3,"time":"2025-05-09T05:36:13.000Z","leapseconds":18,"ept":0.005,"lat":41.880676800,"lon":-87.643923400,"altHAE":266.2460,"altMSL":300.0350,"alt":300.0350,"epx":35.037,"epy":31.154,"epv":6.749,"track":24.4425,"magtrack":20.3876,"magvar":-4.1,"speed":0.004,"climb":-0.173,"eps":0.01,"epc":13.50,"ecefx":195519.86,"ecefy":-4752034.98,"ecefz":4235923.02,"ecefvx":0.00,"ecefvy":-0.01,"ecefvz":0.00,"ecefpAcc":12.66,"ecefvAcc":0.02,"geoidSep":-33.900,"eph":10.695,"sep":48.878}
{"class":"SKY","device":"/dev/ttyACM0","time":"2025-05-09T05:36:13.000Z","xdop":1.32,"ydop":1.07,"vdop":3.25,"tdop":3.46,"hdop":3.10,"gdop":5.67,"pdop":4.49,"nSat":26,"uSat":7,"satellites":[{"PRN":1,"el":15.0,"az":254.0,"ss":25.0,"used":true,"gnssid":0,"svid":1,"health":1},{"PRN":2,"el":2.0,"az":231.0,"ss":10.0,"used":false,"gnssid":0,"svid":2,"health":1},{"PRN":3,"el":51.0,"az":296.0,"ss":21.0,"used":false,"gnssid":0,"svid":3,"health":1},{"PRN":4,"el":17.0,"az":297.0,"ss":15.0,"used":false,"gnssid":0,"svid":4,"health":1},{"PRN":10,"el":2.0,"az":158.0,"ss":21.0,"used":false,"gnssid":0,"svid":10,"health":1},{"PRN":16,"el":20.0,"az":184.0,"ss":28.0,"used":true,"gnssid":0,"svid":16,"health":1},{"PRN":25,"el":18.0,"az":43.0,"ss":0.0,"used":false,"gnssid":0,"svid":25,"health":1},{"PRN":26,"el":48.0,"az":171.0,"ss":27.0,"used":true,"gnssid":0,"svid":26,"health":1},{"PRN":28,"el":57.0,"az":47.0,"ss":10.0,"used":true,"gnssid":0,"svid":28,"health":1},{"PRN":29,"el":6.0,"az":81.0,"ss":0.0,"used":false,"gnssid":0,"svid":29,"health":1},{"PRN":31,"el":81.0,"az":344.0,"ss":8.0,"used":false,"gnssid":0,"svid":31,"health":1},{"PRN":32,"el":34.0,"az":103.0,"ss":0.0,"used":false,"gnssid":0,"svid":32,"health":1},{"PRN":421,"el":10.0,"az":135.0,"ss":0.0,"used":false,"gnssid":3,"svid":21,"health":1},{"PRN":424,"el":71.0,"az":198.0,"ss":25.0,"used":true,"gnssid":3,"svid":24,"health":1},{"PRN":425,"el":17.0,"az":221.0,"ss":27.0,"used":true,"gnssid":3,"svid":25,"health":1},{"PRN":426,"el":52.0,"az":54.0,"ss":0.0,"used":false,"gnssid":3,"svid":26,"health":1},{"PRN":433,"el":61.0,"az":309.0,"ss":16.0,"used":false,"gnssid":3,"svid":33,"health":1},{"PRN":68,"el":16.0,"az":126.0,"ss":9.0,"used":false,"gnssid":6,"svid":4,"health":1},{"PRN":69,"el":64.0,"az":100.0,"ss":0.0,"used":false,"gnssid":6,"svid":5,"health":1},{"PRN":70,"el":39.0,"az":325.0,"ss":0.0,"used":false,"gnssid":6,"svid":6,"health":1},{"PRN":73,"el":3.0,"az":210.0,"ss":30.0,"used":false,"gnssid":6,"svid":9,"health":1},{"PRN":78,"el":12.0,"az":33.0,"ss":0.0,"used":false,"gnssid":6,"svid":14,"health":1},{"PRN":79,"el":63.0,"az":45.0,"ss":10.0,"used":false,"gnssid":6,"svid":15,"health":1}]}
{"class":"PPS","device":"/dev/pps0","real_sec":1746768974,"real_nsec":0,"clock_sec":1746768974,"clock_nsec":3358,"precision":-20}
{"class":"TPV","device":"/dev/ttyACM0","mode":3,"time":"2025-05-09T05:36:14.000Z","leapseconds":18,"ept":0.005,"lat":41.880676900,"lon":-87.643923500,"altHAE":266.2330,"altMSL":300.0220,"alt":300.0220,"epx":19.759,"epy":16.100,"epv":6.751,"track":24.4425,"magtrack":20.3876,"magvar":-4.1,"speed":0.004,"climb":-0.173,"eps":0.01,"epc":13.50,"ecefx":195520.03,"ecefy":-4752034.66,"ecefz":4235923.09,"ecefvx":0.00,"ecefvy":-0.01,"ecefvz":0.00,"ecefpAcc":12.65,"ecefvAcc":0.02,"geoidSep":-33.900,"eph":10.690,"sep":48.878}
{"class":"SKY","device":"/dev/ttyACM0","time":"2025-05-09T05:36:14.000Z","xdop":1.27,"ydop":1.03,"vdop":2.09,"tdop":1.70,"hdop":1.70,"gdop":3.19,"pdop":2.69,"nSat":26,"uSat":8,"satellites":[{"PRN":1,"el":15.0,"az":254.0,"ss":25.0,"used":true,"gnssid":0,"svid":1,"health":1},{"PRN":2,"el":2.0,"az":231.0,"ss":9.0,"used":false,"gnssid":0,"svid":2,"health":1},{"PRN":3,"el":51.0,"az":296.0,"ss":22.0,"used":false,"gnssid":0,"svid":3,"health":1},{"PRN":4,"el":17.0,"az":297.0,"ss":15.0,"used":false,"gnssid":0,"svid":4,"health":1},{"PRN":10,"el":2.0,"az":158.0,"ss":22.0,"used":false,"gnssid":0,"svid":10,"health":1},{"PRN":16,"el":20.0,"az":184.0,"ss":28.0,"used":true,"gnssid":0,"svid":16,"health":1},{"PRN":25,"el":18.0,"az":43.0,"ss":0.0,"used":false,"gnssid":0,"svid":25,"health":1},{"PRN":26,"el":48.0,"az":171.0,"ss":27.0,"used":true,"gnssid":0,"svid":26,"health":1},{"PRN":28,"el":57.0,"az":47.0,"ss":12.0,"used":true,"gnssid":0,"svid":28,"health":1},{"PRN":29,"el":6.0,"az":81.0,"ss":0.0,"used":false,"gnssid":0,"svid":29,"health":1},{"PRN":31,"el":81.0,"az":344.0,"ss":11.0,"used":true,"gnssid":0,"svid":31,"health":1},{"PRN":32,"el":34.0,"az":103.0,"ss":0.0,"used":false,"gnssid":0,"svid":32,"health":1},{"PRN":421,"el":10.0,"az":135.0,"ss":0.0,"used":false,"gnssid":3,"svid":21,"health":1},{"PRN":424,"el":71.0,"az":198.0,"ss":25.0,"used":true,"gnssid":3,"svid":24,"health":1},{"PRN":425,"el":17.0,"az":221.0,"ss":27.0,"used":true,"gnssid":3,"svid":25,"health":1},{"PRN":426,"el":52.0,"az":54.0,"ss":0.0,"used":false,"gnssid":3,"svid":26,"health":1},{"PRN":433,"el":61.0,"az":309.0,"ss":16.0,"used":false,"gnssid":3,"svid":33,"health":1},{"PRN":68,"el":16.0,"az":126.0,"ss":10.0,"used":false,"gnssid":6,"svid":4,"health":1},{"PRN":69,"el":64.0,"az":100.0,"ss":0.0,"used":false,"gnssid":6,"svid":5,"health":1},{"PRN":70,"el":39.0,"az":325.0,"ss":0.0,"used":false,"gnssid":6,"svid":6,"health":1},{"PRN":73,"el":3.0,"az":210.0,"ss":30.0,"used":false,"gnssid":6,"svid":9,"health":1},{"PRN":78,"el":12.0,"az":33.0,"ss":0.0,"used":false,"gnssid":6,"svid":14,"health":1},{"PRN":79,"el":63.0,"az":45.0,"ss":10.0,"used":false,"gnssid":6,"svid":15,"health":1}]}
{"class":"PPS","device":"/dev/pps0","real_sec":1746768975,"real_nsec":0,"clock_sec":1746768975,"clock_nsec":1618,"precision":-20}
{"class":"TPV","device":"/dev/ttyACM0","mode":3,"time":"2025-05-09T05:36:15.000Z","leapseconds":18,"ept":0.005,"lat":41.880677000,"lon":-87.643923600,"altHAE":266.2220,"altMSL":300.0110,"alt":300.0110,"epx":19.100,"epy":15.469,"epv":6.752,"track":24.4425,"magtrack":20.3876,"magvar":-4.1,"speed":0.004,"climb":-0.173,"eps":0.01,"epc":13.50,"ecefx":195520.02,"ecefy":-4752034.65,"ecefz":4235923.09,"ecefvx":0.00,"ecefvy":-0.01,"ecefvz":0.00,"ecefpAcc":12.64,"ecefvAcc":0.02,"geoidSep":-33.900,"eph":10.686,"sep":48.878}
{"class":"SKY","device":"/dev/ttyACM0","time":"2025-05-09T05:36:15.000Z","xdop":1.27,"ydop":1.03,"vdop":1.97,"tdop":1.68,"hdop":1.64,"gdop":3.06,"pdop":2.56,"nSat":26,"uSat":8,"satellites":[{"PRN":1,"el":15.0,"az":254.0,"ss":25.0,"used":true,"gnssid":0,"svid":1,"health":1},{"PRN":2,"el":2.0,"az":231.0,"ss":7.0,"used":false,"gnssid":0,"svid":2,"health":1},{"PRN":3,"el":51.0,"az":296.0,"ss":22.0,"used":false,"gnssid":0,"svid":3,"health":1},{"PRN":4,"el":17.0,"az":297.0,"ss":15.0,"used":false,"gnssid":0,"svid":4,"health":1},{"PRN":10,"el":2.0,"az":158.0,"ss":22.0,"used":false,"gnssid":0,"svid":10,"health":1},{"PRN":16,"el":20.0,"az":184.0,"ss":28.0,"used":true,"gnssid":0,"svid":16,"health":1},{"PRN":25,"el":18.0,"az":43.0,"ss":0.0,"used":false,"gnssid":0,"svid":25,"health":1},{"PRN":26,"el":48.0,"az":171.0,"ss":27.0,"used":true,"gnssid":0,"svid":26,"health":1},{"PRN":28,"el":57.0,"az":47.0,"ss":10.0,"used":true,"gnssid":0,"svid":28,"health":1},{"PRN":29,"el":6.0,"az":81.0,"ss":0.0,"used":false,"gnssid":0,"svid":29,"health":1},{"PRN":31,"el":81.0,"az":344.0,"ss":9.0,"used":true,"gnssid":0,"svid":31,"health":1},{"PRN":32,"el":34.0,"az":103.0,"ss":0.0,"used":false,"gnssid":0,"svid":32,"health":1},{"PRN":421,"el":10.0,"az":135.0,"ss":0.0,"used":false,"gnssid":3,"svid":21,"health":1},{"PRN":424,"el":71.0,"az":198.0,"ss":25.0,"used":true,"gnssid":3,"svid":24,"health":1},{"PRN":425,"el":17.0,"az":221.0,"ss":27.0,"used":true,"gnssid":3,"svid":25,"health":1},{"PRN":426,"el":52.0,"az":54.0,"ss":0.0,"used":false,"gnssid":3,"svid":26,"health":1},{"PRN":433,"el":61.0,"az":309.0,"ss":16.0,"used":false,"gnssid":3,"svid":33,"health":1},{"PRN":68,"el":16.0,"az":126.0,"ss":8.0,"used":false,"gnssid":6,"svid":4,"health":1},{"PRN":69,"el":64.0,"az":100.0,"ss":0.0,"used":false,"gnssid":6,"svid":5,"health":1},{"PRN":70,"el":39.0,"az":325.0,"ss":0.0,"used":false,"gnssid":6,"svid":6,"health":1},{"PRN":73,"el":4.0,"az":211.0,"ss":29.0,"used":false,"gnssid":6,"svid":9,"health":1},{"PRN":78,"el":12.0,"az":33.0,"ss":0.0,"used":false,"gnssid":6,"svid":14,"health":1},{"PRN":79,"el":63.0,"az":45.0,"ss":10.0,"used":false,"gnssid":6,"svid":15,"health":1}]}
{"class":"PPS","device":"/dev/pps0","real_sec":1746768976,"real_nsec":0,"clock_sec":1746768975,"clock_nsec":999998952,"precision":-20}
{"class":"TPV","device":"/dev/ttyACM0","mode":3,"time":"2025-05-09T05:36:16.000Z","leapseconds":18,"ept":0.005,"lat":41.880677100,"lon":-87.643923600,"altHAE":266.2090,"altMSL":299.9980,"alt":299.9980,"epx":19.100,"epy":15.469,"epv":6.754,"track":24.4425,"magtrack":20.3876,"magvar":-4.1,"speed":0.004,"climb":-0.173,"eps":0.01,"epc":13.51,"ecefx":195520.02,"ecefy":-4752034.63,"ecefz":4235923.10,"ecefvx":0.00,"ecefvy":-0.01,"ecefvz":0.00,"ecefpAcc":12.64,"ecefvAcc":0.02,"geoidSep":-33.900,"eph":10.682,"sep":48.878}
{"class":"SKY","device":"/dev/ttyACM0","time":"2025-05-09T05:36:16.000Z","xdop":3.56,"ydop":4.23,"vdop":1.97,"tdop":1.68,"hdop":1.64,"gdop":3.06,"pdop":2.56,"nSat":26,"uSat":6,"satellites":[{"PRN":1,"el":15.0,"az":254.0,"ss":25.0,"used":true,"gnssid":0,"svid":1,"health":1},{"PRN":2,"el":2.0,"az":231.0,"ss":9.0,"used":false,"gnssid":0,"svid":2,"health":1},{"PRN":3,"el":51.0,"az":296.0,"ss":22.0,"used":false,"gnssid":0,"svid":3,"health":1},{"PRN":4,"el":17.0,"az":297.0,"ss":13.0,"used":false,"gnssid":0,"svid":4,"health":1},{"PRN":10,"el":2.0,"az":158.0,"ss":23.0,"used":false,"gnssid":0,"svid":10,"health":1},{"PRN":16,"el":20.0,"az":184.0,"ss":28.0,"used":true,"gnssid":0,"svid":16,"health":1},{"PRN":25,"el":18.0,"az":43.0,"ss":0.0,"used":false,"gnssid":0,"svid":25,"health":1},{"PRN":26,"el":48.0,"az":171.0,"ss":27.0,"used":true,"gnssid":0,"svid":26,"health":1},{"PRN":28,"el":57.0,"az":47.0,"ss":8.0,"used":false,"gnssid":0,"svid":28,"health":1},{"PRN":29,"el":6.0,"az":81.0,"ss":0.0,"used":false,"gnssid":0,"svid":29,"health":1},{"PRN":31,"el":81.0,"az":344.0,"ss":8.0,"used":false,"gnssid":0,"svid":31,"health":1},{"PRN":32,"el":34.0,"az":103.0,"ss":0.0,"used":false,"gnssid":0,"svid":32,"health":1},{"PRN":421,"el":10.0,"az":135.0,"ss":0.0,"used":false,"gnssid":3,"svid":21,"health":1},{"PRN":424,"el":71.0,"az":198.0,"ss":25.0,"used":true,"gnssid":3,"svid":24,"health":1},{"PRN":425,"el":17.0,"az":221.0,"ss":27.0,"used":true,"gnssid":3,"svid":25,"health":1},{"PRN":426,"el":52.0,"az":54.0,"ss":0.0,"used":false,"gnssid":3,"svid":26,"health":1},{"PRN":433,"el":61.0,"az":309.0,"ss":16.0,"used":false,"gnssid":3,"svid":33,"health":1},{"PRN":68,"el":16.0,"az":126.0,"ss":10.0,"used":false,"gnssid":6,"svid":4,"health":1},{"PRN":69,"el":64.0,"az":100.0,"ss":0.0,"used":false,"gnssid":6,"svid":5,"health":1},{"PRN":70,"el":39.0,"az":325.0,"ss":0.0,"used":false,"gnssid":6,"svid":6,"health":1},{"PRN":73,"el":4.0,"az":211.0,"ss":29.0,"used":false,"gnssid":6,"svid":9,"health":1},{"PRN":78,"el":12.0,"az":33.0,"ss":0.0,"used":false,"gnssid":6,"svid":14,"health":1},{"PRN":79,"el":63.0,"az":45.0,"ss":10.0,"used":false,"gnssid":6,"svid":15,"health":1}]}
{"class":"PPS","device":"/dev/pps0","real_sec":1746768977,"real_nsec":0,"clock_sec":1746768977,"clock_nsec":37,"precision":-20}
{"class":"TPV","device":"/dev/ttyACM0","mode":3,"time":"2025-05-09T05:36:17.000Z","leapseconds":18,"ept":0.005,"lat":41.880677200,"lon":-87.643923600,"altHAE":266.1920,"altMSL":299.9810,"alt":299.9810,"epx":53.413,"epy":63.406,"epv":6.756,"track":24.4425,"magtrack":20.3876,"magvar":-4.1,"speed":0.004,"climb":-0.173,"eps":0.01,"epc":13.51,"ecefx":195520.01,"ecefy":-4752034.61,"ecefz":4235923.09,"ecefvx":0.00,"ecefvy":-0.01,"ecefvz":0.00,"ecefpAcc":12.64,"ecefvAcc":0.02,"geoidSep":-33.900,"eph":10.678,"sep":48.878}
{"class":"SKY","device":"/dev/ttyACM0","time":"2025-05-09T05:36:17.000Z","xdop":1.32,"ydop":1.07,"vdop":4.55,"tdop":5.99,"hdop":5.66,"gdop":9.41,"pdop":7.26,"nSat":26,"uSat":7,"satellites":[{"PRN":1,"el":15.0,"az":254.0,"ss":25.0,"used":true,"gnssid":0,"svid":1,"health":1},{"PRN":2,"el":2.0,"az":231.0,"ss":7.0,"used":false,"gnssid":0,"svid":2,"health":1},{"PRN":3,"el":51.0,"az":296.0,"ss":22.0,"used":false,"gnssid":0,"svid":3,"health":1},{"PRN":4,"el":17.0,"az":297.0,"ss":13.0,"used":false,"gnssid":0,"svid":4,"health":1},{"PRN":10,"el":2.0,"az":158.0,"ss":22.0,"used":false,"gnssid":0,"svid":10,"health":1},{"PRN":16,"el":20.0,"az":184.0,"ss":28.0,"used":true,"gnssid":0,"svid":16,"health":1},{"PRN":25,"el":18.0,"az":43.0,"ss":0.0,"used":false,"gnssid":0,"svid":25,"health":1},{"PRN":26,"el":48.0,"az":171.0,"ss":26.0,"used":true,"gnssid":0,"svid":26,"health":1},{"PRN":28,"el":57.0,"az":47.0,"ss":9.0,"used":true,"gnssid":0,"svid":28,"health":1},{"PRN":29,"el":6.0,"az":81.0,"ss":0.0,"used":false,"gnssid":0,"svid":29,"health":1},{"PRN":31,"el":81.0,"az":344.0,"ss":8.0,"used":false,"gnssid":0,"svid":31,"health":1},{"PRN":32,"el":34.0,"az":103.0,"ss":0.0,"used":false,"gnssid":0,"svid":32,"health":1},{"PRN":421,"el":10.0,"az":135.0,"ss":0.0,"used":false,"gnssid":3,"svid":21,"health":1},{"PRN":424,"el":71.0,"az":198.0,"ss":25.0,"used":true,"gnssid":3,"svid":24,"health":1},{"PRN":425,"el":17.0,"az":221.0,"ss":27.0,"used":true,"gnssid":3,"svid":25,"health":1},{"PRN":426,"el":52.0,"az":54.0,"ss":0.0,"used":false,"gnssid":3,"svid":26,"health":1},{"PRN":433,"el":61.0,"az":309.0,"ss":15.0,"used":false,"gnssid":3,"svid":33,"health":1},{"PRN":68,"el":16.0,"az":126.0,"ss":7.0,"used":false,"gnssid":6,"svid":4,"health":1},{"PRN":69,"el":64.0,"az":100.0,"ss":0.0,"used":false,"gnssid":6,"svid":5,"health":1},{"PRN":70,"el":39.0,"az":325.0,"ss":0.0,"used":false,"gnssid":6,"svid":6,"health":1},{"PRN":73,"el":4.0,"az":211.0,"ss":29.0,"used":false,"gnssid":6,"svid":9,"health":1},{"PRN":78,"el":12.0,"az":33.0,"ss":0.0,"used":false,"gnssid":6,"svid":14,"health":1},{"PRN":79,"el":63.0,"az":45.0,"ss":11.0,"used":false,"gnssid":6,"svid":15,"health":1}]}
{"class":"PPS","device":"/dev/pps0","real_sec":1746768978,"real_nsec":0,"clock_sec":1746768977,"clock_nsec":999999800,"precision":-20}
{"class":"TPV","device":"/dev/ttyACM0","mode":3,"time":"2025-05-09T05:36:18.000Z","leapseconds":18,"ept":0.005,"lat":41.880677400,"lon":-87.643923400,"altHAE":266.1750,"altMSL":299.9640,"alt":299.9640,"epx":19.759,"epy":16.100,"epv":6.758,"track":24.4425,"magtrack":20.3876,"magvar":-4.1,"speed":0.004,"climb":-0.173,"eps":0.01,"epc":13.51,"ecefx":195520.01,"ecefy":-4752034.59,"ecefz":4235923.09,"ecefvx":0.00,"ecefvy":-0.01,"ecefvz":0.00,"ecefpAcc":12.64,"ecefvAcc":0.02,"geoidSep":-33.900,"eph":10.675,"sep":48.878}
{"class":"SKY","device":"/dev/ttyACM0","time":"2025-05-09T05:36:18.000Z","xdop":3.56,"ydop":4.23,"vdop":2.09,"tdop":1.70,"hdop":1.70,"gdop":3.19,"pdop":2.69,"nSat":26,"uSat":6,"satellites":[{"PRN":1,"el":15.0,"az":254.0,"ss":24.0,"used":true,"gnssid":0,"svid":1,"health":1},{"PRN":2,"el":2.0,"az":231.0,"ss":9.0,"used":false,"gnssid":0,"svid":2,"health":1},{"PRN":3,"el":51.0,"az":296.0,"ss":22.0,"used":false,"gnssid":0,"svid":3,"health":1},{"PRN":4,"el":17.0,"az":297.0,"ss":13.0,"used":false,"gnssid":0,"svid":4,"health":1},{"PRN":10,"el":2.0,"az":158.0,"ss":22.0,"used":false,"gnssid":0,"svid":10,"health":1},{"PRN":16,"el":20.0,"az":184.0,"ss":28.0,"used":true,"gnssid":0,"svid":16,"health":1},{"PRN":25,"el":18.0,"az":43.0,"ss":0.0,"used":false,"gnssid":0,"svid":25,"health":1},{"PRN":26,"el":48.0,"az":171.0,"ss":26.0,"used":true,"gnssid":0,"svid":26,"health":1},{"PRN":28,"el":57.0,"az":47.0,"ss":8.0,"used":false,"gnssid":0,"svid":28,"health":1},{"PRN":29,"el":6.0,"az":81.0,"ss":0.0,"used":false,"gnssid":0,"svid":29,"health":1},{"PRN":31,"el":81.0,"az":344.0,"ss":8.0,"used":false,"gnssid":0,"svid":31,"health":1},{"PRN":32,"el":34.0,"az":103.0,"ss":0.0,"used":false,"gnssid":0,"svid":32,"health":1},{"PRN":421,"el":10.0,"az":135.0,"ss":0.0,"used":false,"gnssid":3,"svid":21,"health":1},{"PRN":424,"el":71.0,"az":198.0,"ss":25.0,"used":true,"gnssid":3,"svid":24,"health":1},{"PRN":425,"el":17.0,"az":221.0,"ss":27.0,"used":true,"gnssid":3,"svid":25,"health":1},{"PRN":426,"el":52.0,"az":54.0,"ss":0.0,"used":false,"gnssid":3,"svid":26,"health":1},{"PRN":433,"el":61.0,"az":309.0,"ss":15.0,"used":false,"gnssid":3,"svid":33,"health":1},{"PRN":68,"el":16.0,"az":126.0,"ss":9.0,"used":false,"gnssid":6,"svid":4,"health":1},{"PRN":69,"el":64.0,"az":100.0,"ss":0.0,"used":false,"gnssid":6,"svid":5,"health":1},{"PRN":70,"el":39.0,"az":325.0,"ss":0.0,"used":false,"gnssid":6,"svid":6,"health":1},{"PRN":73,"el":4.0,"az":211.0,"ss":28.0,"used":false,"gnssid":6,"svid":9,"health":1},{"PRN":78,"el":12.0,"az":33.0,"ss":0.0,"used":false,"gnssid":6,"svid":14,"health":1},{"PRN":79,"el":63.0,"az":45.0,"ss":8.0,"used":false,"gnssid":6,"svid":15,"health":1}]}
{"class":"PPS","device":"/dev/pps0","real_sec":1746768979,"real_nsec":0,"clock_sec":1746768979,"clock_nsec":192,"precision":-20}
{"class":"TPV","device":"/dev/ttyACM0","mode":3,"time":"2025-05-09T05:36:19.000Z","leapseconds":18,"ept":0.005,"lat":41.880677600,"lon":-87.643923200,"altHAE":266.1580,"altMSL":299.9470,"alt":299.9470,"epx":53.413,"epy":63.406,"epv":6.761,"track":24.4425,"magtrack":20.3876,"magvar":-4.1,"speed":0.004,"climb":-0.173,"eps":0.01,"epc":13.52,"ecefx":195520.03,"ecefy":-4752034.56,"ecefz":4235923.10,"ecefvx":0.00,"ecefvy":-0.01,"ecefvz":0.00,"ecefpAcc":12.63,"ecefvAcc":0.02,"geoidSep":-33.900,"eph":10.673,"sep":48.878}
{"class":"SKY","device":"/dev/ttyACM0","time":"2025-05-09T05:36:19.000Z","xdop":3.56,"ydop":4.23,"vdop":4.55,"tdop":5.99,"hdop":5.66,"gdop":9.41,"pdop":7.26,"nSat":26,"uSat":6,"satellites":[{"PRN":1,"el":15.0,"az":254.0,"ss":25.0,"used":true,"gnssid":0,"svid":1,"health":1},{"PRN":2,"el":2.0,"az":231.0,"ss":9.0,"used":false,"gnssid":0,"svid":2,"health":1},{"PRN":3,"el":51.0,"az":296.0,"ss":22.0,"used":false,"gnssid":0,"svid":3,"health":1},{"PRN":4,"el":17.0,"az":297.0,"ss":13.0,"used":false,"gnssid":0,"svid":4,"health":1},{"PRN":10,"el":2.0,"az":158.0,"ss":21.0,"used":false,"gnssid":0,"svid":10,"health":1},{"PRN":16,"el":20.0,"az":184.0,"ss":27.0,"used":true,"gnssid":0,"svid":16,"health":1},{"PRN":25,"el":18.0,"az":43.0,"ss":0.0,"used":false,"gnssid":0,"svid":25,"health":1},{"PRN":26,"el":48.0,"az":171.0,"ss":27.0,"used":true,"gnssid":0,"svid":26,"health":1},{"PRN":28,"el":57.0,"az":47.0,"ss":10.0,"used":false,"gnssid":0,"svid":28,"health":1},{"PRN":29,"el":6.0,"az":81.0,"ss":0.0,"used":false,"gnssid":0,"svid":29,"health":1},{"PRN":31,"el":81.0,"az":344.0,"ss":8.0,"used":false,"gnssid":0,"svid":31,"health":1},{"PRN":32,"el":34.0,"az":103.0,"ss":0.0,"used":false,"gnssid":0,"svid":32,"health":1},{"PRN":421,"el":10.0,"az":135.0,"ss":0.0,"used":false,"gnssid":3,"svid":21,"health":1},{"PRN":424,"el":71.0,"az":198.0,"ss":25.0,"used":true,"gnssid":3,"svid":24,"health":1},{"PRN":425,"el":17.0,"az":221.0,"ss":26.0,"used":true,"gnssid":3,"svid":25,"health":1},{"PRN":426,"el":52.0,"az":54.0,"ss":0.0,"used":false,"gnssid":3,"svid":26,"health":1},{"PRN":433,"el":61.0,"az":309.0,"ss":15.0,"used":false,"gnssid":3,"svid":33,"health":1},{"PRN":68,"el":16.0,"az":126.0,"ss":9.0,"used":false,"gnssid":6,"svid":4,"health":1},{"PRN":69,"el":64.0,"az":100.0,"ss":0.0,"used":false,"gnssid":6,"svid":5,"health":1},{"PRN":70,"el":39.0,"az":325.0,"ss":0.0,"used":false,"gnssid":6,"svid":6,"health":1},{"PRN":73,"el":4.0,"az":211.0,"ss":28.0,"used":false,"gnssid":6,"svid":9,"health":1},{"PRN":78,"el":12.0,"az":33.0,"ss":0.0,"used":false,"gnssid":6,"svid":14,"health":1},{"PRN":79,"el":63.0,"az":45.0,"ss":9.0,"used":false,"gnssid":6,"svid":15,"health":1}]}
{"class":"PPS","device":"/dev/pps0","real_sec":1746768980,"real_nsec":0,"clock_sec":1746768980,"clock_nsec":510,"precision":-20}
{"class":"TPV","device":"/dev/ttyACM0","mode":3,"time":"2025-05-09T05:36:20.000Z","leapseconds":18,"ept":0.005,"lat":41.880677800,"lon":-87.643923000,"altHAE":266.1500,"altMSL":299.9390,"alt":299.9390,"epx":53.413,"epy":63.406,"epv":6.763,"track":24.4425,"magtrack":20.3876,"magvar":-4.1,"speed":0.004,"climb":-0.173,"eps":0.01,"epc":13.52,"ecefx":195520.05,"ecefy":-4752034.53,"ecefz":4235923.10,"ecefvx":0.00,"ecefvy":-0.01,"ecefvz":0.00,"ecefpAcc":12.63,"ecefvAcc":0.02,"geoidSep":-33.900,"eph":10.670,"sep":48.878}
{"class":"SKY","device":"/dev/ttyACM0","time":"2025-05-09T05:36:20.000Z","xdop":2.34,"ydop":2.08,"vdop":4.55,"tdop":5.99,"hdop":5.66,"gdop":9.41,"pdop":7.26,"nSat":26,"uSat":7,"satellites":[{"PRN":1,"el":15.0,"az":254.0,"ss":25.0,"used":true,"gnssid":0,"svid":1,"health":1},{"PRN":2,"el":2.0,"az":231.0,"ss":8.0,"used":false,"gnssid":0,"svid":2,"health":1},{"PRN":3,"el":51.0,"az":296.0,"ss":22.0,"used":false,"gnssid":0,"svid":3,"health":1},{"PRN":4,"el":17.0,"az":297.0,"ss":14.0,"used":false,"gnssid":0,"svid":4,"health":1},{"PRN":10,"el":2.0,"az":158.0,"ss":20.0,"used":false,"gnssid":0,"svid":10,"health":1},{"PRN":16,"el":20.0,"az":184.0,"ss":27.0,"used":true,"gnssid":0,"svid":16,"health":1},{"PRN":25,"el":18.0,"az":43.0,"ss":0.0,"used":false,"gnssid":0,"svid":25,"health":1},{"PRN":26,"el":48.0,"az":171.0,"ss":27.0,"used":true,"gnssid":0,"svid":26,"health":1},{"PRN":28,"el":57.0,"az":47.0,"ss":8.0,"used":false,"gnssid":0,"svid":28,"health":1},{"PRN":29,"el":6.0,"az":81.0,"ss":0.0,"used":false,"gnssid":0,"svid":29,"health":1},{"PRN":31,"el":81.0,"az":344.0,"ss":9.0,"used":true,"gnssid":0,"svid":31,"health":1},{"PRN":32,"el":34.0,"az":103.0,"ss":0.0,"used":false,"gnssid":0,"svid":32,"health":1},{"PRN":421,"el":10.0,"az":135.0,"ss":0.0,"used":false,"gnssid":3,"svid":21,"health":1},{"PRN":424,"el":71.0,"az":198.0,"ss":25.0,"used":true,"gnssid":3,"svid":24,"health":1},{"PRN":425,"el":17.0,"az":221.0,"ss":26.0,"used":true,"gnssid":3,"svid":25,"health":1},{"PRN":426,"el":52.0,"az":54.0,"ss":0.0,"used":false,"gnssid":3,"svid":26,"health":1},{"PRN":433,"el":61.0,"az":309.0,"ss":16.0,"used":false,"gnssid":3,"svid":33,"health":1},{"PRN":68,"el":16.0,"az":126.0,"ss":10.0,"used":false,"gnssid":6,"svid":4,"health":1},{"PRN":69,"el":64.0,"az":100.0,"ss":0.0,"used":false,"gnssid":6,"svid":5,"health":1},{"PRN":70,"el":39.0,"az":325.0,"ss":0.0,"used":false,"gnssid":6,"svid":6,"health":1},{"PRN":73,"el":4.0,"az":211.0,"ss":28.0,"used":false,"gnssid":6,"svid":9,"health":1},{"PRN":78,"el":11.0,"az":33.0,"ss":0.0,"used":false,"gnssid":6,"svid":14,"health":1},{"PRN":79,"el":63.0,"az":45.0,"ss":8.0,"used":false,"gnssid":6,"svid":15,"health":1}]}
{"class":"PPS","device":"/dev/pps0","real_sec":1746768981,"real_nsec":0,"clock_sec":1746768981,"clock_nsec":211,"precision":-20}
{"class":"TPV","device":"/dev/ttyACM0","mode":3,"time":"2025-05-09T05:36:21.000Z","leapseconds":18,"ept":0.005,"lat":41.880677800,"lon":-87.643922900,"altHAE":266.1520,"altMSL":299.9410,"alt":299.9410,"epx":35.037,"epy":31.154,"epv":6.765,"track":24.4425,"magtrack":20.3876,"magvar":-4.1,"speed":0.004,"climb":-0.173,"eps":0.01,"epc":13.53,"ecefx":195520.06,"ecefy":-4752034.52,"ecefz":4235923.11,"ecefvx":0.00,"ecefvy":-0.01,"ecefvz":0.00,"ecefpAcc":12.63,"ecefvAcc":0.02,"geoidSep":-33.900,"eph":10.666,"sep":48.878}
{"class":"SKY","device":"/dev/ttyACM0","time":"2025-05-09T05:36:21.000Z","xdop":2.34,"ydop":2.08,"vdop":3.25,"tdop":3.46,"hdop":3.10,"gdop":5.67,"pdop":4.49,"nSat":26,"uSat":7,"satellites":[{"PRN":1,"el":15.0,"az":254.0,"ss":24.0,"used":true,"gnssid":0,"svid":1,"health":1},{"PRN":2,"el":2.0,"az":231.0,"ss":11.0,"used":false,"gnssid":0,"svid":2,"health":1},{"PRN":3,"el":51.0,"az":296.0,"ss":22.0,"used":false,"gnssid":0,"svid":3,"health":1},{"PRN":4,"el":17.0,"az":297.0,"ss":15.0,"used":false,"gnssid":0,"svid":4,"health":1},{"PRN":10,"el":2.0,"az":158.0,"ss":20.0,"used":false,"gnssid":0,"svid":10,"health":1},{"PRN":16,"el":20.0,"az":184.0,"ss":27.0,"used":true,"gnssid":0,"svid":16,"health":1},{"PRN":25,"el":18.0,"az":43.0,"ss":0.0,"used":false,"gnssid":0,"svid":25,"health":1},{"PRN":26,"el":48.0,"az":171.0,"ss":27.0,"used":true,"gnssid":0,"svid":26,"health":1},{"PRN":28,"el":57.0,"az":47.0,"ss":9.0,"used":false,"gnssid":0,"svid":28,"health":1},{"PRN":29,"el":6.0,"az":81.0,"ss":0.0,"used":false,"gnssid":0,"svid":29,"health":1},{"PRN":31,"el":81.0,"az":344.0,"ss":9.0,"used":true,"gnssid":0,"svid":31,"health":1},{"PRN":32,"el":34.0,"az":103.0,"ss":0.0,"used":false,"gnssid":0,"svid":32,"health":1},{"PRN":421,"el":10.0,"az":135.0,"ss":0.0,"used":false,"gnssid":3,"svid":21,"health":1},{"PRN":424,"el":71.0,"az":198.0,"ss":25.0,"used":true,"gnssid":3,"svid":24,"health":1},{"PRN":425,"el":17.0,"az":221.0,"ss":27.0,"used":true,"gnssid":3,"svid":25,"health":1},{"PRN":426,"el":52.0,"az":54.0,"ss":0.0,"used":false,"gnssid":3,"svid":26,"health":1},{"PRN":433,"el":61.0,"az":309.0,"ss":15.0,"used":false,"gnssid":3,"svid":33,"health":1},{"PRN":68,"el":16.0,"az":126.0,"ss":9.0,"used":false,"gnssid":6,"svid":4,"health":1},{"PRN":69,"el":64.0,"az":100.0,"ss":0.0,"used":false,"gnssid":6,"svid":5,"health":1},{"PRN":70,"el":39.0,"az":325.0,"ss":0.0,"used":false,"gnssid":6,"svid":6,"health":1},{"PRN":73,"el":4.0,"az":211.0,"ss":28.0,"used":false,"gnssid":6,"svid":9,"health":1},{"PRN":78,"el":11.0,"az":33.0,"ss":0.0,"used":false,"gnssid":6,"svid":14,"health":1},{"PRN":79,"el":63.0,"az":44.0,"ss":6.0,"used":false,"gnssid":6,"svid":15,"health":1}]}
{"class":"PPS","device":"/dev/pps0","real_sec":1746768982,"real_nsec":0,"clock_sec":1746768982,"clock_nsec":634,"precision":-20}
{"class":"TPV","device":"/dev/ttyACM0","mode":3,"time":"2025-05-09T05:36:22.000Z","leapseconds":18,"ept":0.005,"lat":41.880675800,"lon":-87.643924900,"altHAE":266.3080,"altMSL":300.0970,"alt":300.0970,"epx":35.037,"epy":31.154,"epv":6.763,"track":24.4425,"magtrack":20.3876,"magvar":-4.1,"speed":0.004,"climb":-0.173,"eps":0.01,"epc":13.53,"ecefx":195520.07,"ecefy":-4752034.51,"ecefz":4235923.12,"ecefvx":0.00,"ecefvy":-0.01,"ecefvz":0.00,"ecefpAcc":12.63,"ecefvAcc":0.02,"geoidSep":-33.900,"eph":10.652,"sep":48.878}
{"class":"SKY","device":"/dev/ttyACM0","time":"2025-05-09T05:36:22.000Z","xdop":1.31,"ydop":1.08,"vdop":3.25,"tdop":3.46,"hdop":3.10,"gdop":5.67,"pdop":4.49,"nSat":26,"uSat":7,"satellites":[{"PRN":1,"el":15.0,"az":254.0,"ss":24.0,"used":true,"gnssid":0,"svid":1,"health":1},{"PRN":2,"el":2.0,"az":231.0,"ss":11.0,"used":false,"gnssid":0,"svid":2,"health":1},{"PRN":3,"el":51.0,"az":296.0,"ss":21.0,"used":false,"gnssid":0,"svid":3,"health":1},{"PRN":4,"el":17.0,"az":297.0,"ss":16.0,"used":false,"gnssid":0,"svid":4,"health":1},{"PRN":10,"el":2.0,"az":158.0,"ss":20.0,"used":false,"gnssid":0,"svid":10,"health":1},{"PRN":16,"el":20.0,"az":184.0,"ss":27.0,"used":true,"gnssid":0,"svid":16,"health":1},{"PRN":25,"el":18.0,"az":43.0,"ss":0.0,"used":false,"gnssid":0,"svid":25,"health":1},{"PRN":26,"el":48.0,"az":171.0,"ss":27.0,"used":true,"gnssid":0,"svid":26,"health":1},{"PRN":28,"el":57.0,"az":47.0,"ss":10.0,"used":true,"gnssid":0,"svid":28,"health":1},{"PRN":29,"el":6.0,"az":81.0,"ss":0.0,"used":false,"gnssid":0,"svid":29,"health":1},{"PRN":31,"el":81.0,"az":344.0,"ss":9.0,"used":false,"gnssid":0,"svid":31,"health":1},{"PRN":32,"el":34.0,"az":103.0,"ss":0.0,"used":false,"gnssid":0,"svid":32,"health":1},{"PRN":421,"el":10.0,"az":135.0,"ss":0.0,"used":false,"gnssid":3,"svid":21,"health":1},{"PRN":424,"el":71.0,"az":198.0,"ss":25.0,"used":true,"gnssid":3,"svid":24,"health":1},{"PRN":425,"el":17.0,"az":221.0,"ss":27.0,"used":true,"gnssid":3,"svid":25,"health":1},{"PRN":426,"el":52.0,"az":54.0,"ss":0.0,"used":false,"gnssid":3,"svid":26,"health":1},{"PRN":433,"el":61.0,"az":309.0,"ss":15.0,"used":false,"gnssid":3,"svid":33,"health":1},{"PRN":68,"el":16.0,"az":126.0,"ss":9.0,"used":false,"gnssid":6,"svid":4,"health":1},{"PRN":69,"el":64.0,"az":100.0,"ss":0.0,"used":false,"gnssid":6,"svid":5,"health":1},{"PRN":70,"el":39.0,"az":325.0,"ss":0.0,"used":false,"gnssid":6,"svid":6,"health":1},{"PRN":73,"el":4.0,"az":211.0,"ss":29.0,"used":false,"gnssid":6,"svid":9,"health":1},{"PRN":78,"el":11.0,"az":33.0,"ss":0.0,"used":false,"gnssid":6,"svid":14,"health":1},{"PRN":79,"el":63.0,"az":44.0,"ss":9.0,"used":false,"gnssid":6,"svid":15,"health":1}]}
{"class":"PPS","device":"/dev/pps0","real_sec":1746768983,"real_nsec":0,"clock_sec":1746768982,"clock_nsec":999999983,"precision":-20}
{"class":"TPV","device":"/dev/ttyACM0","mode":3,"time":"2025-05-09T05:36:23.000Z","leapseconds":18,"ept":0.005,"lat":41.880675700,"lon":-87.643925000,"altHAE":266.3250,"altMSL":300.1140,"alt":300.1140,"epx":19.714,"epy":16.131,"epv":6.764,"track":24.4425,"magtrack":20.3876,"magvar":-4.1,"speed":0.004,"climb":-0.173,"eps":0.01,"epc":13.53,"ecefx":195519.91,"ecefy":-4752034.79,"ecefz":4235923.05,"ecefvx":0.00,"ecefvy":-0.01,"ecefvz":0.00,"ecefpAcc":12.62,"ecefvAcc":0.02,"geoidSep":-33.900,"eph":10.649,"sep":48.878}
{"class":"SKY","device":"/dev/ttyACM0","time":"2025-05-09T05:36:23.000Z","xdop":1.27,"ydop":1.03,"vdop":2.09,"tdop":1.70,"hdop":1.70,"gdop":3.19,"pdop":2.69,"nSat":26,"uSat":8,"satellites":[{"PRN":1,"el":15.0,"az":254.0,"ss":24.0,"used":true,"gnssid":0,"svid":1,"health":1},{"PRN":2,"el":2.0,"az":231.0,"ss":12.0,"used":false,"gnssid":0,"svid":2,"health":1},{"PRN":3,"el":51.0,"az":296.0,"ss":21.0,"used":false,"gnssid":0,"svid":3,"health":1},{"PRN":4,"el":17.0,"az":297.0,"ss":16.0,"used":false,"gnssid":0,"svid":4,"health":1},{"PRN":10,"el":2.0,"az":158.0,"ss":21.0,"used":false,"gnssid":0,"svid":10,"health":1},{"PRN":16,"el":20.0,"az":184.0,"ss":28.0,"used":true,"gnssid":0,"svid":16,"health":1},{"PRN":25,"el":18.0,"az":43.0,"ss":0.0,"used":false,"gnssid":0,"svid":25,"health":1},{"PRN":26,"el":48.0,"az":171.0,"ss":27.0,"used":true,"gnssid":0,"svid":26,"health":1},{"PRN":28,"el":57.0,"az":47.0,"ss":9.0,"used":true,"gnssid":0,"svid":28,"health":1},{"PRN":29,"el":6.0,"az":81.0,"ss":0.0,"used":false,"gnssid":0,"svid":29,"health":1},{"PRN":31,"el":81.0,"az":344.0,"ss":9.0,"used":true,"gnssid":0,"svid":31,"health":1},{"PRN":32,"el":34.0,"az":103.0,"ss":0.0,"used":false,"gnssid":0,"svid":32,"health":1},{"PRN":421,"el":10.0,"az":135.0,"ss":0.0,"used":false,"gnssid":3,"svid":21,"health":1},{"PRN":424,"el":71.0,"az":198.0,"ss":25.0,"used":true,"gnssid":3,"svid":24,"health":1},{"PRN":425,"el":17.0,"az":221.0,"ss":27.0,"used":true,"gnssid":3,"svid":25,"health":1},{"PRN":426,"el":52.0,"az":54.0,"ss":0.0,"used":false,"gnssid":3,"svid":26,"health":1},{"PRN":433,"el":61.0,"az":309.0,"ss":16.0,"used":false,"gnssid":3,"svid":33,"health":1},{"PRN":68,"el":16.0,"az":126.0,"ss":8.0,"used":false,"gnssid":6,"svid":4,"health":1},{"PRN":69,"el":64.0,"az":100.0,"ss":0.0,"used":false,"gnssid":6,"svid":5,"health":1},{"PRN":70,"el":39.0,"az":325.0,"ss":0.0,"used":false,"gnssid":6,"svid":6,"health":1},{"PRN":73,"el":4.0,"az":211.0,"ss":29.0,"used":false,"gnssid":6,"svid":9,"health":1},{"PRN":78,"el":11.0,"az":33.0,"ss":0.0,"used":false,"gnssid":6,"svid":14,"health":1},{"PRN":79,"el":63.0,"az":44.0,"ss":13.0,"used":false,"gnssid":6,"svid":15,"health":1}]}
{"class":"PPS","device":"/dev/pps0","real_sec":1746768984,"real_nsec":0,"clock_sec":1746768983,"clock_nsec":999999924,"precision":-20}
{"class":"TPV","device":"/dev/ttyACM0","mode":3,"time":"2025-05-09T05:36:24.000Z","leapseconds":18,"ept":0.005,"lat":41.880675600,"lon":-87.643925100,"altHAE":266.3430,"altMSL":300.1320,"alt":300.1320,"epx":19.075,"epy":15.496,"epv":6.766,"track":24.4425,"magtrack":20.3876,"magvar":-4.1,"speed":0.004,"climb":-0.173,"eps":0.01,"epc":13.53,"ecefx":195519.91,"ecefy":-4752034.80,"ecefz":4235923.06,"ecefvx":0.00,"ecefvy":-0.01,"ecefvz":0.00,"ecefpAcc":12.62,"ecefvAcc":0.02,"geoidSep":-33.900,"eph":10.645,"sep":48.878}
{"class":"SKY","device":"/dev/ttyACM0","time":"2025-05-09T05:36:24.000Z","xdop":1.27,"ydop":1.03,"vdop":1.97,"tdop":1.68,"hdop":1.64,"gdop":3.06,"pdop":2.56,"nSat":26,"uSat":8,"satellites":[{"PRN":1,"el":15.0,"az":254.0,"ss":24.0,"used":true,"gnssid":0,"svid":1,"health":1},{"PRN":2,"el":2.0,"az":231.0,"ss":11.0,"used":false,"gnssid":0,"svid":2,"health":1},{"PRN":3,"el":51.0,"az":296.0,"ss":21.0,"used":false,"gnssid":0,"svid":3,"health":1},{"PRN":4,"el":17.0,"az":297.0,"ss":16.0,"used":false,"gnssid":0,"svid":4,"health":1},{"PRN":10,"el":2.0,"az":158.0,"ss":21.0,"used":false,"gnssid":0,"svid":10,"health":1},{"PRN":16,"el":20.0,"az":184.0,"ss":28.0,"used":true,"gnssid":0,"svid":16,"health":1},{"PRN":25,"el":18.0,"az":43.0,"ss":0.0,"used":false,"gnssid":0,"svid":25,"health":1},{"PRN":26,"el":48.0,"az":171.0,"ss":26.0,"used":true,"gnssid":0,"svid":26,"health":1},{"PRN":28,"el":57.0,"az":47.0,"ss":10.0,"used":true,"gnssid":0,"svid":28,"health":1},{"PRN":29,"el":6.0,"az":81.0,"ss":0.0,"used":false,"gnssid":0,"svid":29,"health":1},{"PRN":31,"el":81.0,"az":344.0,"ss":9.0,"used":true,"gnssid":0,"svid":31,"health":1},{"PRN":32,"el":34.0,"az":103.0,"ss":0.0,"used":false,"gnssid":0,"svid":32,"health":1},{"PRN":421,"el":10.0,"az":135.0,"ss":0.0,"used":false,"gnssid":3,"svid":21,"health":1},{"PRN":424,"el":71.0,"az":198.0,"ss":25.0,"used":true,"gnssid":3,"svid":24,"health":1},{"PRN":425,"el":17.0,"az":221.0,"ss":27.0,"used":true,"gnssid":3,"svid":25,"health":1},{"PRN":426,"el":52.0,"az":54.0,"ss":0.0,"used":false,"gnssid":3,"svid":26,"health":1},{"PRN":433,"el":61.0,"az":309.0,"ss":16.0,"used":false,"gnssid":3,"svid":33,"health":1},{"PRN":68,"el":16.0,"az":126.0,"ss":10.0,"used":false,"gnssid":6,"svid":4,"health":1},{"PRN":69,"el":64.0,"az":100.0,"ss":0.0,"used":false,"gnssid":6,"svid":5,"health":1},{"PRN":70,"el":39.0,"az":325.0,"ss":0.0,"used":false,"gnssid":6,"svid":6,"health":1},{"PRN":73,"el":4.0,"az":211.0,"ss":29.0,"used":false,"gnssid":6,"svid":9,"health":1},{"PRN":78,"el":11.0,"az":33.0,"ss":0.0,"used":false,"gnssid":6,"svid":14,"health":1},{"PRN":79,"el":63.0,"az":44.0,"ss":9.0,"used":false,"gnssid":6,"svid":15,"health":1}]}
{"class":"PPS","device":"/dev/pps0","real_sec":1746768985,"real_nsec":0,"clock_sec":1746768984,"clock_nsec":999999477,"precision":-20}
{"class":"TPV","device":"/dev/ttyACM0","mode":3,"time":"2025-05-09T05:36:25.000Z","leapseconds":18,"ept":0.005,"lat":41.880676500,"lon":-87.643924200,"altHAE":266.2940,"altMSL":300.0830,"alt":300.0830,"epx":19.075,"epy":15.496,"epv":6.767,"track":24.4425,"magtrack":20.3876,"magvar":-4.1,"speed":0.004,"climb":-0.173,"eps":0.01,"epc":13.53,"ecefx":195519.90,"ecefy":-4752034.83,"ecefz":4235923.06,"ecefvx":0.00,"ecefvy":-0.01,"ecefvz":0.00,"ecefpAcc":12.61,"ecefvAcc":0.02,"geoidSep":-33.900,"eph":10.640,"sep":48.878}
{"class":"SKY","device":"/dev/ttyACM0","time":"2025-05-09T05:36:25.000Z","xdop":2.34,"ydop":2.09,"vdop":1.97,"tdop":1.68,"hdop":1.64,"gdop":3.06,"pdop":2.56,"nSat":26,"uSat":7,"satellites":[{"PRN":1,"el":15.0,"az":254.0,"ss":24.0,"used":true,"gnssid":0,"svid":1,"health":1},{"PRN":2,"el":2.0,"az":231.0,"ss":7.0,"used":false,"gnssid":0,"svid":2,"health":1},{"PRN":3,"el":51.0,"az":296.0,"ss":21.0,"used":false,"gnssid":0,"svid":3,"health":1},{"PRN":4,"el":17.0,"az":297.0,"ss":15.0,"used":false,"gnssid":0,"svid":4,"health":1},{"PRN":10,"el":2.0,"az":158.0,"ss":22.0,"used":false,"gnssid":0,"svid":10,"health":1},{"PRN":16,"el":20.0,"az":184.0,"ss":28.0,"used":true,"gnssid":0,"svid":16,"health":1},{"PRN":25,"el":18.0,"az":43.0,"ss":0.0,"used":false,"gnssid":0,"svid":25,"health":1},{"PRN":26,"el":48.0,"az":171.0,"ss":26.0,"used":true,"gnssid":0,"svid":26,"health":1},{"PRN":28,"el":57.0,"az":47.0,"ss":8.0,"used":false,"gnssid":0,"svid":28,"health":1},{"PRN":29,"el":6.0,"az":81.0,"ss":0.0,"used":false,"gnssid":0,"svid":29,"health":1},{"PRN":31,"el":81.0,"az":344.0,"ss":10.0,"used":true,"gnssid":0,"svid":31,"health":1},{"PRN":32,"el":34.0,"az":103.0,"ss":0.0,"used":false,"gnssid":0,"svid":32,"health":1},{"PRN":421,"el":10.0,"az":135.0,"ss":0.0,"used":false,"gnssid":3,"svid":21,"health":1},{"PRN":424,"el":71.0,"az":198.0,"ss":25.0,"used":true,"gnssid":3,"svid":24,"health":1},{"PRN":425,"el":17.0,"az":221.0,"ss":27.0,"used":true,"gnssid":3,"svid":25,"health":1},{"PRN":426,"el":52.0,"az":54.0,"ss":0.0,"used":false,"gnssid":3,"svid":26,"health":1},{"PRN":433,"el":61.0,"az":309.0,"ss":15.0,"used":false,"gnssid":3,"svid":33,"health":1},{"PRN":68,"el":16.0,"az":126.0,"ss":10.0,"used":false,"gnssid":6,"svid":4,"health":1},{"PRN":69,"el":64.0,"az":100.0,"ss":0.0,"used":false,"gnssid":6,"svid":5,"health":1},{"PRN":70,"el":39.0,"az":325.0,"ss":0.0,"used":false,"gnssid":6,"svid":6,"health":1},{"PRN":73,"el":4.0,"az":211.0,"ss":28.0,"used":false,"gnssid":6,"svid":9,"health":1},{"PRN":78,"el":11.0,"az":33.0,"ss":0.0,"used":false,"gnssid":6,"svid":14,"health":1},{"PRN":79,"el":63.0,"az":44.0,"ss":11.0,"used":false,"gnssid":6,"svid":15,"health":1}]}
{"class":"PPS","device":"/dev/pps0","real_sec":1746768986,"real_nsec":0,"clock_sec":1746768986,"clock_nsec":85,"precision":-20}
{"class":"TPV","device":"/dev/ttyACM0","mode":3,"time":"2025-05-09T05:36:26.000Z","leapseconds":18,"ept":0.005,"lat":41.880676500,"lon":-87.643924000,"altHAE":266.3100,"altMSL":300.0990,"alt":300.0990,"epx":35.111,"epy":31.321,"epv":6.769,"track":24.4425,"magtrack":20.3876,"magvar":-4.1,"speed":0.004,"climb":-0.173,"eps":0.01,"epc":13.54,"ecefx":195519.97,"ecefy":-4752034.72,"ecefz":4235923.10,"ecefvx":0.00,"ecefvy":-0.01,"ecefvz":0.00,"ecefpAcc":12.61,"ecefvAcc":0.02,"geoidSep":-33.900,"eph":10.636,"sep":48.878}
{"class":"SKY","device":"/dev/ttyACM0","time":"2025-05-09T05:36:26.000Z","xdop":3.62,"ydop":4.30,"vdop":3.25,"tdop":3.46,"hdop":3.10,"gdop":5.67,"pdop":4.49,"nSat":26,"uSat":6,"satellites":[{"PRN":1,"el":15.0,"az":254.0,"ss":25.0,"used":true,"gnssid":0,"svid":1,"health":1},{"PRN":2,"el":2.0,"az":231.0,"ss":11.0,"used":false,"gnssid":0,"svid":2,"health":1},{"PRN":3,"el":51.0,"az":296.0,"ss":21.0,"used":false,"gnssid":0,"svid":3,"health":1},{"PRN":4,"el":17.0,"az":297.0,"ss":15.0,"used":false,"gnssid":0,"svid":4,"health":1},{"PRN":10,"el":2.0,"az":158.0,"ss":22.0,"used":false,"gnssid":0,"svid":10,"health":1},{"PRN":16,"el":20.0,"az":184.0,"ss":27.0,"used":true,"gnssid":0,"svid":16,"health":1},{"PRN":25,"el":18.0,"az":43.0,"ss":0.0,"used":false,"gnssid":0,"svid":25,"health":1},{"PRN":26,"el":48.0,"az":171.0,"ss":26.0,"used":true,"gnssid":0,"svid":26,"health":1},{"PRN":28,"el":57.0,"az":47.0,"ss":7.0,"used":false,"gnssid":0,"svid":28,"health":1},{"PRN":29,"el":6.0,"az":81.0,"ss":0.0,"used":false,"gnssid":0,"svid":29,"health":1},{"PRN":31,"el":81.0,"az":344.0,"ss":7.0,"used":false,"gnssid":0,"svid":31,"health":1},{"PRN":32,"el":34.0,"az":103.0,"ss":0.0,"used":false,"gnssid":0,"svid":32,"health":1},{"PRN":421,"el":10.0,"az":135.0,"ss":0.0,"used":false,"gnssid":3,"svid":21,"health":1},{"PRN":424,"el":71.0,"az":198.0,"ss":25.0,"used":true,"gnssid":3,"svid":24,"health":1},{"PRN":425,"el":17.0,"az":221.0,"ss":27.0,"used":true,"gnssid":3,"svid":25,"health":1},{"PRN":426,"el":52.0,"az":54.0,"ss":0.0,"used":false,"gnssid":3,"svid":26,"health":1},{"PRN":433,"el":61.0,"az":309.0,"ss":15.0,"used":false,"gnssid":3,"svid":33,"health":1},{"PRN":68,"el":16.0,"az":126.0,"ss":12.0,"used":false,"gnssid":6,"svid":4,"health":1},{"PRN":69,"el":64.0,"az":100.0,"ss":0.0,"used":false,"gnssid":6,"svid":5,"health":1},{"PRN":70,"el":39.0,"az":325.0,"ss":0.0,"used":false,"gnssid":6,"svid":6,"health":1},{"PRN":73,"el":4.0,"az":211.0,"ss":28.0,"used":false,"gnssid":6,"svid":9,"health":1},{"PRN":78,"el":11.0,"az":33.0,"ss":0.0,"used":false,"gnssid":6,"svid":14,"health":1},{"PRN":79,"el":63.0,"az":44.0,"ss":9.0,"used":false,"gnssid":6,"svid":15,"health":1}]}
{"class":"PPS","device":"/dev/pps0","real_sec":1746768987,"real_nsec":0,"clock_sec":1746768986,"clock_nsec":999999730,"precision":-20}
{"class":"TPV","device":"/dev/ttyACM0","mode":3,"time":"2025-05-09T05:36:27.000Z","leapseconds":18,"ept":0.005,"lat":41.880676400,"lon":-87.643923800,"altHAE":266.3220,"altMSL":300.1110,"alt":300.1110,"epx":54.225,"epy":64.508,"epv":6.771,"track":24.4425,"magtrack":20.3876,"magvar":-4.1,"speed":0.004,"climb":-0.173,"eps":0.01,"epc":13.54,"ecefx":195519.98,"ecefy":-4752034.74,"ecefz":4235923.11,"ecefvx":0.00,"ecefvy":-0.01,"ecefvz":0.00,"ecefpAcc":12.61,"ecefvAcc":0.02,"geoidSep":-33.900,"eph":10.633,"sep":48.878}
{"class":"SKY","device":"/dev/ttyACM0","time":"2025-05-09T05:36:27.000Z","xdop":2.34,"ydop":2.09,"vdop":4.55,"tdop":5.99,"hdop":5.66,"gdop":9.41,"pdop":7.26,"nSat":26,"uSat":7,"satellites":[{"PRN":1,"el":15.0,"az":254.0,"ss":25.0,"used":true,"gnssid":0,"svid":1,"health":1},{"PRN":2,"el":2.0,"az":231.0,"ss":12.0,"used":false,"gnssid":0,"svid":2,"health":1},{"PRN":3,"el":51.0,"az":296.0,"ss":22.0,"used":false,"gnssid":0,"svid":3,"health":1},{"PRN":4,"el":17.0,"az":297.0,"ss":15.0,"used":false,"gnssid":0,"svid":4,"health":1},{"PRN":10,"el":2.0,"az":158.0,"ss":22.0,"used":false,"gnssid":0,"svid":10,"health":1},{"PRN":16,"el":20.0,"az":184.0,"ss":27.0,"used":true,"gnssid":0,"svid":16,"health":1},{"PRN":25,"el":18.0,"az":43.0,"ss":0.0,"used":false,"gnssid":0,"svid":25,"health":1},{"PRN":26,"el":48.0,"az":171.0,"ss":26.0,"used":true,"gnssid":0,"svid":26,"health":1},{"PRN":28,"el":57.0,"az":47.0,"ss":7.0,"used":false,"gnssid":0,"svid":28,"health":1},{"PRN":29,"el":6.0,"az":81.0,"ss":0.0,"used":false,"gnssid":0,"svid":29,"health":1},{"PRN":31,"el":81.0,"az":344.0,"ss":10.0,"used":true,"gnssid":0,"svid":31,"health":1},{"PRN":32,"el":34.0,"az":103.0,"ss":0.0,"used":false,"gnssid":0,"svid":32,"health":1},{"PRN":421,"el":10.0,"az":135.0,"ss":0.0,"used":false,"gnssid":3,"svid":21,"health":1},{"PRN":424,"el":71.0,"az":198.0,"ss":25.0,"used":true,"gnssid":3,"svid":24,"health":1},{"PRN":425,"el":17.0,"az":221.0,"ss":27.0,"used":true,"gnssid":3,"svid":25,"health":1},{"PRN":426,"el":52.0,"az":54.0,"ss":0.0,"used":false,"gnssid":3,"svid":26,"health":1},{"PRN":433,"el":61.0,"az":309.0,"ss":16.0,"used":false,"gnssid":3,"svid":33,"health":1},{"PRN":68,"el":16.0,"az":126.0,"ss":11.0,"used":false,"gnssid":6,"svid":4,"health":1},{"PRN":69,"el":64.0,"az":100.0,"ss":0.0,"used":false,"gnssid":6,"svid":5,"health":1},{"PRN":70,"el":39.0,"az":325.0,"ss":0.0,"used":false,"gnssid":6,"svid":6,"health":1},{"PRN":73,"el":4.0,"az":211.0,"ss":29.0,"used":false,"gnssid":6,"svid":9,"health":1},{"PRN":78,"el":11.0,"az":33.0,"ss":0.0,"used":false,"gnssid":6,"svid":14,"health":1},{"PRN":79,"el":63.0,"az":44.0,"ss":11.0,"used":false,"gnssid":6,"svid":15,"health":1}]}
{"class":"PPS","device":"/dev/pps0","real_sec":1746768988,"real_nsec":0,"clock_sec":1746768987,"clock_nsec":999999857,"precision":-20}
{"class":"TPV","device":"/dev/ttyACM0","mode":3,"time":"2025-05-09T05:36:28.000Z","leapseconds":18,"ept":0.005,"lat":41.880675200,"lon":-87.643924700,"altHAE":266.4010,"altMSL":300.1900,"alt":300.1900,"epx":35.111,"epy":31.321,"epv":6.772,"track":24.4425,"magtrack":20.3876,"magvar":-4.1,"speed":0.004,"climb":-0.173,"eps":0.01,"epc":13.54,"ecefx":195520.00,"ecefy":-4752034.75,"ecefz":4235923.11,"ecefvx":0.00,"ecefvy":-0.01,"ecefvz":0.00,"ecefpAcc":12.61,"ecefvAcc":0.02,"geoidSep":-33.900,"eph":10.628,"sep":48.878}
{"class":"SKY","device":"/dev/ttyACM0","time":"2025-05-09T05:36:28.000Z","xdop":2.34,"ydop":2.09,"vdop":3.25,"tdop":3.46,"hdop":3.10,"gdop":5.67,"pdop":4.49,"nSat":26,"uSat":7,"satellites":[{"PRN":1,"el":15.0,"az":254.0,"ss":25.0,"used":true,"gnssid":0,"svid":1,"health":1},{"PRN":2,"el":2.0,"az":231.0,"ss":9.0,"used":false,"gnssid":0,"svid":2,"health":1},{"PRN":3,"el":51.0,"az":296.0,"ss":22.0,"used":false,"gnssid":0,"svid":3,"health":1},{"PRN":4,"el":17.0,"az":297.0,"ss":15.0,"used":false,"gnssid":0,"svid":4,"health":1},{"PRN":10,"el":2.0,"az":158.0,"ss":23.0,"used":false,"gnssid":0,"svid":10,"health":1},{"PRN":16,"el":20.0,"az":184.0,"ss":27.0,"used":true,"gnssid":0,"svid":16,"health":1},{"PRN":25,"el":18.0,"az":43.0,"ss":0.0,"used":false,"gnssid":0,"svid":25,"health":1},{"PRN":26,"el":48.0,"az":171.0,"ss":26.0,"used":true,"gnssid":0,"svid":26,"health":1},{"PRN":28,"el":57.0,"az":47.0,"ss":9.0,"used":false,"gnssid":0,"svid":28,"health":1},{"PRN":29,"el":6.0,"az":81.0,"ss":0.0,"used":false,"gnssid":0,"svid":29,"health":1},{"PRN":31,"el":81.0,"az":344.0,"ss":10.0,"used":true,"gnssid":0,"svid":31,"health":1},{"PRN":32,"el":34.0,"az":103.0,"ss":0.0,"used":false,"gnssid":0,"svid":32,"health":1},{"PRN":421,"el":10.0,"az":135.0,"ss":0.0,"used":false,"gnssid":3,"svid":21,"health":1},{"PRN":424,"el":71.0,"az":198.0,"ss":25.0,"used":true,"gnssid":3,"svid":24,"health":1},{"PRN":425,"el":17.0,"az":221.0,"ss":27.0,"used":true,"gnssid":3,"svid":25,"health":1},{"PRN":426,"el":52.0,"az":54.0,"ss":0.0,"used":false,"gnssid":3,"svid":26,"health":1},{"PRN":433,"el":61.0,"az":309.0,"ss":14.0,"used":false,"gnssid":3,"svid":33,"health":1},{"PRN":68,"el":16.0,"az":126.0,"ss":9.0,"used":false,"gnssid":6,"svid":4,"health":1},{"PRN":69,"el":64.0,"az":100.0,"ss":0.0,"used":false,"gnssid":6,"svid":5,"health":1},{"PRN":70,"el":39.0,"az":325.0,"ss":0.0,"used":false,"gnssid":6,"svid":6,"health":1},{"PRN":73,"el":4.0,"az":211.0,"ss":29.0,"used":false,"gnssid":6,"svid":9,"health":1},{"PRN":78,"el":11.0,"az":33.0,"ss":0.0,"used":false,"gnssid":6,"svid":14,"health":1},{"PRN":79,"el":63.0,"az":44.0,"ss":10.0,"used":false,"gnssid":6,"svid":15,"health":1}]}
{"class":"PPS","device":"/dev/pps0","real_sec":1746768989,"real_nsec":0,"clock_sec":1746768988,"clock_nsec":999999891,"precision":-20}
{"class":"TPV","device":"/dev/ttyACM0","mode":3,"time":"2025-05-09T05:36:29.000Z","leapseconds":18,"ept":0.005,"lat":41.880675100,"lon":-87.643924600,"altHAE":266.4110,"altMSL":300.2000,"alt":300.2000,"epx":35.111,"epy":31.321,"epv":6.774,"track":24.4425,"magtrack":20.3876,"magvar":-4.1,"speed":0.004,"climb":-0.173,"eps":0.01,"epc":13.55,"ecefx":195519.94,"ecefy":-4752034.90,"ecefz":4235923.06,"ecefvx":0.00,"ecefvy":-0.01,"ecefvz":0.00,"ecefpAcc":12.60,"ecefvAcc":0.02,"geoidSep":-33.900,"eph":10.624,"sep":48.878}
{"class":"SKY","device":"/dev/ttyACM0","time":"2025-05-09T05:36:29.000Z","xdop":2.34,"ydop":2.09,"vdop":3.25,"tdop":3.46,"hdop":3.10,"gdop":5.67,"pdop":4.49,"nSat":26,"uSat":7,"satellites":[{"PRN":1,"el":15.0,"az":254.0,"ss":24.0,"used":true,"gnssid":0,"svid":1,"health":1},{"PRN":2,"el":2.0,"az":231.0,"ss":9.0,"used":false,"gnssid":0,"svid":2,"health":1},{"PRN":3,"el":51.0,"az":296.0,"ss":22.0,"used":false,"gnssid":0,"svid":3,"health":1},{"PRN":4,"el":17.0,"az":297.0,"ss":16.0,"used":false,"gnssid":0,"svid":4,"health":1},{"PRN":10,"el":2.0,"az":158.0,"ss":23.0,"used":false,"gnssid":0,"svid":10,"health":1},{"PRN":16,"el":20.0,"az":184.0,"ss":28.0,"used":true,"gnssid":0,"svid":16,"health":1},{"PRN":25,"el":18.0,"az":43.0,"ss":0.0,"used":false,"gnssid":0,"svid":25,"health":1},{"PRN":26,"el":48.0,"az":171.0,"ss":27.0,"used":true,"gnssid":0,"svid":26,"health":1},{"PRN":28,"el":57.0,"az":47.0,"ss":6.0,"used":false,"gnssid":0,"svid":28,"health":1},{"PRN":29,"el":6.0,"az":81.0,"ss":0.0,"used":false,"gnssid":0,"svid":29,"health":1},{"PRN":31,"el":81.0,"az":344.0,"ss":11.0,"used":true,"gnssid":0,"svid":31,"health":1},{"PRN":32,"el":34.0,"az":103.0,"ss":0.0,"used":false,"gnssid":0,"svid":32,"health":1},{"PRN":421,"el":10.0,"az":135.0,"ss":0.0,"used":false,"gnssid":3,"svid":21,"health":1},{"PRN":424,"el":71.0,"az":198.0,"ss":25.0,"used":true,"gnssid":3,"svid":24,"health":1},{"PRN":425,"el":17.0,"az":221.0,"ss":27.0,"used":true,"gnssid":3,"svid":25,"health":1},{"PRN":426,"el":52.0,"az":54.0,"ss":0.0,"used":false,"gnssid":3,"svid":26,"health":1},{"PRN":433,"el":61.0,"az":309.0,"ss":16.0,"used":false,"gnssid":3,"svid":33,"health":1},{"PRN":68,"el":16.0,"az":126.0,"ss":10.0,"used":false,"gnssid":6,"svid":4,"health":1},{"PRN":69,"el":64.0,"az":100.0,"ss":0.0,"used":false,"gnssid":6,"svid":5,"health":1},{"PRN":70,"el":39.0,"az":325.0,"ss":0.0,"used":false,"gnssid":6,"svid":6,"health":1},{"PRN":73,"el":4.0,"az":211.0,"ss":29.0,"used":false,"gnssid":6,"svid":9,"health":1},{"PRN":78,"el":11.0,"az":33.0,"ss":0.0,"used":false,"gnssid":6,"svid":14,"health":1},{"PRN":79,"el":63.0,"az":44.0,"ss":8.0,"used":false,"gnssid":6,"svid":15,"health":1}]}
{"class":"PPS","device":"/dev/pps0","real_sec":1746768990,"real_nsec":0,"clock_sec":1746768990,"clock_nsec":499,"precision":-20}
